~Version	Information								
 VERS.        2.00                                         :CWLS Log Ascii Standard - Version 2
 WRAP.        NO                                           :One line per depth step
~Well	Information	Block							
 #MNEM.UNIT	Data	Type	Information						
 #---------	---------	-------------------------------							
 STRT.F       7800.00000                                                                                     :START DEPTH
 STOP.F       6680.00000                                                                                     :STOP DEPTH
 STEP.F       -0.50000                                                                                       :INCREMENT
 NULL.        -999.25000                                                                                     :NULL DATA VALUE
 COMP.                                                                                                       :COMPANY
 WELL.        Dollie Thorell A4                                                                              :WELL
  FLD.        Wise County                                                                                    :FIELD
  LOC.                                                                                                       :LOCATION
 PROV.                                                                                                       :PROVINCE
 STAT.                                                                                                       :STATE
 CNTY.                                                                                                       :COUNTY
 CTRY.                                                                                                       :COUNTRY
 DATE.                                                                                                       :DATE
  UWI.        4249735151                                                                                     :UNIQUE WELL UWI
  LIC.                                                                                                       :LICENSE NUMBER
  API.        4249735151                                                                                     :API NUMBER
 SRVC.        SLB                                                                                            :SERVICE COMPANY
~Parameter	Information	Block						
#MNEM.UNIT    VALUE                                        :DESCRIPTION
#----.----    ---------------                              :-------------------
~Curve	Information	Block						
#MNEM.UNIT    VALUE                                        :DESCRIPTION
#----.----    ---------------                              :-------------------
 DEPT.F       00 001 00 00                                 :Depth Index
 WTOC.LBF/LBF                                              :1 WEIGHT PERCENT OF TOTAL ORGANIC CARBON
 WQUA.LBF/LBF                                              :2 WEIGHT PERCENT OF QUARTZ
 WPYR.LBF/LBF                                              :3 WEIGHT PERCENT OF PYRITE
 WILL.LBF/LBF                                              :4 WEIGHT PERCENT OF ILLITE
 WDOL.LBF/LBF                                              :5 WEIGHT PERCENT OF DOLOMITE
 WCLC.LBF/LBF                                              :6 WEIGHT PERCENT OF CALCITE
 WCAR.LBF/LBF                                              :7 WEIGHT PERCENT OF CARBONATE
 VXBW.V/V                                                  :8 VOLUME OF BOUND WATER IN FLUSHED ZONE
 VUWA.V/V                                                  :9 VOLUME OF WATER IN UNDISTURBED ZONE
 VUGA.V/V                                                  :10 VOLUME OF GAS IN UNDISTURBED ZONE
 VTOC.V/V                                                  :11 VOLUME OF TOTAL ORGANIC CARBON
 VQUA.V/V                                                  :12 VOLUME OF QUARTZ RELATIVE TO TOTAL VOLUME
 VPYR.V/V                                                  :13 VOLUME OF PYRITE RELATIVE TO TOTAL VOLUME
 VILL.V/V                                                  :14 VOLUME OF ILLITE (DRY) RELATIVE TO TOTAL VOLUME
 VDOL.V/V                                                  :15 VOLUME OF DOLOMITE RELATIVE TO TOTAL VOLUME
 VCLC.V/V                                                  :16 VOLUME OF CALCITE RELATIVE TO TOTAL VOLUME
  VCL.V/V                                                  :17 VOLUME OF CLAY TYPE MATERIAL RELATIVE TO TOTAL VOLUME
 VCAR.V/V                                                  :18 VOLUME FRACTION OF CARBONATE RELATIVE TO TOTAL VOLUME
 TOCH.OHMM                                                 :19 SUMMATION OF WEIGHT PERCENT TOC DECIMAL-FT
   SW.V/V                                                  :20 WATER SATURATION
   SP.MV                                                   :21 SPONTANEOUS POTENTIAL
 RPAH.OHMM                                                 :22 RESERVOIR HEIGHT (FT)
 RHOB.G/C3                                                 :23 BULK DENSITY
 PIGN.V/V                                                  :24 EFFECTIVE "POROSITY," "VISO," "VPAR," AND BOUND WATER REMOVED
 PHIT.V/V                                                  :25 TOTAL POROSITY_ INCLUDES ALL FORMS OF "POROSITY," INCLUDING THAT OCCUPIED BY BOUND "FLUIDS," AND IS INDEPENDENT OF ROCK AND FLUID MATERIALS AND OF ENVIRONMENTAL EFFECTS
  PEF.                                                     :26 PHOTOELECTRIC FACTOR
 NPHI.V/V                                                  :27 THERMAL NEUTRON POROSITY (ORIGINAL RATIO METHOD) IN SELECTED LITHOLOGY
 KINT.MD                                                   :28 INTRINSIC PERMEABILITY
   KH.OHMM                                                 :29 SUMMATION OF PERMEABILITY MD-FT
   GR.GAPI                                                 :30 GAMMA RAY
  GIP.                                                     :31 GAS IN PLACE BCF PER SQUARE MILE
 GASH.OHMM                                                 :32 SUMMATION OF GAS FILLED MATRIX POROSITY DECIMAL-FT
  DTT.US/F                                                 :33 THEORETICAL DT VALUE
 DPHI.V/V                                                  :34 DENSITY POROSITY
 CALI.IN                                                   :35 CALIPER
 AT90.OHMM                                                 :36 AIT TWO FOOT RESISTIVITY A90
 AT60.OHMM                                                 :37 AIT TWO FOOT RESISTIVITY A60
 AT30.OHMM                                                 :38 AIT TWO FOOT RESISTIVITY A30
 AT20.OHMM                                                 :39 AIT TWO FOOT RESISTIVITY A20
 AT10.OHMM                                                 :40 AIT TWO FOOT RESISTIVITY A10
~Ascii   DEPT         WTOC         WQUA         WPYR         WILL         WDOL         WCLC         WCAR         VXBW         VUWA         VUGA         VTOC         VQUA         VPYR         VILL         VDOL         VCLC          VCL         VCAR         TOCH           SW           SP         RPAH         RHOB         PIGN         PHIT          PEF         NPHI         KINT           KH           GR          GIP         GASH          DTT         DPHI         CALI         AT90         AT60         AT30         AT20         AT10																																						
# ...
	7148.5	0.02173	0.45838	0	0.27654	0	0	0.24334	0.05824	0.01165	0.02313	0.03289	0.41895	0	0.23297	0	0	0.29121	0.21749	15.18049	0.29521	-5.594	248.5	2.593	0.03946	0.0977	3.399	0.1575	0.00001	0.06221	105.35	121.7618	13.51542	76.65534	0.06842	8.036	23.9385	24.543	24.973	27.61	32.205
	7148	0.02667	0.48162	0	0.27221	0	0	0.2195	0.05669	0.01134	0.03101	0.03993	0.43528	0	0.22676	0	0	0.28345	0.19399	15.19383	0.23944	-5.563	249	2.571	0.04735	0.10404	3.313	0.158	0.00005	0.06224	96.096	121.89194	13.53092	78.38737	0.08129	8.048	21.806	21.749	23.001	24.926	26.187
	7147.5	0.02651	0.48382	0	0.26299	0	0	0.22668	0.05462	0.01092	0.03562	0.03957	0.43605	0	0.21847	0	0	0.27309	0.19978	15.20709	0.21209	-5.5315	249.5	2.561	0.05151	0.10612	3.303	0.1505	0.00006	0.06227	90.4715	122.03597	13.54874	78.60897	0.08713	8.048	22.986	22.8635	24.665	26.6955	28.17
	7147	0.02635	0.48601	0	0.25378	0	0	0.23386	0.05256	0.01051	0.04023	0.03922	0.4368	0	0.21023	0	0	0.26279	0.20552	15.22026	0.18886	-5.5	250	2.551	0.05566	0.10822	3.293	0.143	0.00008	0.06231	84.847	122.19389	13.56885	78.83333	0.09298	8.048	24.166	23.978	26.329	28.465	30.153
	7146.5	0.0284	0.4764	0	0.25543	0	0	0.23977	0.05259	0.01052	0.04431	0.04203	0.42568	0	0.21037	0	0	0.26296	0.2095	15.23446	0.17581	-5.6565	250.5	2.539	0.05983	0.11242	3.3115	0.147	0.00008	0.06235	85.308	122.36682	13.591	79.78495	0.1	8.036	24.3115	24.164	26.3935	28.324	30.8095
	7146	0.03047	0.46667	0	0.2571	0	0	0.24575	0.05263	0.01053	0.04839	0.04484	0.41456	0	0.21051	0	0	0.26314	0.21347	15.2497	0.16447	-5.813	251	2.527	0.064	0.11662	3.33	0.151	0.00008	0.06239	85.769	122.55476	13.6152	80.73677	0.10702	8.024	24.457	24.35	26.458	28.183	31.466
	7145.5	0.032	0.46835	0	0.25637	0	0	0.24328	0.05232	0.01046	0.05035	0.04694	0.41479	0	0.20928	0	0	0.2616	0.21068	15.2657	0.15856	-6.469	251.5	2.5215	0.06599	0.11831	3.3185	0.1545	0.00008	0.06243	87.06	122.75057	13.64037	81.20591	0.11023	8.024	26.0175	26.0025	28.2065	30.018	34.235
	7145	0.03354	0.47005	0	0.25569	0	0	0.24072	0.05202	0.0104	0.05232	0.04904	0.41502	0	0.20809	0	0	0.26011	0.20784	15.28247	0.15303	-7.125	252	2.516	0.06799	0.12001	3.307	0.158	0.00008	0.06247	88.351	122.95425	13.66653	81.67796	0.11345	8.024	27.578	27.655	29.955	31.853	37.004
	7144.5	0.03314	0.46269	0	0.25219	0	0	0.25198	0.05125	0.01025	0.05448	0.04841	0.40807	0	0.20501	0	0	0.25626	0.21731	15.29904	0.14653	-7.5315	252.5	2.5115	0.06996	0.12121	3.3265	0.1585	0.00006	0.0625	85.1635	123.16404	13.69377	81.7589	0.11608	8.024	27.3615	27.5045	29.3685	31.1265	36.8535
	7144	0.03274	0.45532	0	0.24868	0	0	0.26326	0.05048	0.0101	0.05664	0.04777	0.40111	0	0.20193	0	0	0.25241	0.22679	15.31541	0.14038	-7.938	253	2.507	0.07192	0.1224	3.346	0.159	0.00007	0.06253	81.976	123.37994	13.72209	81.84008	0.11871	8.024	27.145	27.354	28.782	30.4	36.703
	7143.5	0.02499	0.38343	0	0.22454	0	0.02708	0.33996	0.04661	0.00932	0.04731	0.03728	0.34538	0	0.18643	0	0.02385	0.23304	0.29945	15.3279	0.15279	-8.469	253	2.537	0.06101	0.10762	3.537	0.145	0.00002	0.06254	72.1915	123.55791	13.74574	77.80023	0.10117	8.012	31.088	30.442	32.696	34.9195	40.8115
	7143	0.01742	0.22215	0	0.20014	0	0.26565	0.29463	0.04282	0.00856	0.03295	0.02679	0.20626	0	0.17128	0	0.24118	0.2141	0.26749	15.33661	0.19386	-9	253	2.567	0.04418	0.087	3.728	0.131	0.00002	0.06256	62.407	123.6825	13.76222	72.37443	0.08363	8	35.031	33.53	36.61	39.439	44.92
	7142.5	0.01221	0.13879	0	0.18223	0	0.43523	0.23154	0.04007	0.00801	0.01616	0.01929	0.13243	0	0.16027	0	0.4061	0.20034	0.21605	15.34272	0.31068	-10.0625	253	2.6005	0.02579	0.06586	3.848	0.118	0	0.06256	59.433	123.7488	13.7703	67.45747	0.06404	8	43.8115	40.011	45.89	49.3945	56.463
	7142	0.00725	0.07145	0	0.16668	0	0.60608	0.14854	0.03739	0.00748	0.00514	0.01169	0.06956	0	0.14957	0	0.57696	0.18696	0.14141	15.34634	0.55734	-11.125	253	2.634	0.01342	0.05081	3.968	0.105	0	0.06256	56.459	123.75874	13.77287	63.66831	0.04444	8	52.592	46.492	55.17	59.35	68.006
	7141.5	0.00383	0.05231	0	0.15999	0	0.66902	0.11485	0.03613	0.00723	0.00298	0.00621	0.05126	0	0.14451	0	0.64109	0.18064	0.11006	15.34826	0.67309	-12.125	253	2.647	0.01074	0.04686	4.004	0.102	0	0.06256	51.048	123.76402	13.77436	62.32422	0.03684	8.012	51.764	47.2875	54.141	58.6985	70.6275
	7141	0.00045	0.03394	0	0.15338	0	0.73364	0.0786	0.03483	0.0074	0.00135	0.00073	0.03344	0	0.13931	0	0.70691	0.17414	0.07573	15.34848	0.81828	-13.125	253	2.66	0.00904	0.04387	4.04	0.099	0	0.06256	45.637	123.76463	13.77503	61.13614	0.02924	8.024	50.936	48.083	53.112	58.047	73.249
	7140.5	0	0	0	0.13778	0	0.86222	0	0.03149	0.0063	0	0	0	0	0.12596	0	0.83625	0.15745	0	15.34848	1	-13.9375	253	2.668	0.0063	0.03779	4.1695	0.0885	0	0.06256	40.633	123.76463	13.77503	59.65351	0.02456	8.012	64.1405	60.191	67.1075	73.3865	89.9755
	7140	0	0	0	0.12289	0	0.87711	0	0.02818	0.00564	0	0	0	0	0.11272	0	0.85346	0.1409	0	15.34848	1	-14.75	253	2.676	0.00564	0.03382	4.299	0.078	0	0.06256	35.629	123.76463	13.77503	58.74384	0.01988	8	77.345	72.299	81.103	88.726	106.702
	7139.5	0	0	0	0.11821	0	0.88179	0	0.02713	0.00543	0	0	0	0	0.10853	0	0.85891	0.13566	0	15.34848	1	-15.219	253	2.6875	0.00543	0.03256	4.326	0.0725	0	0.06256	35.384	123.76463	13.77503	58.45612	0.01316	8.012	86.088	81.7215	87.765	96.2185	121.436
	7139	0	0	0	0.11361	0	0.88639	0	0.0261	0.00522	0	0	0	0	0.10442	0	0.86426	0.13052	0	15.34848	1	-15.688	253	2.699	0.00522	0.03132	4.353	0.067	0	0.06256	35.139	123.76463	13.77503	58.17337	0.00643	8.024	94.831	91.144	94.427	103.711	136.17
	7138.5	0	0	0	0.10515	0	0.89485	0	0.0242	0.00484	0	0	0	0	0.09682	0	0.87414	0.12102	0	15.34848	1	-16.0315	253	2.7025	0.00484	0.02905	4.478	0.0595	0	0.06256	33.934	123.76463	13.77503	57.65139	0.00439	8.012	113.745	105.6925	114.1065	124.4425	166.5985
	7138	0	0	0	0.0969	0	0.9031	0	0.02235	0.00447	0	0	0	0	0.08939	0	0.8838	0.11173	0	15.34848	1	-16.375	253	2.706	0.00447	0.02682	4.603	0.052	0	0.06256	32.729	123.76463	13.77503	57.14089	0.00234	8	132.659	120.241	133.786	145.174	197.02699
	7137.5	0	0	0	0.0894	0	0.9106	0	0.02065	0.00413	0	0	0	0	0.0826	0	0.89262	0.10325	0	15.34848	1	-16.094	253	2.6995	0.00413	0.02478	4.7455	0.048	0	0.06256	30.862	123.76463	13.77503	56.67476	0.00614	8	152.5295	132.05249	149.939	164.7495	219.435
	7137	0	0	0	0.08201	0	0.91799	0	0.01898	0.0038	0	0	0	0	0.0759	0	0.90132	0.09488	0	15.34848	1	-15.813	253	2.693	0.0038	0.02277	4.888	0.044	0	0.06256	28.995	123.76463	13.77503	56.21463	0.00994	8	172.39999	143.864	166.092	184.325	241.843
	7136.5	0	0	0	0.08641	0	0.91359	0	0.01997	0.00399	0	0	0	0	0.0799	0	0.89614	0.09987	0	15.34848	1	-15.6255	253	2.68	0.00399	0.02397	4.878	0.0525	0	0.06256	30.7485	123.76463	13.77503	56.48882	0.01754	8	163.13	141.20099	161.9175	174.82251	222.866
	7136	0	0	0	0.09083	0	0.90917	0	0.02098	0.0042	0	0	0	0	0.0839	0	0.89093	0.10488	0	15.34848	1	-15.438	253	2.667	0.0042	0.02517	4.868	0.061	0	0.06256	32.502	123.76463	13.77503	56.76413	0.02515	8	153.86	138.53799	157.743	165.32001	203.88901
	7135.5	0	0	0	0.11767	0	0.88233	0	0.02701	0.0054	0	0	0	0	0.10805	0	0.85954	0.13506	0	15.34848	1	-15.344	253	2.6655	0.0054	0.03241	4.6755	0.07	0	0.06256	38.523	123.76463	13.77503	58.42286	0.02602	8.012	105.883	97.4595	107.935	112.474	142.5735
	7135	0	0	0	0.1465	0	0.8535	0	0.03342	0.00668	0	0	0	0	0.13367	0	0.82622	0.16709	0	15.34848	1	-15.25	253	2.664	0.00668	0.0401	4.483	0.079	0	0.06256	44.544	123.76463	13.77503	60.1835	0.0269	8.024	57.906	56.381	58.127	59.628	81.258
	7134.5	0	0	0	0.12185	0	0.87815	0	0.02795	0.00559	0	0	0	0	0.11178	0	0.85468	0.13973	0	15.34848	1	-15.5315	253	2.673	0.00559	0.03354	4.495	0.061	0	0.06256	36.084	123.76463	13.77503	58.67959	0.02164	8.012	84.35	82.4605	87.71049	90.8845	108.47751
	7134	0	0	0	0.09827	0	0.90173	0	0.02266	0.00453	0	0	0	0	0.09062	0	0.88219	0.11328	0	15.34848	1	-15.813	253	2.682	0.00453	0.02719	4.507	0.043	0	0.06256	27.624	123.76463	13.77503	57.22586	0.01637	8	110.794	108.54	117.294	122.141	135.69701
	7133.5	0	0	0	0.09027	0	0.90973	0	0.02085	0.00417	0	0	0	0	0.08339	0	0.89159	0.10424	0	15.34848	1	-16.1565	253	2.681	0.00417	0.02502	4.506	0.0435	0	0.06257	29.3305	123.76463	13.77503	56.72924	0.01696	8	144.767	142.0955	163.6535	178.2285	172.9785
