~Version	Information								
 VERS.        2.00                                         :CWLS Log Ascii Standard - Version 2
 WRAP.        NO                                           :One line per depth step
~Well	Information	Block							
 #MNEM.UNIT	Data	Type	Information						
 #---------	---------	-------------------------------							
 STRT.F       7800.00000                                                                                     :START DEPTH
 STOP.F       6680.00000                                                                                     :STOP DEPTH
 STEP.F       -0.50000                                                                                       :INCREMENT
 NULL.        -999.25000                                                                                     :NULL DATA VALUE
 COMP.                                                                                                       :COMPANY
 WELL.        Dollie Thorell A4                                                                              :WELL
  FLD.        Wise County                                                                                    :FIELD
  LOC.                                                                                                       :LOCATION
 PROV.                                                                                                       :PROVINCE
 STAT.                                                                                                       :STATE
 CNTY.                                                                                                       :COUNTY
 CTRY.                                                                                                       :COUNTRY
 DATE.                                                                                                       :DATE
  UWI.        4249735151                                                                                     :UNIQUE WELL UWI
  LIC.                                                                                                       :LICENSE NUMBER
  API.        4249735151                                                                                     :API NUMBER
 SRVC.        SLB                                                                                            :SERVICE COMPANY
~Parameter	Information	Block						
#MNEM.UNIT    VALUE                                        :DESCRIPTION
#----.----    ---------------                              :-------------------
~Curve	Information	Block						
#MNEM.UNIT    VALUE                                        :DESCRIPTION
#----.----    ---------------                              :-------------------
 DEPT.F       00 001 00 00                                 :Depth Index
 WTOC.LBF/LBF                                              :1 WEIGHT PERCENT OF TOTAL ORGANIC CARBON
 WQUA.LBF/LBF                                              :2 WEIGHT PERCENT OF QUARTZ
 WPYR.LBF/LBF                                              :3 WEIGHT PERCENT OF PYRITE
 WILL.LBF/LBF                                              :4 WEIGHT PERCENT OF ILLITE
 WDOL.LBF/LBF                                              :5 WEIGHT PERCENT OF DOLOMITE
 WCLC.LBF/LBF                                              :6 WEIGHT PERCENT OF CALCITE
 WCAR.LBF/LBF                                              :7 WEIGHT PERCENT OF CARBONATE
 VXBW.V/V                                                  :8 VOLUME OF BOUND WATER IN FLUSHED ZONE
 VUWA.V/V                                                  :9 VOLUME OF WATER IN UNDISTURBED ZONE
 VUGA.V/V                                                  :10 VOLUME OF GAS IN UNDISTURBED ZONE
 VTOC.V/V                                                  :11 VOLUME OF TOTAL ORGANIC CARBON
 VQUA.V/V                                                  :12 VOLUME OF QUARTZ RELATIVE TO TOTAL VOLUME
 VPYR.V/V                                                  :13 VOLUME OF PYRITE RELATIVE TO TOTAL VOLUME
 VILL.V/V                                                  :14 VOLUME OF ILLITE (DRY) RELATIVE TO TOTAL VOLUME
 VDOL.V/V                                                  :15 VOLUME OF DOLOMITE RELATIVE TO TOTAL VOLUME
 VCLC.V/V                                                  :16 VOLUME OF CALCITE RELATIVE TO TOTAL VOLUME
  VCL.V/V                                                  :17 VOLUME OF CLAY TYPE MATERIAL RELATIVE TO TOTAL VOLUME
 VCAR.V/V                                                  :18 VOLUME FRACTION OF CARBONATE RELATIVE TO TOTAL VOLUME
 TOCH.OHMM                                                 :19 SUMMATION OF WEIGHT PERCENT TOC DECIMAL-FT
   SW.V/V                                                  :20 WATER SATURATION
   SP.MV                                                   :21 SPONTANEOUS POTENTIAL
 RPAH.OHMM                                                 :22 RESERVOIR HEIGHT (FT)
 RHOB.G/C3                                                 :23 BULK DENSITY
 PIGN.V/V                                                  :24 EFFECTIVE "POROSITY," "VISO," "VPAR," AND BOUND WATER REMOVED
 PHIT.V/V                                                  :25 TOTAL POROSITY_ INCLUDES ALL FORMS OF "POROSITY," INCLUDING THAT OCCUPIED BY BOUND "FLUIDS," AND IS INDEPENDENT OF ROCK AND FLUID MATERIALS AND OF ENVIRONMENTAL EFFECTS
  PEF.                                                     :26 PHOTOELECTRIC FACTOR
 NPHI.V/V                                                  :27 THERMAL NEUTRON POROSITY (ORIGINAL RATIO METHOD) IN SELECTED LITHOLOGY
 KINT.MD                                                   :28 INTRINSIC PERMEABILITY
   KH.OHMM                                                 :29 SUMMATION OF PERMEABILITY MD-FT
   GR.GAPI                                                 :30 GAMMA RAY
  GIP.                                                     :31 GAS IN PLACE BCF PER SQUARE MILE
 GASH.OHMM                                                 :32 SUMMATION OF GAS FILLED MATRIX POROSITY DECIMAL-FT
  DTT.US/F                                                 :33 THEORETICAL DT VALUE
 DPHI.V/V                                                  :34 DENSITY POROSITY
 CALI.IN                                                   :35 CALIPER
 AT90.OHMM                                                 :36 AIT TWO FOOT RESISTIVITY A90
 AT60.OHMM                                                 :37 AIT TWO FOOT RESISTIVITY A60
 AT30.OHMM                                                 :38 AIT TWO FOOT RESISTIVITY A30
 AT20.OHMM                                                 :39 AIT TWO FOOT RESISTIVITY A20
 AT10.OHMM                                                 :40 AIT TWO FOOT RESISTIVITY A10
~Ascii   DEPT         WTOC         WQUA         WPYR         WILL         WDOL         WCLC         WCAR         VXBW         VUWA         VUGA         VTOC         VQUA         VPYR         VILL         VDOL         VCLC          VCL         VCAR         TOCH           SW           SP         RPAH         RHOB         PIGN         PHIT          PEF         NPHI         KINT           KH           GR          GIP         GASH          DTT         DPHI         CALI         AT90         AT60         AT30         AT20         AT10																																						
# ...
	7220.5	0.02899	0.35797	0.02477	0.25058	0	0.00046	0.33724	0.05253	0.02101	0.02261	0.04368	0.32565	0.01997	0.21012	0	0.0004	0.26265	0.3	13.85759	0.44099	-10.7815	248	2.5715	0.04765	0.10018	3.6975	0.1525	0.00001	0.06079	100.0505	116.65761	13.07446	76.76019	0.08099	8.048	32.525	32.216	35.0215	36.733	37.4
	7220	0.02313	0.33772	0.01998	0.2253	0	0.07339	0.32048	0.0481	0.01924	0.01571	0.03549	0.31286	0.01641	0.19238	0	0.06648	0.24048	0.29032	13.86916	0.50681	-10.813	248	2.592	0.03796	0.08605	3.779	0.147	0	0.06079	90.124	116.73689	13.08232	73.27994	0.06901	8.048	38.892	38.259	42.525	44.459	43.175
	7219.5	0.01988	0.30218	0.01436	0.19886	0	0.1907	0.27402	0.04295	0.01718	0.01403	0.03086	0.28325	0.01193	0.17182	0	0.1748	0.21477	0.25116	13.8791	0.51718	-11.0005	248	2.5905	0.03322	0.07618	3.9045	0.1275	0	0.06079	77.8735	116.80688	13.08933	70.77301	0.06988	8.048	48.501	47.408	52.636	53.6595	54.737
	7219	0.01667	0.27065	0.00889	0.17328	0	0.33393	0.19656	0.03793	0.01517	0.01043	0.02623	0.2571	0.00749	0.15172	0	0.31019	0.18965	0.18259	13.88743	0.56723	-11.188	248	2.589	0.02675	0.06468	4.03	0.108	0	0.06079	65.623	116.86168	13.09455	67.99336	0.07076	8.048	58.11	56.557	62.747	62.86	66.299
	7218.5	0.01356	0.23687	0.00361	0.14911	0	0.50632	0.09053	0.03316	0.01326	0.00386	0.02168	0.2286	0.00309	0.13265	0	0.47784	0.16581	0.08544	13.89422	0.75629	-11.4065	248	2.605	0.01754	0.0507	4.146	0.093	0	0.06079	59.741	116.88011	13.09648	64.77531	0.0614	8.036	86.1835	86.0045	99.82401	120.894	145.83051
	7218	0.01058	0.19984	0	0.12696	0	0.66262	0	0.02859	0.01144	0	0.01713	0.19529	0	0.11436	0	0.6332	0.14295	0	13.89951	1	-11.625	248	2.621	0.01144	0.04003	4.262	0.078	0	0.06079	53.859	116.89463	13.09648	62.11186	0.05205	8.024	114.257	115.452	136.901	178.92799	225.362
	7217.5	0.01066	0.21551	0	0.12738	0	0.64646	0	0.02867	0.01147	0	0.01724	0.21049	0	0.11468	0	0.61745	0.14335	0	13.90484	1	-11.8125	248	2.628	0.01147	0.04014	4.2025	0.0835	0	0.06079	58.5915	116.90926	13.09648	62.21445	0.04795	8.036	130.14099	136.927	151.7805	184.37949	197.011
	7217	0.01074	0.21539	0.00145	0.12793	0	0.60643	0.03807	0.02876	0.0115	0.00101	0.01735	0.21012	0.00125	0.11504	0	0.5785	0.1438	0.03632	13.91021	0.90829	-12	248	2.635	0.01267	0.04142	4.143	0.089	0	0.06079	63.324	116.92397	13.09699	62.4385	0.04386	8.048	146.02499	158.40199	166.66	189.83099	168.66
	7216.5	0.0152	0.29452	0.00997	0.16246	0	0.30404	0.21382	0.03579	0.01432	0.00737	0.02406	0.28155	0.00845	0.14315	0	0.28421	0.17894	0.19987	13.91781	0.62448	-12.0315	248	2.619	0.02292	0.05871	3.934	0.11	0	0.0608	72.805	116.94447	13.10067	66.71189	0.05322	8.048	98.8135	105.95	111.5855	125.13249	117.739
	7216	0.01987	0.35916	0.01908	0.20099	0	0.08715	0.31375	0.0433	0.01732	0.0146	0.03077	0.33576	0.01581	0.17319	0	0.07967	0.21649	0.28682	13.92774	0.49925	-12.063	248	2.603	0.03469	0.07799	3.725	0.131	0	0.0608	82.286	117.01614	13.10797	71.27464	0.06257	8.048	51.602	53.498	56.511	60.434	66.818
	7215.5	0.02162	0.42468	0.02446	0.23175	0	0	0.29748	0.04926	0.0197	0.0171	0.03304	0.39174	0.02	0.19705	0	0	0.24631	0.26834	13.93855	0.4857	-11.969	248	2.595	0.04057	0.08983	3.535	0.1595	0	0.0608	88.3245	117.09764	13.11652	74.09031	0.06725	8.072	35.9315	37.2455	39.1535	42.148	46.306
	7215	0.02333	0.4955	0.0247	0.26588	0	0	0.19058	0.05598	0.02239	0.01542	0.03531	0.4527	0.02	0.2239	0	0	0.27988	0.17026	13.95022	0.53493	-11.875	248	2.587	0.04186	0.09783	3.345	0.188	0.00001	0.0608	94.363	117.17599	13.12423	76.35252	0.07193	8.096	20.261	20.993	21.796	23.862	25.794
	7214.5	0.02454	0.50643	0.02483	0.28217	0	0	0.16203	0.05909	0.02364	0.01561	0.03693	0.46025	0.02	0.23637	0	0	0.29546	0.144	13.96249	0.54507	-11.594	248	2.58	0.04336	0.10246	3.3175	0.204	0.00001	0.06081	97.024	117.25642	13.13203	77.52522	0.07602	8.1085	16.5415	17.1815	17.9195	19.616	20.874
	7214	0.02576	0.51757	0.02497	0.2999	0	0	0.1318	0.06246	0.02498	0.0157	0.03855	0.46779	0.02	0.24984	0	0	0.3123	0.11649	13.97537	0.55677	-11.313	248	2.573	0.04487	0.10733	3.29	0.22	0.00002	0.06082	99.685	117.33858	13.13988	78.75622	0.08012	8.121	12.822	13.37	14.043	15.37	15.954
	7213.5	0.0265	0.52211	0.02508	0.30821	0	0	0.11809	0.06391	0.02556	0.01751	0.03949	0.4698	0.02	0.25563	0	0	0.31953	0.10391	13.98862	0.54079	-10.9065	248	2.5645	0.04727	0.11118	3.279	0.226	0.00002	0.06083	99.31799	117.42722	13.14864	79.61453	0.08509	8.133	11.2975	11.7225	12.3555	13.377	14.001
	7213	0.02725	0.527	0.02519	0.31637	0	0	0.10419	0.06531	0.02787	0.01766	0.04043	0.47209	0.02	0.26123	0	0	0.32654	0.09127	14.00224	0.56117	-10.5	248	2.556	0.04967	0.11497	3.268	0.232	0.00003	0.06084	98.951	117.5172	13.15747	80.4133	0.09006	8.145	9.773	10.075	10.668	11.384	12.048
	7212.5	0.0262	0.54652	0.02515	0.3169	0	0	0.08524	0.06553	0.02984	0.01426	0.03894	0.49045	0.02	0.26214	0	0	0.32767	0.0748	14.01534	0.61981	-10.25	248	2.5605	0.04814	0.11368	3.2195	0.2275	0.00006	0.06087	98.314	117.59533	13.1646	80.08919	0.08743	8.157	9.353	9.619	10.2345	10.885	11.4955
	7212	0.02515	0.566	0.0251	0.31744	0	0	0.06632	0.06576	0.03196	0.01071	0.03744	0.50884	0.02	0.26304	0	0	0.3288	0.0583	14.02791	0.6856	-10	248	2.565	0.04662	0.11238	3.171	0.223	0.00006	0.0609	97.677	117.66116	13.16995	79.76078	0.0848	8.169	8.933	9.163	9.801	10.386	10.943
	7211.5	0.02596	0.5381	0.02513	0.31405	0	0	0.09677	0.06497	0.02915	0.01531	0.0386	0.4831	0.02	0.25988	0	0	0.32485	0.08495	14.04089	0.60112	-9.7815	248	2.56	0.0485	0.11347	3.242	0.223	0.00006	0.06093	97.142	117.74225	13.17761	79.97223	0.08772	8.175	9.595	9.838	10.6255	11.2375	11.902
	7211	0.02677	0.51018	0.02517	0.31065	0	0	0.12723	0.06418	0.02669	0.01958	0.03975	0.45742	0.02	0.25672	0	0	0.32091	0.11155	14.05428	0.5299	-9.563	248.5	2.555	0.05038	0.11456	3.313	0.223	0.00003	0.06095	96.607	117.83755	13.1874	80.17398	0.09064	8.181	10.257	10.513	11.45	12.089	12.861
	7210.5	0.02308	0.50165	0.02496	0.2964	0	0	0.15391	0.06174	0.02611	0.01719	0.03456	0.45349	0.02	0.24697	0	0	0.30871	0.13605	14.06582	0.55333	-9.5005	248.5	2.567	0.04719	0.10893	3.344	0.205	0.00002	0.06096	90.455	117.92088	13.196	78.55015	0.08363	8.175	11.033	11.3635	12.339	13.1165	14.2295
	7210	0.01946	0.49332	0.02476	0.28238	0	0	0.18009	0.05931	0.02584	0.0145	0.02937	0.44961	0.02	0.23722	0	0	0.29653	0.1605	14.07554	0.58734	-9.438	248.5	2.579	0.044	0.1033	3.375	0.187	0.00001	0.06096	84.303	117.99131	13.20325	76.91755	0.07661	8.169	11.809	12.214	13.228	14.144	15.598
	7209.5	0.02037	0.48313	0.02478	0.28518	0	0	0.18654	0.05984	0.02461	0.01571	0.03072	0.43996	0.02	0.23937	0	0	0.29921	0.16611	14.08573	0.55916	-9.5005	248.5	2.5785	0.04401	0.10385	3.4	0.1955	0.00001	0.06097	86.678	118.06665	13.2111	77.16356	0.0769	8.169	12.0135	12.4555	13.4195	14.4045	15.764
	7209	0.02128	0.47278	0.0248	0.28758	0	0	0.19356	0.0603	0.02412	0.01601	0.03207	0.43019	0.02	0.2412	0	0	0.3015	0.17222	14.09637	0.54796	-9.563	248.5	2.578	0.04402	0.10432	3.425	0.204	0.00001	0.06097	89.053	118.14409	13.2191	77.3622	0.07719	8.169	12.218	12.697	13.611	14.665	15.93
	7208.5	0.02355	0.46939	0.02492	0.29811	0	0	0.18403	0.06221	0.02488	0.01676	0.03532	0.42509	0.02	0.24884	0	0	0.31105	0.16297	14.10814	0.54607	-9.4065	248.5	2.5715	0.04557	0.10778	3.431	0.207	0.00001	0.06098	93.5615	118.2267	13.22748	78.3504	0.08099	8.169	11.476	11.8755	12.6805	13.723	14.8485
	7208	0.02583	0.46372	0.02504	0.3087	0	0	0.17671	0.06412	0.02565	0.01738	0.03857	0.41797	0.02	0.25647	0	0	0.32059	0.15575	14.12106	0.54427	-9.25	248.5	2.565	0.04712	0.11124	3.437	0.21	0.00002	0.06099	98.07	118.3141	13.23617	79.32472	0.0848	8.169	10.734	11.054	11.75	12.781	13.767
	7207.5	0.02458	0.44808	0.02497	0.30595	0	0	0.19642	0.06371	0.02601	0.01628	0.03679	0.40494	0.02	0.25485	0	0	0.31856	0.17358	14.13335	0.56369	-9.125	248.5	2.5685	0.04613	0.10985	3.4895	0.201	0.00001	0.06099	96.0625	118.39654	13.24431	78.82812	0.08275	8.169	10.6165	10.9315	11.6125	12.654	13.512
	7207	0.02333	0.43064	0.0249	0.3028	0	0	0.21833	0.06323	0.02705	0.01435	0.03501	0.39023	0.02	0.25292	0	0	0.31615	0.19346	14.14501	0.59928	-9	248.5	2.572	0.04515	0.10837	3.542	0.192	0.00001	0.061	94.055	118.47145	13.25149	78.28044	0.0807	8.169	10.499	10.809	11.475	12.527	13.257
