~Version	Information								
 VERS.        2.00                                         :CWLS Log Ascii Standard - Version 2
 WRAP.        NO                                           :One line per depth step
~Well	Information	Block							
 #MNEM.UNIT	Data	Type	Information						
 #---------	---------	-------------------------------							
 STRT.F       7800.00000                                                                                     :START DEPTH
 STOP.F       6680.00000                                                                                     :STOP DEPTH
 STEP.F       -0.50000                                                                                       :INCREMENT
 NULL.        -999.25000                                                                                     :NULL DATA VALUE
 COMP.                                                                                                       :COMPANY
 WELL.        Dollie Thorell A4                                                                              :WELL
  FLD.        Wise County                                                                                    :FIELD
  LOC.                                                                                                       :LOCATION
 PROV.                                                                                                       :PROVINCE
 STAT.                                                                                                       :STATE
 CNTY.                                                                                                       :COUNTY
 CTRY.                                                                                                       :COUNTRY
 DATE.                                                                                                       :DATE
  UWI.        4249735151                                                                                     :UNIQUE WELL UWI
  LIC.                                                                                                       :LICENSE NUMBER
  API.        4249735151                                                                                     :API NUMBER
 SRVC.        SLB                                                                                            :SERVICE COMPANY
~Parameter	Information	Block						
#MNEM.UNIT    VALUE                                        :DESCRIPTION
#----.----    ---------------                              :-------------------
~Curve	Information	Block						
#MNEM.UNIT    VALUE                                        :DESCRIPTION
#----.----    ---------------                              :-------------------
 DEPT.F       00 001 00 00                                 :Depth Index
 WTOC.LBF/LBF                                              :1 WEIGHT PERCENT OF TOTAL ORGANIC CARBON
 WQUA.LBF/LBF                                              :2 WEIGHT PERCENT OF QUARTZ
 WPYR.LBF/LBF                                              :3 WEIGHT PERCENT OF PYRITE
 WILL.LBF/LBF                                              :4 WEIGHT PERCENT OF ILLITE
 WDOL.LBF/LBF                                              :5 WEIGHT PERCENT OF DOLOMITE
 WCLC.LBF/LBF                                              :6 WEIGHT PERCENT OF CALCITE
 WCAR.LBF/LBF                                              :7 WEIGHT PERCENT OF CARBONATE
 VXBW.V/V                                                  :8 VOLUME OF BOUND WATER IN FLUSHED ZONE
 VUWA.V/V                                                  :9 VOLUME OF WATER IN UNDISTURBED ZONE
 VUGA.V/V                                                  :10 VOLUME OF GAS IN UNDISTURBED ZONE
 VTOC.V/V                                                  :11 VOLUME OF TOTAL ORGANIC CARBON
 VQUA.V/V                                                  :12 VOLUME OF QUARTZ RELATIVE TO TOTAL VOLUME
 VPYR.V/V                                                  :13 VOLUME OF PYRITE RELATIVE TO TOTAL VOLUME
 VILL.V/V                                                  :14 VOLUME OF ILLITE (DRY) RELATIVE TO TOTAL VOLUME
 VDOL.V/V                                                  :15 VOLUME OF DOLOMITE RELATIVE TO TOTAL VOLUME
 VCLC.V/V                                                  :16 VOLUME OF CALCITE RELATIVE TO TOTAL VOLUME
  VCL.V/V                                                  :17 VOLUME OF CLAY TYPE MATERIAL RELATIVE TO TOTAL VOLUME
 VCAR.V/V                                                  :18 VOLUME FRACTION OF CARBONATE RELATIVE TO TOTAL VOLUME
 TOCH.OHMM                                                 :19 SUMMATION OF WEIGHT PERCENT TOC DECIMAL-FT
   SW.V/V                                                  :20 WATER SATURATION
   SP.MV                                                   :21 SPONTANEOUS POTENTIAL
 RPAH.OHMM                                                 :22 RESERVOIR HEIGHT (FT)
 RHOB.G/C3                                                 :23 BULK DENSITY
 PIGN.V/V                                                  :24 EFFECTIVE "POROSITY," "VISO," "VPAR," AND BOUND WATER REMOVED
 PHIT.V/V                                                  :25 TOTAL POROSITY_ INCLUDES ALL FORMS OF "POROSITY," INCLUDING THAT OCCUPIED BY BOUND "FLUIDS," AND IS INDEPENDENT OF ROCK AND FLUID MATERIALS AND OF ENVIRONMENTAL EFFECTS
  PEF.                                                     :26 PHOTOELECTRIC FACTOR
 NPHI.V/V                                                  :27 THERMAL NEUTRON POROSITY (ORIGINAL RATIO METHOD) IN SELECTED LITHOLOGY
 KINT.MD                                                   :28 INTRINSIC PERMEABILITY
   KH.OHMM                                                 :29 SUMMATION OF PERMEABILITY MD-FT
   GR.GAPI                                                 :30 GAMMA RAY
  GIP.                                                     :31 GAS IN PLACE BCF PER SQUARE MILE
 GASH.OHMM                                                 :32 SUMMATION OF GAS FILLED MATRIX POROSITY DECIMAL-FT
  DTT.US/F                                                 :33 THEORETICAL DT VALUE
 DPHI.V/V                                                  :34 DENSITY POROSITY
 CALI.IN                                                   :35 CALIPER
 AT90.OHMM                                                 :36 AIT TWO FOOT RESISTIVITY A90
 AT60.OHMM                                                 :37 AIT TWO FOOT RESISTIVITY A60
 AT30.OHMM                                                 :38 AIT TWO FOOT RESISTIVITY A30
 AT20.OHMM                                                 :39 AIT TWO FOOT RESISTIVITY A20
 AT10.OHMM                                                 :40 AIT TWO FOOT RESISTIVITY A10
~Ascii   DEPT         WTOC         WQUA         WPYR         WILL         WDOL         WCLC         WCAR         VXBW         VUWA         VUGA         VTOC         VQUA         VPYR         VILL         VDOL         VCLC          VCL         VCAR         TOCH           SW           SP         RPAH         RHOB         PIGN         PHIT          PEF         NPHI         KINT           KH           GR          GIP         GASH          DTT         DPHI         CALI         AT90         AT60         AT30         AT20         AT10																																						
# ...
	7488	0.0392	0.34349	0.02167	0.20984	0	0.04412	0.34167	0.04398	0.0132	0.04019	0.05905	0.31245	0.01747	0.17594	0	0.03925	0.21992	0.2952	0.57962	0.23285	-43.5	8.5	2.537	0.05667	0.10065	3.66	0.138	0.00003	0.00078	130.631	4.34943	0.4615	77.87759	0.10117	7.928	180.799	192.101	179.065	169.246	393.32401
	7487.5	0.04608	0.33598	0.02017	0.19169	0	0.0706	0.33548	0.04011	0.01203	0.04194	0.06931	0.3051	0.01623	0.16044	0	0.06269	0.20055	0.28935	0.60266	0.21194	-44.594	9	2.513	0.05677	0.09688	3.6865	0.133	0.00003	0.0008	145.7475	4.54163	0.48247	77.891	0.1152	7.916	211.92749	226.72198	209.2765	200.8275	572.60999
	7487	0.05305	0.32698	0.0187	0.17373	0	0.1004	0.32714	0.03623	0.01087	0.04503	0.07953	0.29594	0.015	0.14494	0	0.08886	0.18117	0.28123	0.62919	0.18656	-45.688	9.5	2.489	0.05827	0.0945	3.713	0.128	0.00004	0.00082	160.864	4.75222	0.50499	78.14011	0.12924	7.904	243.056	261.34299	239.48801	232.409	751.896
	7486.5	0.05524	0.35246	0.01853	0.14358	0	0.1045	0.32569	0.02999	0.009	0.0487	0.08292	0.31943	0.01488	0.11995	0	0.09261	0.14993	0.28036	0.65681	0.15027	-46.188	10	2.481	0.05986	0.08985	3.633	0.131	0.00005	0.00085	164.5145	4.97709	0.52934	77.36607	0.13392	7.904	375.983	331.08249	368.70599	347.0105	1070.94946
	7486	0.05746	0.37652	0.01841	0.11395	0	0.10893	0.32473	0.02381	0.00714	0.05311	0.08629	0.34139	0.01479	0.09524	0	0.09658	0.11904	0.27966	0.68554	0.11477	-46.688	10.5	2.473	0.06224	0.08604	3.553	0.134	0.00006	0.00088	168.16499	5.21856	0.55589	76.73814	0.1386	7.904	508.91	400.82199	497.92401	461.612	1390.00305
	7485.5	0.05478	0.3757	0.02	0.13679	0	0.07721	0.33552	0.02851	0.00855	0.05209	0.08205	0.33977	0.01603	0.11403	0	0.06828	0.14253	0.2882	0.71293	0.13547	-46.1255	11	2.483	0.06313	0.09164	3.5485	0.126	0.00004	0.0009	158.99899	5.45338	0.58194	77.59189	0.13275	7.916	403.51801	360.612	405.00101	398.91949	1349.30347
	7485	0.05213	0.37298	0.02165	0.16004	0	0.04908	0.34411	0.03323	0.00997	0.052	0.07779	0.33605	0.01729	0.13291	0	0.04324	0.16613	0.29448	0.73899	0.1533	-45.563	11.5	2.493	0.06502	0.09825	3.544	0.118	0.00004	0.00092	149.83299	5.6845	0.60794	78.6166	0.1269	7.928	298.12601	320.40201	312.078	336.22699	1308.604
	7484.5	0.04656	0.36182	0.01856	0.15029	0	0.09819	0.32458	0.0316	0.00948	0.04527	0.07038	0.33018	0.01501	0.12641	0	0.08762	0.15802	0.28134	0.76227	0.16504	-44.344	12	2.5105	0.05745	0.08905	3.6025	0.097	0.00005	0.00094	126.4225	5.88789	0.63058	76.23016	0.11667	8	362.5835	370.33899	367.5715	357.56299	1113.98193
	7484	0.04114	0.35118	0.01556	0.14088	0	0.15441	0.29682	0.03	0.009	0.03844	0.06297	0.32451	0.01274	0.11999	0	0.13953	0.14999	0.26051	0.78284	0.18085	-43.125	12.5	2.528	0.04976	0.07976	3.661	0.076	0.00005	0.00097	103.012	6.06325	0.6498	73.82842	0.10643	8.072	427.04099	420.276	423.065	378.89899	919.35999
	7483.5	0.03802	0.35114	0.01793	0.16872	0	0.10604	0.31815	0.03584	0.01075	0.03692	0.05804	0.32367	0.01465	0.14336	0	0.09558	0.1792	0.27855	0.80185	0.21373	-42.344	13	2.5395	0.0503	0.08614	3.6595	0.094	0.00003	0.00098	118.422	6.22975	0.66825	74.82993	0.09971	8.1385	325.70999	344.67551	344.8945	313.81149	686.61151
	7483	0.03489	0.35019	0.02036	0.19707	0	0.06377	0.33371	0.04173	0.01252	0.03594	0.0531	0.32176	0.01658	0.1669	0	0.05729	0.20863	0.29124	0.8193	0.24354	-41.563	13	2.551	0.0514	0.09313	3.658	0.112	0.00002	0.001	133.832	6.38908	0.68622	75.93437	0.09298	8.205	224.379	269.07501	266.724	248.724	453.86301
	7482.5	0.02902	0.32146	0.01733	0.20205	0	0.11862	0.31152	0.04338	0.01301	0.02559	0.04479	0.29953	0.01431	0.17353	0	0.10808	0.21691	0.2757	0.83381	0.31984	-40.3755	13	2.5705	0.04069	0.08407	3.787	0.107	0.00001	0.001	136.59	6.50849	0.69902	73.6215	0.08158	8.1205	227.842	256.39752	254.73599	248.936	396.6105
	7482	0.02337	0.28976	0.01441	0.20728	0	0.18322	0.28196	0.04502	0.01351	0.01697	0.03649	0.27315	0.01204	0.1801	0	0.16889	0.22512	0.25246	0.8455	0.42409	-39.188	13	2.59	0.03185	0.07688	3.916	0.102	0	0.001	139.34801	6.59347	0.7075	71.61826	0.07018	8.036	231.30499	243.72	242.748	249.14799	339.358
	7481.5	0.01214	0.22672	0.00484	0.16662	0	0.46823	0.12145	0.03721	0.01116	0.00379	0.01948	0.21971	0.00416	0.14884	0	0.44372	0.18605	0.11179	0.85156	0.73957	-38.219	13	2.63	0.01509	0.0523	4.1485	0.0835	0	0.001	108.5005	6.61004	0.7094	65.15143	0.04678	8.024	245.8105	258.66901	265.86801	230.28049	378.0675
	7481	0.00151	0.14477	0	0.12853	0	0.72519	0	0.02917	0.0108	0	0.00247	0.14256	0	0.11667	0	0.69834	0.14583	0	0.85232	1	-37.25	13	2.67	0.0108	0.03996	4.381	0.065	0	0.001	77.653	6.61213	0.7094	60.61586	0.02339	8.012	260.31601	273.61801	288.98801	211.41299	416.77701
	7480.5	0.00597	0.13775	0	0.14561	0	0.71067	0	0.03288	0.00986	0	0.0097	0.13499	0	0.13153	0	0.68104	0.16441	0	0.85531	1	-36.219	13	2.653	0.00986	0.04275	4.4155	0.0815	0	0.001	88.744	6.62036	0.7094	61.99644	0.03333	8.03	246.567	265.86151	283.13599	226.47501	443.7485
	7480	0.0105	0.12717	0	0.16286	0	0.69947	0	0.03653	0.01096	0	0.01693	0.12377	0	0.1461	0	0.66571	0.18263	0	0.86056	1	-35.188	13	2.636	0.01096	0.04748	4.45	0.098	0	0.001	99.835	6.63476	0.7094	63.64509	0.04327	8.048	232.81799	258.10501	277.284	241.537	470.72
	7479.5	0.02188	0.20706	0.00626	0.19517	0	0.41754	0.15209	0.04291	0.01287	0.00741	0.03458	0.19755	0.0053	0.17163	0	0.38954	0.21453	0.13782	0.8715	0.62232	-34.4065	13	2.5945	0.02068	0.06359	4.1965	0.123	0	0.001	132.63049	6.66427	0.7131	68.71932	0.06754	8.048	187.32401	210.79102	224.16699	211.147	375.06549
	7479	0.03414	0.26777	0.0161	0.23108	0	0.1487	0.30221	0.04918	0.01475	0.02525	0.05223	0.2473	0.01318	0.19672	0	0.13429	0.2459	0.2651	0.88857	0.35132	-33.625	13	2.553	0.042	0.09117	3.943	0.148	0.00001	0.00101	165.42599	6.78909	0.72573	75.6668	0.09181	8.048	141.83	163.47701	171.05	180.757	279.41101
	7478.5	0.03995	0.31971	0.02423	0.25568	0	0.01056	0.34987	0.05314	0.01594	0.03845	0.05967	0.28834	0.01937	0.21254	0	0.00931	0.26568	0.2997	0.90854	0.27518	-33.0315	13	2.5355	0.05793	0.11106	3.7245	0.1775	0.00002	0.00102	207.799	6.9623	0.74495	80.17873	0.10205	8.048	106.48801	119.4545	124.75301	131.8335	195.78851
	7478	0.04568	0.39205	0.02544	0.2806	0	0	0.25622	0.05735	0.01721	0.04103	0.06711	0.34774	0.02	0.22941	0	0	0.28676	0.21586	0.93139	0.27519	-32.438	13.5	2.518	0.06252	0.11988	3.506	0.207	0.00007	0.00106	250.172	7.15024	0.76547	82.89601	0.11228	8.048	71.146	75.432	78.456	82.91	112.166
	7477.5	0.0443	0.42335	0.02548	0.29782	0	0	0.20905	0.06079	0.01824	0.03754	0.06499	0.37497	0.02	0.24314	0	0	0.30393	0.17587	0.95354	0.30266	-31.8755	14	2.523	0.06025	0.12104	3.43	0.2075	0.0001	0.00111	238.38501	7.32542	0.78424	83.22725	0.10936	8.048	59.7725	62.9935	65.589	70.3785	89.065
	7477	0.04291	0.45476	0.02552	0.31543	0	0	0.16139	0.06428	0.01928	0.03404	0.06286	0.40218	0.02	0.25713	0	0	0.32141	0.13557	0.97499	0.33262	-31.313	14.5	2.528	0.05798	0.12226	3.354	0.208	0.00011	0.00116	226.59801	7.48775	0.80126	83.57351	0.10643	8.048	48.399	50.555	52.722	57.847	65.964
	7476.5	0.03728	0.48432	0.02534	0.32708	0	0	0.12598	0.06712	0.02014	0.02682	0.05499	0.43131	0.02	0.26848	0	0	0.3356	0.10656	0.99364	0.39069	-30.688	15	2.5465	0.05154	0.11866	3.3	0.2065	0.00007	0.0012	211.103	7.62043	0.81467	82.52377	0.09561	8.048	44.735	45.6475	48.0915	51.4735	60.282
	7476	0.03173	0.51348	0.02517	0.33867	0	0	0.09096	0.06998	0.02099	0.01959	0.04712	0.46042	0.02	0.27991	0	0	0.34988	0.07747	1.0095	0.46545	-30.063	15.5	2.565	0.0451	0.11508	3.246	0.205	0.00003	0.00121	195.608	7.72343	0.82446	81.47816	0.0848	8.048	41.071	40.74	43.461	45.1	54.6
	7475.5	0.03837	0.49256	0.02539	0.32583	0	0	0.11785	0.06674	0.02002	0.02784	0.05648	0.43782	0.02	0.26695	0	0	0.33369	0.09949	1.02868	0.38122	-29.8755	16	2.543	0.05252	0.11926	3.273	0.217	0.00008	0.00125	192.645	7.86065	0.83838	82.76853	0.09766	8.048	45.129	45.3605	48.423	49.717	62.1715
	7475	0.04512	0.47132	0.02561	0.31289	0	0	0.14506	0.06352	0.01906	0.03609	0.06584	0.41524	0.02	0.25408	0	0	0.31761	0.12138	1.05124	0.31794	-29.688	16.5	2.521	0.05994	0.12346	3.3	0.229	0.00014	0.00133	189.68201	8.03204	0.85643	84.06413	0.11053	8.048	49.187	49.981	53.385	54.334	69.743
	7474.5	0.04797	0.47311	0.02566	0.29787	0	0	0.1554	0.06037	0.01811	0.03951	0.06988	0.41611	0.02	0.24148	0	0	0.30185	0.12982	1.07523	0.29052	-29.6565	17	2.5115	0.06234	0.12271	3.285	0.2305	0.00016	0.00141	173.912	8.21765	0.87618	84.11648	0.11608	8.048	58.1235	58.8645	63.5955	65.1455	87.22549
