~Version	Information								
 VERS.        2.00                                         :CWLS Log Ascii Standard - Version 2
 WRAP.        NO                                           :One line per depth step
~Well	Information	Block							
 #MNEM.UNIT	Data	Type	Information						
 #---------	---------	-------------------------------							
 STRT.F       7800.00000                                                                                     :START DEPTH
 STOP.F       6680.00000                                                                                     :STOP DEPTH
 STEP.F       -0.50000                                                                                       :INCREMENT
 NULL.        -999.25000                                                                                     :NULL DATA VALUE
 COMP.                                                                                                       :COMPANY
 WELL.        Dollie Thorell A4                                                                              :WELL
  FLD.        Wise County                                                                                    :FIELD
  LOC.                                                                                                       :LOCATION
 PROV.                                                                                                       :PROVINCE
 STAT.                                                                                                       :STATE
 CNTY.                                                                                                       :COUNTY
 CTRY.                                                                                                       :COUNTRY
 DATE.                                                                                                       :DATE
  UWI.        4249735151                                                                                     :UNIQUE WELL UWI
  LIC.                                                                                                       :LICENSE NUMBER
  API.        4249735151                                                                                     :API NUMBER
 SRVC.        SLB                                                                                            :SERVICE COMPANY
~Parameter	Information	Block						
#MNEM.UNIT    VALUE                                        :DESCRIPTION
#----.----    ---------------                              :-------------------
~Curve	Information	Block						
#MNEM.UNIT    VALUE                                        :DESCRIPTION
#----.----    ---------------                              :-------------------
 DEPT.F       00 001 00 00                                 :Depth Index
 WTOC.LBF/LBF                                              :1 WEIGHT PERCENT OF TOTAL ORGANIC CARBON
 WQUA.LBF/LBF                                              :2 WEIGHT PERCENT OF QUARTZ
 WPYR.LBF/LBF                                              :3 WEIGHT PERCENT OF PYRITE
 WILL.LBF/LBF                                              :4 WEIGHT PERCENT OF ILLITE
 WDOL.LBF/LBF                                              :5 WEIGHT PERCENT OF DOLOMITE
 WCLC.LBF/LBF                                              :6 WEIGHT PERCENT OF CALCITE
 WCAR.LBF/LBF                                              :7 WEIGHT PERCENT OF CARBONATE
 VXBW.V/V                                                  :8 VOLUME OF BOUND WATER IN FLUSHED ZONE
 VUWA.V/V                                                  :9 VOLUME OF WATER IN UNDISTURBED ZONE
 VUGA.V/V                                                  :10 VOLUME OF GAS IN UNDISTURBED ZONE
 VTOC.V/V                                                  :11 VOLUME OF TOTAL ORGANIC CARBON
 VQUA.V/V                                                  :12 VOLUME OF QUARTZ RELATIVE TO TOTAL VOLUME
 VPYR.V/V                                                  :13 VOLUME OF PYRITE RELATIVE TO TOTAL VOLUME
 VILL.V/V                                                  :14 VOLUME OF ILLITE (DRY) RELATIVE TO TOTAL VOLUME
 VDOL.V/V                                                  :15 VOLUME OF DOLOMITE RELATIVE TO TOTAL VOLUME
 VCLC.V/V                                                  :16 VOLUME OF CALCITE RELATIVE TO TOTAL VOLUME
  VCL.V/V                                                  :17 VOLUME OF CLAY TYPE MATERIAL RELATIVE TO TOTAL VOLUME
 VCAR.V/V                                                  :18 VOLUME FRACTION OF CARBONATE RELATIVE TO TOTAL VOLUME
 TOCH.OHMM                                                 :19 SUMMATION OF WEIGHT PERCENT TOC DECIMAL-FT
   SW.V/V                                                  :20 WATER SATURATION
   SP.MV                                                   :21 SPONTANEOUS POTENTIAL
 RPAH.OHMM                                                 :22 RESERVOIR HEIGHT (FT)
 RHOB.G/C3                                                 :23 BULK DENSITY
 PIGN.V/V                                                  :24 EFFECTIVE "POROSITY," "VISO," "VPAR," AND BOUND WATER REMOVED
 PHIT.V/V                                                  :25 TOTAL POROSITY_ INCLUDES ALL FORMS OF "POROSITY," INCLUDING THAT OCCUPIED BY BOUND "FLUIDS," AND IS INDEPENDENT OF ROCK AND FLUID MATERIALS AND OF ENVIRONMENTAL EFFECTS
  PEF.                                                     :26 PHOTOELECTRIC FACTOR
 NPHI.V/V                                                  :27 THERMAL NEUTRON POROSITY (ORIGINAL RATIO METHOD) IN SELECTED LITHOLOGY
 KINT.MD                                                   :28 INTRINSIC PERMEABILITY
   KH.OHMM                                                 :29 SUMMATION OF PERMEABILITY MD-FT
   GR.GAPI                                                 :30 GAMMA RAY
  GIP.                                                     :31 GAS IN PLACE BCF PER SQUARE MILE
 GASH.OHMM                                                 :32 SUMMATION OF GAS FILLED MATRIX POROSITY DECIMAL-FT
  DTT.US/F                                                 :33 THEORETICAL DT VALUE
 DPHI.V/V                                                  :34 DENSITY POROSITY
 CALI.IN                                                   :35 CALIPER
 AT90.OHMM                                                 :36 AIT TWO FOOT RESISTIVITY A90
 AT60.OHMM                                                 :37 AIT TWO FOOT RESISTIVITY A60
 AT30.OHMM                                                 :38 AIT TWO FOOT RESISTIVITY A30
 AT20.OHMM                                                 :39 AIT TWO FOOT RESISTIVITY A20
 AT10.OHMM                                                 :40 AIT TWO FOOT RESISTIVITY A10
~Ascii   DEPT         WTOC         WQUA         WPYR         WILL         WDOL         WCLC         WCAR         VXBW         VUWA         VUGA         VTOC         VQUA         VPYR         VILL         VDOL         VCLC          VCL         VCAR         TOCH           SW           SP         RPAH         RHOB         PIGN         PHIT          PEF         NPHI         KINT           KH           GR          GIP         GASH          DTT         DPHI         CALI         AT90         AT60         AT30         AT20         AT10																																						
# ...
	6703	0	0	0	0.03857	0	0.96143	0	0.00885	0.01918	0	0	0	0	0.03542	0	0.93655	0.04427	0	-999.25	1	-36.188	-999.25	2.711	0.01918	0.02803	4.813	0.009	0	-999.25	16.534	-999.25	-999.25	52.28086	-0.00058	7.771	75.764	76.219	80.681	83.737	116.805
	6702.5	0	0	0	0.03654	0	0.96346	0	0.00839	0.01953	0	0	0	0	0.03355	0	0.93853	0.04194	0	-999.25	1	-36.6255	-999.25	2.723	0.01953	0.02792	4.763	0.0075	0	-999.25	16.362	-999.25	-999.25	52.21153	-0.0076	7.777	74.911	74.48351	79.1685	82.84	113.5865
	6702	0	0	0	0.03451	0	0.96549	0	0.00792	0.01989	0	0	0	0	0.03169	0	0.9405	0.03961	0	-999.25	1	-37.063	-999.25	2.735	0.01989	0.02781	4.713	0.006	0	-999.25	16.19	-999.25	-999.25	52.1424	-0.01462	7.783	74.058	72.748	77.656	81.943	110.368
	6701.5	0	0	0	0.03171	0	0.96829	0	0.00729	0.01949	0	0	0	0	0.02914	0	0.94408	0.03643	0	-999.25	1	-37.313	-999.25	2.728	0.01949	0.02678	4.7735	0.006	0	-999.25	15.2495	-999.25	-999.25	51.91332	-0.01053	7.771	78.359	76.2225	81.26649	84.5925	112.3295
	6701	0	0	0	0.02892	0	0.97108	0	0.00665	0.01916	0	0	0	0	0.0266	0	0.94759	0.03325	0	-999.25	1	-37.563	-999.25	2.721	0.01916	0.02581	4.834	0.006	0	-999.25	14.309	-999.25	-999.25	51.69436	-0.00643	7.759	82.66	79.697	84.877	87.242	114.291
	6700.5	0	0	0	0.03823	0	0.96177	0	0.0088	0.01683	0	0	0	0	0.03519	0	0.93919	0.04399	0	-999.25	1	-37.594	-999.25	2.725	0.01683	0.02562	4.785	0.006	0	-999.25	16.521	-999.25	-999.25	51.90568	-0.00877	7.759	89.606	86.1705	90.027	92.082	126.2565
	6700	0	0	0	0.0473	0	0.9527	0	0.01089	0.01452	0	0	0	0	0.04357	0	0.93101	0.05446	0	-999.25	1	-37.625	-999.25	2.729	0.01452	0.02542	4.736	0.006	0	-999.25	18.733	-999.25	-999.25	52.10865	-0.01111	7.759	96.552	92.644	95.177	96.922	138.222
	6699.5	0	0	0	0.04101	0	0.95899	0	0.00946	0.01441	0	0	0	0	0.03783	0	0.93831	0.04728	0	-999.25	1	-37.4065	-999.25	2.73	0.01441	0.02386	4.679	0.0065	0	-999.25	17.8405	-999.25	-999.25	51.71018	-0.0117	7.759	105.5535	101.42	104.701	104.5915	153.68451
	6699	0	0	0	0.03473	0	0.96527	0	0.00802	0.01443	0	0	0	0	0.03206	0	0.94549	0.04008	0	-999.25	1	-37.188	-999.25	2.731	0.01443	0.02244	4.622	0.007	0	-999.25	16.948	-999.25	-999.25	51.33144	-0.01228	7.759	114.555	110.196	114.225	112.261	169.147
	6698.5	0	0	0	0.03398	0	0.96602	0	0.00785	0.0138	0	0	0	0	0.03139	0	0.94696	0.03924	0	-999.25	1	-37.063	-999.25	2.7315	0.0138	0.02165	4.6935	0.005	0	-999.25	16.234	-999.25	-999.25	51.19165	-0.01257	7.759	121.47951	118.4355	118.453	119.7985	187.95349
	6698	0	0	0	0.03314	0	0.96686	0	0.00766	0.01324	0	0	0	0	0.03064	0	0.94846	0.0383	0	-999.25	1	-36.938	-999.25	2.732	0.01324	0.0209	4.765	0.003	0	-999.25	15.52	-999.25	-999.25	51.05622	-0.01287	7.759	128.40401	126.675	122.681	127.336	206.75999
	6697.5	0	0	0	0.0388	0	0.9612	0	0.00898	0.01067	0	0	0	0	0.03594	0	0.94441	0.04492	0	-999.25	1	-36.313	-999.25	2.739	0.01067	0.01965	4.7755	0.003	0	-999.25	16.5235	-999.25	-999.25	51.01273	-0.01696	7.753	149.608	142.476	152.35449	155.29401	232.24249
	6697	0	0	0	0.04436	0	0.95564	0	0.01028	0.00833	0	0	0	0	0.04114	0	0.94025	0.05142	0	-999.25	1	-35.688	-999.25	2.746	0.00833	0.01862	4.786	0.003	0	-999.25	17.527	-999.25	-999.25	50.99994	-0.02105	7.747	170.812	158.27699	182.028	183.252	257.72501
	6696.5	0	0	0	0.04742	0	0.95258	0	0.01097	0.00982	0	0	0	0	0.04389	0	0.93532	0.05486	0	-999.25	1	-35.2815	-999.25	2.736	0.00982	0.0208	4.7725	0.004	0	-999.25	18.4195	-999.25	-999.25	51.41052	-0.0152	7.753	142.2675	135.66949	148.237	152.45599	214.0155
	6696	0	0	0	0.05059	0	0.94941	0	0.01167	0.01198	0	0	0	0	0.04669	0	0.92965	0.05837	0	-999.25	1	-34.875	-999.25	2.726	0.01198	0.02366	4.759	0.005	0	-999.25	19.312	-999.25	-999.25	51.92662	-0.00936	7.759	113.723	113.062	114.446	121.66	170.306
	6695.5	0	0	0	0.04939	0	0.95061	0	0.01139	0.01302	0	0	0	0	0.04555	0	0.93004	0.05693	0	-999.25	1	-34.3125	-999.25	2.7205	0.01302	0.02441	4.809	0.0045	0	-999.25	18.738	-999.25	-999.25	52.01019	-0.00614	7.747	106.1595	108.0995	102.4715	108.08501	148.5405
	6695	0	0	0	0.04818	0	0.95182	0	0.0111	0.01416	0	0	0	0	0.04439	0	0.93036	0.05549	0	-999.25	1	-33.75	-999.25	2.715	0.01416	0.02525	4.859	0.004	0	-999.25	18.164	-999.25	-999.25	52.10664	-0.00292	7.735	98.596	103.137	90.497	94.51	126.775
	6694.5	0	0	0	0.035	0	0.965	0	0.00807	0.01515	0	0	0	0	0.03229	0	0.94449	0.04036	0	-999.25	1	-33.4375	-999.25	2.721	0.01515	0.02323	4.824	0.003	0	-999.25	15.599	-999.25	-999.25	51.45752	-0.00643	7.741	106.5065	108.7265	102.911	103.1305	144.79201
	6694	0	0	0	0.02168	0	0.97832	0	0.00501	0.01619	0	0	0	0	0.02003	0	0.95878	0.02503	0	-999.25	1	-33.125	-999.25	2.727	0.01619	0.0212	4.789	0.002	0	-999.25	13.034	-999.25	-999.25	50.80408	-0.00994	7.747	114.417	114.316	115.325	111.751	162.80901
	6693.5	0	0	0	0.03275	0	0.96725	0	0.00757	0.01357	0	0	0	0	0.03027	0	0.94859	0.03784	0	-999.25	1	-31.75	-999.25	2.7325	0.01357	0.02114	4.754	0.0025	0	-999.25	15.5165	-999.25	-999.25	51.08144	-0.01316	7.741	125.44099	122.9025	129.43799	123.41901	190.03101
	6693	0	0	0	0.04362	0	0.95638	0	0.01009	0.01093	0	0	0	0	0.04035	0	0.93863	0.05044	0	-999.25	1	-30.375	-999.25	2.738	0.01093	0.02102	4.719	0.003	0	-999.25	17.999	-999.25	-999.25	51.34611	-0.01637	7.735	136.465	131.489	143.55099	135.08701	217.25301
	6692.5	0	0	0	0.03718	0	0.96282	0	0.00859	0.01315	0	0	0	0	0.03436	0	0.9439	0.04295	0	-999.25	1	-27.5	-999.25	2.742	0.01315	0.02174	4.726	0.0035	0	-999.25	16.5205	-999.25	-999.25	51.28822	-0.01871	7.735	121.7395	119.705	131.69949	125.105	204.972
	6692	0	0	0	0.03051	0	0.96949	0	0.00704	0.01557	0	0	0	0	0.02816	0	0.94924	0.03519	0	-999.25	1	-24.625	-999.25	2.746	0.01557	0.02261	4.733	0.004	0	-999.25	15.042	-999.25	-999.25	51.24739	-0.02105	7.735	107.014	107.921	119.848	115.123	192.69099
	6691.5	0	0	0	0.04405	0	0.95595	0	0.01014	0.01563	0	0	0	0	0.04055	0	0.93368	0.05069	0	-999.25	1	-23.1565	-999.25	2.7455	0.01563	0.02577	4.778	0.005	0	-999.25	17.496	-999.25	-999.25	52.07783	-0.02076	7.741	90.543	91.268	102.971	103.8745	158.065
	6691	0	0	0	0.05779	0	0.94221	0	0.01326	0.0163	0	0	0	0	0.05304	0	0.9174	0.06629	0	-999.25	1	-21.688	-999.25	2.745	0.0163	0.02956	4.823	0.006	0	-999.25	19.95	-999.25	-999.25	53.00785	-0.02047	7.747	74.072	74.615	86.094	92.626	123.439
	6690.5	0	0	0	0.06018	0	0.93982	0	0.01384	0.01388	0	0	0	0	0.05535	0	0.91694	0.06918	0	-999.25	1	-21.438	-999.25	2.752	0.01388	0.02771	4.8375	0.0055	0	-999.25	20.2845	-999.25	-999.25	52.78975	-0.02456	7.753	84.811	84.261	95.736	104.7415	130.356
	6690	0	0	0	0.06267	0	0.93733	0	0.01443	0.01173	0	0	0	0	0.05774	0	0.9161	0.07217	0	-999.25	1	-21.188	-999.25	2.759	0.01173	0.02617	4.852	0.005	0	-999.25	20.619	-999.25	-999.25	52.62006	-0.02865	7.759	95.55	93.907	105.378	116.857	137.27299
	6689.5	0	0	0	0.05601	0	0.94399	0	0.0129	0.01323	0	0	0	0	0.05158	0	0.92229	0.06448	0	-999.25	1	-20.938	-999.25	2.749	0.01323	0.02612	4.81	0.005	0	-999.25	19.691	-999.25	-999.25	52.44106	-0.02281	7.759	93.8245	91.007	101.588	122.2235	132.55701
	6689	0	0	0	0.04935	0	0.95065	0	0.01136	0.01468	0	0	0	0	0.04543	0	0.92853	0.05679	0	-999.25	1	-20.688	-999.25	2.739	0.01468	0.02604	4.768	0.005	0	-999.25	18.763	-999.25	-999.25	52.25615	-0.01696	7.759	92.099	88.107	97.798	127.59	127.841
	6688.5	0	0	0	0.0471	0	0.9529	0	0.01086	0.01361	0	0	0	0	0.04343	0	0.93211	0.05428	0	-999.25	1	-20.6565	-999.25	2.753	0.01361	0.02447	4.6555	0.005	0	-999.25	18.9875	-999.25	-999.25	51.95905	-0.02515	7.759	102.505	94.257	103.5815	124.85899	122.63451
	6688	0	0	0	0.04488	0	0.95512	0	0.01036	0.01273	0	0	0	0	0.04144	0	0.93547	0.0518	0	-999.25	1	-20.625	-999.25	2.767	0.01273	0.02309	4.543	0.005	0	-999.25	19.212	-999.25	-999.25	51.69307	-0.03333	7.759	112.911	100.407	109.365	122.128	117.428
	6687.5	0	0	0	0.0459	0	0.9541	0	0.01061	0.01117	0	0	0	0	0.04244	0	0.93579	0.05305	0	-999.25	1	-20.719	-999.25	2.7675	0.01117	0.02178	4.6005	0.0045	0	-999.25	18.9755	-999.25	-999.25	51.52002	-0.03363	7.759	126.7065	99.549	117.925	117.118	118.623
	6687	0	0	0	0.04693	0	0.95307	0	0.01086	0.00979	0	0	0	0	0.04344	0	0.93591	0.0543	0	-999.25	1	-20.813	-999.25	2.768	0.00979	0.02065	4.658	0.004	0	-999.25	18.739	-999.25	-999.25	51.3761	-0.03392	7.759	140.502	98.691	126.485	112.108	119.818
