~Version	Information								
 VERS.        2.00                                         :CWLS Log Ascii Standard - Version 2
 WRAP.        NO                                           :One line per depth step
~Well	Information	Block							
 #MNEM.UNIT	Data	Type	Information						
 #---------	---------	-------------------------------							
 STRT.F       7800.00000                                                                                     :START DEPTH
 STOP.F       6680.00000                                                                                     :STOP DEPTH
 STEP.F       -0.50000                                                                                       :INCREMENT
 NULL.        -999.25000                                                                                     :NULL DATA VALUE
 COMP.                                                                                                       :COMPANY
 WELL.        Dollie Thorell A4                                                                              :WELL
  FLD.        Wise County                                                                                    :FIELD
  LOC.                                                                                                       :LOCATION
 PROV.                                                                                                       :PROVINCE
 STAT.                                                                                                       :STATE
 CNTY.                                                                                                       :COUNTY
 CTRY.                                                                                                       :COUNTRY
 DATE.                                                                                                       :DATE
  UWI.        4249735151                                                                                     :UNIQUE WELL UWI
  LIC.                                                                                                       :LICENSE NUMBER
  API.        4249735151                                                                                     :API NUMBER
 SRVC.        SLB                                                                                            :SERVICE COMPANY
~Parameter	Information	Block						
#MNEM.UNIT    VALUE                                        :DESCRIPTION
#----.----    ---------------                              :-------------------
~Curve	Information	Block						
#MNEM.UNIT    VALUE                                        :DESCRIPTION
#----.----    ---------------                              :-------------------
 DEPT.F       00 001 00 00                                 :Depth Index
 WTOC.LBF/LBF                                              :1 WEIGHT PERCENT OF TOTAL ORGANIC CARBON
 WQUA.LBF/LBF                                              :2 WEIGHT PERCENT OF QUARTZ
 WPYR.LBF/LBF                                              :3 WEIGHT PERCENT OF PYRITE
 WILL.LBF/LBF                                              :4 WEIGHT PERCENT OF ILLITE
 WDOL.LBF/LBF                                              :5 WEIGHT PERCENT OF DOLOMITE
 WCLC.LBF/LBF                                              :6 WEIGHT PERCENT OF CALCITE
 WCAR.LBF/LBF                                              :7 WEIGHT PERCENT OF CARBONATE
 VXBW.V/V                                                  :8 VOLUME OF BOUND WATER IN FLUSHED ZONE
 VUWA.V/V                                                  :9 VOLUME OF WATER IN UNDISTURBED ZONE
 VUGA.V/V                                                  :10 VOLUME OF GAS IN UNDISTURBED ZONE
 VTOC.V/V                                                  :11 VOLUME OF TOTAL ORGANIC CARBON
 VQUA.V/V                                                  :12 VOLUME OF QUARTZ RELATIVE TO TOTAL VOLUME
 VPYR.V/V                                                  :13 VOLUME OF PYRITE RELATIVE TO TOTAL VOLUME
 VILL.V/V                                                  :14 VOLUME OF ILLITE (DRY) RELATIVE TO TOTAL VOLUME
 VDOL.V/V                                                  :15 VOLUME OF DOLOMITE RELATIVE TO TOTAL VOLUME
 VCLC.V/V                                                  :16 VOLUME OF CALCITE RELATIVE TO TOTAL VOLUME
  VCL.V/V                                                  :17 VOLUME OF CLAY TYPE MATERIAL RELATIVE TO TOTAL VOLUME
 VCAR.V/V                                                  :18 VOLUME FRACTION OF CARBONATE RELATIVE TO TOTAL VOLUME
 TOCH.OHMM                                                 :19 SUMMATION OF WEIGHT PERCENT TOC DECIMAL-FT
   SW.V/V                                                  :20 WATER SATURATION
   SP.MV                                                   :21 SPONTANEOUS POTENTIAL
 RPAH.OHMM                                                 :22 RESERVOIR HEIGHT (FT)
 RHOB.G/C3                                                 :23 BULK DENSITY
 PIGN.V/V                                                  :24 EFFECTIVE "POROSITY," "VISO," "VPAR," AND BOUND WATER REMOVED
 PHIT.V/V                                                  :25 TOTAL POROSITY_ INCLUDES ALL FORMS OF "POROSITY," INCLUDING THAT OCCUPIED BY BOUND "FLUIDS," AND IS INDEPENDENT OF ROCK AND FLUID MATERIALS AND OF ENVIRONMENTAL EFFECTS
  PEF.                                                     :26 PHOTOELECTRIC FACTOR
 NPHI.V/V                                                  :27 THERMAL NEUTRON POROSITY (ORIGINAL RATIO METHOD) IN SELECTED LITHOLOGY
 KINT.MD                                                   :28 INTRINSIC PERMEABILITY
   KH.OHMM                                                 :29 SUMMATION OF PERMEABILITY MD-FT
   GR.GAPI                                                 :30 GAMMA RAY
  GIP.                                                     :31 GAS IN PLACE BCF PER SQUARE MILE
 GASH.OHMM                                                 :32 SUMMATION OF GAS FILLED MATRIX POROSITY DECIMAL-FT
  DTT.US/F                                                 :33 THEORETICAL DT VALUE
 DPHI.V/V                                                  :34 DENSITY POROSITY
 CALI.IN                                                   :35 CALIPER
 AT90.OHMM                                                 :36 AIT TWO FOOT RESISTIVITY A90
 AT60.OHMM                                                 :37 AIT TWO FOOT RESISTIVITY A60
 AT30.OHMM                                                 :38 AIT TWO FOOT RESISTIVITY A30
 AT20.OHMM                                                 :39 AIT TWO FOOT RESISTIVITY A20
 AT10.OHMM                                                 :40 AIT TWO FOOT RESISTIVITY A10
~Ascii   DEPT         WTOC         WQUA         WPYR         WILL         WDOL         WCLC         WCAR         VXBW         VUWA         VUGA         VTOC         VQUA         VPYR         VILL         VDOL         VCLC          VCL         VCAR         TOCH           SW           SP         RPAH         RHOB         PIGN         PHIT          PEF         NPHI         KINT           KH           GR          GIP         GASH          DTT         DPHI         CALI         AT90         AT60         AT30         AT20         AT10																																						
# ...
	7717	0	0	0	0.05304	0.94696	0	0	0.01224	0.05614	0	0	0	0	0.04895	0.88266	0	0.06119	0	-999.25	1	-100.125	-999.25	2.726	0.05614	0.06838	3.217	0.084	0.00141	-999.25	43.724	-999.25	-999.25	57.06783	-0.00936	7.711	7.148	7.052	7.36	7.689	7.541
	7716.5	0	0	0	0.04936	0.95064	0	0	0.01139	0.05684	0	0	0	0	0.04556	0.8862	0	0.05696	0	-999.25	1	-100.844	-999.25	2.7255	0.05684	0.06823	3.215	0.0875	0.00151	-999.25	39.527	-999.25	-999.25	56.943	-0.00906	7.6985	7.532	7.4295	7.768	8.136	7.965
	7716	0	0	0	0.04568	0.95432	0	0	0.01054	0.05754	0	0	0	0	0.04218	0.88974	0	0.05272	0	-999.25	1	-101.563	-999.25	2.725	0.05754	0.06809	3.213	0.091	0.00162	-999.25	35.33	-999.25	-999.25	56.81868	-0.00877	7.686	7.916	7.807	8.176	8.583	8.389
	7715.5	0	0	0	0.03917	0.96083	0	0	0.00905	0.05816	0	0	0	0	0.0362	0.8966	0	0.04524	0	-999.25	1	-102.094	-999.25	2.727	0.05816	0.0672	3.1935	0.09	0.00177	-999.25	35.7025	-999.25	-999.25	56.5026	-0.00994	7.686	7.5745	7.443	7.733	8.006	7.8985
	7715	0	0	0	0.03265	0.96735	0	0	0.00755	0.05877	0	0	0	0	0.0302	0.90348	0	0.03774	0	-999.25	1	-102.625	-999.25	2.729	0.05877	0.06632	3.174	0.089	0.00194	-999.25	36.075	-999.25	-999.25	56.18593	-0.01111	7.686	7.233	7.079	7.29	7.429	7.408
	7714.5	0	0	0	0.03041	0.96959	0	0	0.00707	0.05461	0	0	0	0	0.02826	0.91006	0	0.03533	0	-999.25	1	-102.6565	-999.25	2.7375	0.05461	0.06167	3.175	0.081	0.00168	-999.25	35.1035	-999.25	-999.25	55.40708	-0.01608	7.674	8.1585	7.97	8.197	8.286	8.2135
	7714	0	0	0	0.02819	0.97181	0	0	0.00658	0.05045	0	0	0	0	0.02633	0.91664	0	0.03291	0	-999.25	1	-102.688	-999.25	2.746	0.05045	0.05703	3.176	0.073	0.0014	-999.25	34.132	-999.25	-999.25	54.63019	-0.02105	7.662	9.084	8.861	9.104	9.143	9.019
	7713.5	0	0	0	0.03594	0.96406	0	0	0.00849	0.03764	0	0	0	0	0.03396	0.9199	0	0.04245	0	-999.25	1	-102.219	-999.25	2.7665	0.03764	0.04613	3.2055	0.067	0.00048	-999.25	37.582	-999.25	-999.25	53.16957	-0.03304	7.662	14.3115	14.0165	14.545	14.748	14.0675
	7713	0	0	0	0.04344	0.95656	0	0	0.01038	0.02494	0	0	0	0	0.04152	0.92316	0	0.0519	0	-999.25	1	-101.75	-999.25	2.787	0.02494	0.03532	3.235	0.061	0.00005	-999.25	41.032	-999.25	-999.25	51.72055	-0.04503	7.662	19.539	19.172	19.986	20.353	19.116
	7712.5	0	0	0	0.06196	0.93804	0	0	0.01491	0.01342	0	0	0	0	0.05966	0.91201	0	0.07457	0	-999.25	1	-96.5315	-999.25	2.801	0.01342	0.02833	3.282	0.06	0	-999.25	50.218	-999.25	-999.25	51.18122	-0.05322	7.65	27.642	27.549	29.27	29.4	27.2465
	7712	0	0	0	0.07498	0.92502	0	0	0.01814	0.00544	0	0	0	0	0.07255	0.90386	0	0.09069	0	-999.25	1	-91.313	-999.25	2.815	0.00544	0.02358	3.329	0.059	0	-999.25	59.404	-999.25	-999.25	50.83158	-0.0614	7.638	35.745	35.926	38.554	38.447	35.377
	7711.5	0	0	0	0.07672	0.92328	0	0	0.01847	0.00975	0	0	0	0	0.07389	0.89789	0	0.09236	0	-999.25	1	-84.6565	-999.25	2.8015	0.00975	0.02822	3.3175	0.0575	0	-999.25	55.532	-999.25	-999.25	51.59107	-0.05351	7.65	37.789	39.132	41.44	42.973	39.5275
	7711	0	0	0	0.07323	0.92677	0	0	0.01751	0.01755	0	0	0	0	0.07003	0.89491	0	0.08753	0	-999.25	1	-78	-999.25	2.788	0.01755	0.03506	3.306	0.056	0	-999.25	51.66	-999.25	-999.25	52.5353	-0.04561	7.662	39.833	42.338	44.326	47.499	43.678
	7710.5	0	0	0	0.05835	0.94165	0	0	0.01388	0.02607	0	0	0	0	0.0555	0.90455	0	0.06938	0	-999.25	1	-74.469	-999.25	2.779	0.02607	0.03994	3.2575	0.0485	0.00005	-999.25	49.5215	-999.25	-999.25	52.8565	-0.04035	7.6865	36.5745	38.75	40.3555	44.467	39.5955
	7710	0	0	0	0.04331	0.95669	0	0	0.01025	0.03457	0	0	0	0	0.04098	0.9142	0	0.05123	0	-999.25	1	-70.938	-999.25	2.77	0.03457	0.04482	3.209	0.041	0.00031	-999.25	47.383	-999.25	-999.25	53.1765	-0.03509	7.711	33.316	35.162	36.385	41.435	35.513
	7709.5	0	0	0	0.00582	0.99418	0	0	0.00139	0.03213	0	0	0	0	0.00557	0.96091	0	0.00696	0	-999.25	1	-71.938	-999.25	2.79	0.03213	0.03352	3.133	0.0355	0.00045	-999.25	34.905	-999.25	-999.25	50.36317	-0.04678	7.723	43.2415	45.9425	50.142	58.981	45.3455
	7709	0	0	0	0.00001	0.99999	0	0	0	0.02633	0	0	0	0	0.00001	0.97366	0	0.00001	0	-999.25	1	-72.938	-999.25	2.81	0.02633	0.02633	3.057	0.03	0.0002	-999.25	22.427	-999.25	-999.25	49.08127	-0.05848	7.735	53.167	56.723	63.899	76.527	55.178
	7708.5	0	0	0	0.00001	0.99999	0	0	0	0.02177	0	0	0	0	0.00001	0.97822	0	0.00001	0	-999.25	1	-72.094	-999.25	2.8225	0.02177	0.02177	3.0215	0.0395	0.00008	-999.25	29.714	-999.25	-999.25	48.3746	-0.06579	7.735	57.504	62.884	65.5535	75.214	58.371
	7708	0	0	0	0.00001	0.99999	0	0	0	0.01721	0	0	0	0	0.00001	0.98278	0	0.00001	0	-999.25	1	-71.25	-999.25	2.835	0.01721	0.01721	2.986	0.049	0.00003	-999.25	37.001	-999.25	-999.25	47.66762	-0.0731	7.735	61.841	69.045	67.208	73.901	61.564
	7707.5	0	0	0	0.00001	0.99999	0	0	0	0.0242	0	0	0	0	0.00001	0.97579	0	0.00001	0	-999.25	1	-66.2815	-999.25	2.8185	0.0242	0.0242	3.013	0.063	0.00014	-999.25	53.639	-999.25	-999.25	48.75134	-0.06345	7.771	44.9785	48.8885	47.288	51.6525	44.416
	7707	0	0	0	0.00001	0.99999	0	0	0	0.03126	0	0	0	0	0.00001	0.96873	0	0.00001	0	-999.25	1	-61.313	-999.25	2.802	0.03126	0.03126	3.04	0.077	0.00045	-999.25	70.277	-999.25	-999.25	49.8452	-0.0538	7.807	28.116	28.732	27.368	29.404	27.268
	7706.5	0	0	0	0.02952	0.97048	0	0	0.0071	0.02188	0	0	0	0	0.02839	0.94263	0	0.03549	0	-999.25	1	-54.3755	-999.25	2.8055	0.02188	0.02898	3.133	0.078	0.00004	-999.25	72.3455	-999.25	-999.25	50.34384	-0.05585	7.807	23.431	23.8165	23.273	24.517	23.891
	7706	0	0	0	0.05979	0.94021	0	0	0.01441	0.0124	0	0	0	0	0.05765	0.91554	0	0.07206	0	-999.25	1	-47.438	-999.25	2.809	0.0124	0.02681	3.226	0.079	0	-999.25	74.414	-999.25	-999.25	50.88544	-0.05789	7.807	18.746	18.901	19.178	19.63	20.514
	7705.5	0	0	0	0.0633	0.9367	0	0	0.01517	0.01766	0	0	0	0	0.06066	0.90651	0	0.07583	0	-999.25	1	-50.6255	-999.25	2.7965	0.01766	0.03283	3.242	0.0795	0	-999.25	68.406	-999.25	-999.25	51.9085	-0.05058	7.807	16.36	16.866	16.8905	17.3895	18.2665
	7705	0	0	0	0.06687	0.93313	0	0	0.01592	0.02294	0	0	0	0	0.06369	0.89745	0	0.07961	0	-999.25	1	-53.813	-999.25	2.784	0.02294	0.03886	3.258	0.08	0.00002	-999.25	62.398	-999.25	-999.25	52.93373	-0.04327	7.807	13.974	14.831	14.603	15.149	16.019
	7704.5	0	0	0	0.04652	0.95348	0	0	0.01103	0.03205	0	0	0	0	0.0441	0.91282	0	0.05513	0	-999.25	1	-57.5005	-999.25	2.777	0.03205	0.04307	3.189	0.0885	0.0002	-999.25	62.4985	-999.25	-999.25	52.9994	-0.03918	7.807	11.9045	12.802	12.7225	13.469	13.939
	7704	0	0	0	0.02585	0.97415	0	0	0.0061	0.04119	0	0	0	0	0.02439	0.92832	0	0.03049	0	-999.25	1	-61.188	-999.25	2.77	0.04119	0.04729	3.12	0.097	0.00077	-999.25	62.599	-999.25	-999.25	53.06144	-0.03509	7.807	9.835	10.773	10.842	11.789	11.859
	7703.5	0	0	0	0.02513	0.97487	0	0	0.0059	0.04554	0	0	0	0	0.02361	0.92494	0	0.02951	0	-999.25	1	-64.438	-999.25	2.762	0.04554	0.05145	3.117	0.0995	0.00108	-999.25	60.6275	-999.25	-999.25	53.68256	-0.03041	7.783	8.2145	8.8305	8.92	9.6675	9.542
	7703	0	0	0	0.02437	0.97563	0	0	0.0057	0.04994	0	0	0	0	0.0228	0.92156	0	0.02849	0	-999.25	1	-67.688	-999.25	2.754	0.04994	0.05564	3.114	0.102	0.00143	-999.25	58.656	-999.25	-999.25	54.30847	-0.02573	7.759	6.594	6.888	6.998	7.546	7.225
	7702.5	0	0	0	0.03419	0.96581	0	0	0.00794	0.0545	0	0	0	0	0.03175	0.9058	0	0.03969	0	-999.25	1	-73.9065	-999.25	2.74	0.0545	0.06244	3.147	0.0925	0.0016	-999.25	53.3285	-999.25	-999.25	55.63132	-0.01754	7.765	5.766	5.9775	6.0795	6.4625	6.186
	7702	0	0	0	0.04416	0.95584	0	0	0.01018	0.05909	0	0	0	0	0.04072	0.89001	0	0.0509	0	-999.25	1	-80.125	-999.25	2.726	0.05909	0.06927	3.18	0.083	0.00175	-999.25	48.001	-999.25	-999.25	56.9586	-0.00936	7.771	4.938	5.067	5.161	5.379	5.147
	7701.5	0	0	0	0.03018	0.96982	0	0	0.007	0.05691	0	0	0	0	0.02798	0.90811	0	0.03498	0	-999.25	1	-83.75	-999.25	2.7345	0.05691	0.06391	3.164	0.0755	0.00186	-999.25	38.896	-999.25	-999.25	55.74535	-0.01433	7.777	5.7825	5.8315	6.055	6.3175	6.184
	7701	0	0	0	0.01635	0.98365	0	0	0.00381	0.05476	0	0	0	0	0.01524	0.92619	0	0.01905	0	-999.25	1	-87.375	-999.25	2.743	0.05476	0.05857	3.148	0.068	0.002	-999.25	29.791	-999.25	-999.25	54.53563	-0.0193	7.783	6.627	6.596	6.949	7.256	7.221
	7700.5	0	0	0	0.00001	0.99999	0	0	0	0.05354	0	0	0	0	0.00001	0.94645	0	0.00001	0	-999.25	1	-92.719	-999.25	2.7525	0.05354	0.05354	3.1065	0.0705	0.00234	-999.25	27.866	-999.25	-999.25	53.29877	-0.02485	7.783	8.1535	8.1955	8.5685	9.28	9.7575
