~Version	Information								
 VERS.        2.00                                         :CWLS Log Ascii Standard - Version 2
 WRAP.        NO                                           :One line per depth step
~Well	Information	Block							
 #MNEM.UNIT	Data	Type	Information						
 #---------	---------	-------------------------------							
 STRT.F       7800.00000                                                                                     :START DEPTH
 STOP.F       6680.00000                                                                                     :STOP DEPTH
 STEP.F       -0.50000                                                                                       :INCREMENT
 NULL.        -999.25000                                                                                     :NULL DATA VALUE
 COMP.                                                                                                       :COMPANY
 WELL.        Dollie Thorell A4                                                                              :WELL
  FLD.        Wise County                                                                                    :FIELD
  LOC.                                                                                                       :LOCATION
 PROV.                                                                                                       :PROVINCE
 STAT.                                                                                                       :STATE
 CNTY.                                                                                                       :COUNTY
 CTRY.                                                                                                       :COUNTRY
 DATE.                                                                                                       :DATE
  UWI.        4249735151                                                                                     :UNIQUE WELL UWI
  LIC.                                                                                                       :LICENSE NUMBER
  API.        4249735151                                                                                     :API NUMBER
 SRVC.        SLB                                                                                            :SERVICE COMPANY
~Parameter	Information	Block						
#MNEM.UNIT    VALUE                                        :DESCRIPTION
#----.----    ---------------                              :-------------------
~Curve	Information	Block						
#MNEM.UNIT    VALUE                                        :DESCRIPTION
#----.----    ---------------                              :-------------------
 DEPT.F       00 001 00 00                                 :Depth Index
 WTOC.LBF/LBF                                              :1 WEIGHT PERCENT OF TOTAL ORGANIC CARBON
 WQUA.LBF/LBF                                              :2 WEIGHT PERCENT OF QUARTZ
 WPYR.LBF/LBF                                              :3 WEIGHT PERCENT OF PYRITE
 WILL.LBF/LBF                                              :4 WEIGHT PERCENT OF ILLITE
 WDOL.LBF/LBF                                              :5 WEIGHT PERCENT OF DOLOMITE
 WCLC.LBF/LBF                                              :6 WEIGHT PERCENT OF CALCITE
 WCAR.LBF/LBF                                              :7 WEIGHT PERCENT OF CARBONATE
 VXBW.V/V                                                  :8 VOLUME OF BOUND WATER IN FLUSHED ZONE
 VUWA.V/V                                                  :9 VOLUME OF WATER IN UNDISTURBED ZONE
 VUGA.V/V                                                  :10 VOLUME OF GAS IN UNDISTURBED ZONE
 VTOC.V/V                                                  :11 VOLUME OF TOTAL ORGANIC CARBON
 VQUA.V/V                                                  :12 VOLUME OF QUARTZ RELATIVE TO TOTAL VOLUME
 VPYR.V/V                                                  :13 VOLUME OF PYRITE RELATIVE TO TOTAL VOLUME
 VILL.V/V                                                  :14 VOLUME OF ILLITE (DRY) RELATIVE TO TOTAL VOLUME
 VDOL.V/V                                                  :15 VOLUME OF DOLOMITE RELATIVE TO TOTAL VOLUME
 VCLC.V/V                                                  :16 VOLUME OF CALCITE RELATIVE TO TOTAL VOLUME
  VCL.V/V                                                  :17 VOLUME OF CLAY TYPE MATERIAL RELATIVE TO TOTAL VOLUME
 VCAR.V/V                                                  :18 VOLUME FRACTION OF CARBONATE RELATIVE TO TOTAL VOLUME
 TOCH.OHMM                                                 :19 SUMMATION OF WEIGHT PERCENT TOC DECIMAL-FT
   SW.V/V                                                  :20 WATER SATURATION
   SP.MV                                                   :21 SPONTANEOUS POTENTIAL
 RPAH.OHMM                                                 :22 RESERVOIR HEIGHT (FT)
 RHOB.G/C3                                                 :23 BULK DENSITY
 PIGN.V/V                                                  :24 EFFECTIVE "POROSITY," "VISO," "VPAR," AND BOUND WATER REMOVED
 PHIT.V/V                                                  :25 TOTAL POROSITY_ INCLUDES ALL FORMS OF "POROSITY," INCLUDING THAT OCCUPIED BY BOUND "FLUIDS," AND IS INDEPENDENT OF ROCK AND FLUID MATERIALS AND OF ENVIRONMENTAL EFFECTS
  PEF.                                                     :26 PHOTOELECTRIC FACTOR
 NPHI.V/V                                                  :27 THERMAL NEUTRON POROSITY (ORIGINAL RATIO METHOD) IN SELECTED LITHOLOGY
 KINT.MD                                                   :28 INTRINSIC PERMEABILITY
   KH.OHMM                                                 :29 SUMMATION OF PERMEABILITY MD-FT
   GR.GAPI                                                 :30 GAMMA RAY
  GIP.                                                     :31 GAS IN PLACE BCF PER SQUARE MILE
 GASH.OHMM                                                 :32 SUMMATION OF GAS FILLED MATRIX POROSITY DECIMAL-FT
  DTT.US/F                                                 :33 THEORETICAL DT VALUE
 DPHI.V/V                                                  :34 DENSITY POROSITY
 CALI.IN                                                   :35 CALIPER
 AT90.OHMM                                                 :36 AIT TWO FOOT RESISTIVITY A90
 AT60.OHMM                                                 :37 AIT TWO FOOT RESISTIVITY A60
 AT30.OHMM                                                 :38 AIT TWO FOOT RESISTIVITY A30
 AT20.OHMM                                                 :39 AIT TWO FOOT RESISTIVITY A20
 AT10.OHMM                                                 :40 AIT TWO FOOT RESISTIVITY A10
~Ascii   DEPT         WTOC         WQUA         WPYR         WILL         WDOL         WCLC         WCAR         VXBW         VUWA         VUGA         VTOC         VQUA         VPYR         VILL         VDOL         VCLC          VCL         VCAR         TOCH           SW           SP         RPAH         RHOB         PIGN         PHIT          PEF         NPHI         KINT           KH           GR          GIP         GASH          DTT         DPHI         CALI         AT90         AT60         AT30         AT20         AT10																																						
# ...
	7362	0.03987	0.45144	0.02536	0.2815	0	0	0.20183	0.05773	0.02647	0.02965	0.05877	0.40176	0.02	0.23092	0	0	0.28865	0.17061	7.10287	0.43968	-46	124.5	2.531	0.06021	0.11794	3.364	0.14	0.00008	0.0251	112.544	59.31002	6.59162	81.80307	0.10468	8	34.478	35.157	36.39	37.228	39.252
	7361.5	0.03512	0.4118	0.02499	0.25702	0	0	0.27107	0.05348	0.01605	0.03563	0.05252	0.37188	0.02	0.21394	0	0	0.26742	0.23251	7.12042	0.28821	-46.1875	125	2.549	0.05567	0.10916	3.476	0.14	0.00005	0.02512	112.6685	59.46716	6.60944	79.57561	0.09415	8	59.9585	56.957	60.727	59.546	66.1985
	7361	0.0305	0.3763	0.02464	0.23339	0	0	0.33517	0.04926	0.01478	0.03286	0.04627	0.34468	0.02	0.19705	0	0	0.24631	0.29161	7.13567	0.28904	-46.375	125	2.567	0.05113	0.10039	3.588	0.14	0.00002	0.02513	112.793	59.6101	6.62587	77.10307	0.08363	8	85.439	78.757	85.064	81.864	93.145
	7360.5	0.03001	0.4136	0.02469	0.24604	0	0	0.28566	0.05181	0.01554	0.03035	0.04542	0.37798	0.02	0.20725	0	0	0.25906	0.24796	7.15068	0.31346	-46.875	125	2.569	0.04959	0.1014	3.4905	0.1435	0.00003	0.02515	122.5195	59.74448	6.64104	77.49646	0.08246	7.976	86.967	80.9865	84.8895	82.763	97.628
	7360	0.02952	0.45105	0.02475	0.25873	0	0	0.23596	0.05436	0.01631	0.02785	0.04457	0.41125	0.02	0.21744	0	0	0.2718	0.20434	7.16544	0.33944	-47.375	125.5	2.571	0.04804	0.1024	3.393	0.147	0.00004	0.02517	132.246	59.87032	6.65497	77.88941	0.08129	7.952	88.495	83.216	84.715	83.662	102.111
	7359.5	0.04232	0.48262	0.02525	0.25781	0	0	0.192	0.0531	0.01593	0.03741	0.06265	0.43134	0.02	0.21239	0	0	0.26548	0.16299	7.1866	0.27682	-48.2815	126	2.5285	0.05754	0.11064	3.271	0.1575	0.00012	0.02523	162.39749	60.04175	6.67367	80.98149	0.10614	7.964	88.6265	82.9005	83.694	83.3505	97.9715
	7359	0.05565	0.51552	0.02577	0.25689	0	0	0.14617	0.05184	0.01555	0.04697	0.08072	0.45146	0.02	0.20736	0	0	0.2592	0.12158	7.21443	0.23197	-49.188	126.5	2.486	0.06704	0.11888	3.149	0.168	0.00022	0.02534	192.549	60.25877	6.69716	84.0751	0.13099	7.976	88.758	82.585	82.673	83.039	93.832
	7358.5	0.06079	0.51863	0.02577	0.2459	0	0	0.14891	0.04962	0.01489	0.04699	0.08817	0.45416	0.02	0.19848	0	0	0.2481	0.12385	7.24482	0.22648	-50.7505	127	2.4685	0.06573	0.11535	3.1565	0.1785	0.00022	0.02545	225.582	60.48212	6.72065	84.01008	0.14123	7.964	96.7495	90.971	91.3125	91.095	107.913
	7358	0.06593	0.5217	0.02577	0.23494	0	0	0.15166	0.04741	0.01422	0.047	0.09561	0.45682	0.02	0.18962	0	0	0.23703	0.12613	7.27778	0.2208	-52.313	127.5	2.451	0.06441	0.11182	3.164	0.189	0.00023	0.02556	258.61499	60.7118	6.74415	83.9465	0.15146	7.952	104.741	99.357	99.952	99.151	121.994
	7357.5	0.07189	0.52708	0.02581	0.22363	0	0	0.15158	0.04506	0.01352	0.04777	0.10411	0.46086	0.02	0.18023	0	0	0.22529	0.12589	7.31373	0.2117	-53.8755	128	2.431	0.06385	0.10891	3.162	0.188	0.00023	0.02568	264.4935	60.95107	6.76804	84.08652	0.16316	7.952	115.2035	112.1055	111.0545	110.853	141.6035
	7357	0.07788	0.53247	0.02585	0.21233	0	0	0.15147	0.04272	0.01282	0.04854	0.11262	0.46489	0.02	0.17087	0	0	0.21359	0.12561	7.35267	0.20248	-55.438	128.5	2.411	0.06329	0.10601	3.16	0.187	0.00024	0.0258	270.37201	61.19988	6.79231	84.22832	0.17485	7.952	125.666	124.854	122.157	122.555	161.213
	7356.5	0.07702	0.54826	0.02585	0.21459	0	0	0.13428	0.04316	0.01295	0.04792	0.11135	0.47857	0.02	0.17266	0	0	0.21582	0.11133	7.39118	0.20575	-56.7505	129	2.414	0.06294	0.1061	3.1155	0.1895	0.00027	0.02593	273.1915	61.44566	6.81627	84.21351	0.1731	7.958	123.2065	127.8425	122.2805	120.6745	159.6785
	7356	0.07615	0.56406	0.02586	0.21686	0	0	0.11707	0.04361	0.01308	0.04729	0.11007	0.49226	0.02	0.17444	0	0	0.21805	0.09704	7.42926	0.20906	-58.063	129.5	2.417	0.06258	0.10619	3.071	0.192	0.00029	0.02607	276.01099	61.68841	6.83992	84.19888	0.17135	7.964	120.747	130.83099	122.404	118.794	158.144
	7355.5	0.07242	0.60027	0.02584	0.21673	0	0	0.08474	0.04361	0.01308	0.04689	0.10475	0.52421	0.02	0.17445	0	0	0.21807	0.07029	7.46547	0.20874	-58.969	130	2.4295	0.06268	0.1063	2.961	0.1805	0.00032	0.02624	246.19899	61.92536	6.86336	83.87367	0.16404	7.958	125.14951	139.55299	122.637	121.1425	161.1825
	7355	0.0687	0.63643	0.02582	0.21661	0	0	0.05243	0.04362	0.01309	0.04649	0.09944	0.55616	0.02	0.17447	0	0	0.21809	0.04352	7.49982	0.20842	-59.875	130.5	2.442	0.06279	0.1064	2.851	0.169	0.00034	0.02641	216.38699	62.1565	6.88661	83.54881	0.15673	7.952	129.552	148.27499	122.87	123.491	164.22099
	7354.5	0.06832	0.66008	0.02596	0.20195	0	0	0.04369	0.04046	0.01214	0.05381	0.09838	0.57387	0.02	0.16183	0	0	0.20229	0.03608	7.53398	0.17493	-59.844	131	2.431	0.06938	0.10984	2.7695	0.156	0.00033	0.02657	167.43149	62.40958	6.91351	83.96261	0.16316	7.952	154.836	168.00299	166.7135	163.755	233.17099
	7354	0.06794	0.68399	0.02609	0.18731	0	0	0.03467	0.03733	0.0112	0.06111	0.09732	0.59157	0.02	0.14932	0	0	0.18665	0.02848	7.56795	0.14739	-59.813	131.5	2.42	0.07598	0.11331	2.688	0.143	0.00049	0.02682	118.476	62.68456	6.94407	84.38377	0.16959	7.952	180.12	187.731	210.55701	204.019	302.121
	7353.5	0.06383	0.67423	0.02614	0.18976	0	0	0.04604	0.03774	0.01132	0.06509	0.09125	0.58197	0.02	0.15097	0	0	0.18872	0.03775	7.59986	0.14098	-59.469	132	2.421	0.08031	0.11806	2.7105	0.1375	0.00068	0.02715	109.845	62.96687	6.97661	84.66693	0.16901	7.94	175.631	177.99951	195.13751	194.4425	315.5195
	7353	0.0597	0.6644	0.0262	0.19222	0	0	0.05749	0.03816	0.01145	0.06907	0.08518	0.57235	0.02	0.15263	0	0	0.19079	0.04704	7.62971	0.13523	-59.125	132.5	2.422	0.08465	0.12281	2.733	0.132	0.00091	0.02761	101.214	63.25651	7.01115	84.95004	0.16842	7.928	171.142	168.26801	179.718	184.866	328.918
	7352.5	0.05778	0.67131	0.02621	0.18818	0	0	0.05653	0.03733	0.0112	0.07119	0.08239	0.57799	0.02	0.14934	0	0	0.18667	0.04623	7.6586	0.12916	-58.875	133	2.424	0.08672	0.12406	2.707	0.1225	0.0011	0.02816	96.848	63.55039	7.04674	84.89767	0.16725	7.916	173.47049	176.8205	184.72549	187.56949	326.76001
	7352	0.05585	0.67822	0.02622	0.18414	0	0	0.05557	0.03651	0.01095	0.07331	0.0796	0.58363	0.02	0.14605	0	0	0.18257	0.04542	7.68653	0.12337	-58.625	133.5	2.426	0.08879	0.12531	2.681	0.113	0.00131	0.02881	92.482	63.8485	7.0834	84.84544	0.16608	7.904	175.799	185.373	189.733	190.27299	324.60199
	7351.5	0.05548	0.67482	0.02616	0.19198	0	0	0.05156	0.03816	0.01145	0.06964	0.07927	0.58212	0.02	0.15265	0	0	0.19081	0.04225	7.71426	0.13381	-58.469	134	2.4325	0.08556	0.12372	2.6985	0.1245	0.00098	0.0293	95.521	64.13486	7.11822	84.6215	0.16228	7.916	162.1465	175.157	173.009	170.0475	295.849
	7351	0.05511	0.67143	0.0261	0.19983	0	0	0.04753	0.03982	0.01195	0.06597	0.07893	0.58061	0.02	0.15928	0	0	0.1991	0.03904	7.74182	0.1451	-58.313	134.5	2.439	0.08233	0.12215	2.716	0.136	0.00072	0.02966	98.56	64.40945	7.1512	84.39948	0.15848	7.928	148.494	164.94099	156.285	149.82201	267.09601
	7350.5	0.05545	0.67871	0.02611	0.19627	0	0	0.04347	0.03909	0.01173	0.06658	0.07939	0.58669	0.02	0.15638	0	0	0.19547	0.03569	7.76955	0.14171	-58.344	135	2.438	0.08276	0.12186	2.693	0.133	0.00077	0.03005	98.324	64.68633	7.18449	84.37276	0.15906	7.928	159.63101	178.89799	177.129	171.39401	288.41501
	7350	0.05579	0.686	0.02612	0.19272	0	0	0.03937	0.03837	0.01151	0.0672	0.07984	0.59277	0.02	0.1535	0	0	0.19187	0.03232	7.79744	0.13838	-58.375	135.5	2.437	0.0832	0.12157	2.67	0.13	0.00082	0.03046	98.088	64.96549	7.21809	84.34722	0.15965	7.928	170.76801	192.855	197.97301	192.966	309.73401
	7349.5	0.05396	0.68327	0.02614	0.18812	0	0	0.04851	0.03742	0.01123	0.07038	0.07714	0.58976	0.02	0.14967	0	0	0.18709	0.03977	7.82442	0.13016	-58.5	136	2.4365	0.08624	0.12366	2.67	0.1215	0.00106	0.03099	92.8865	65.25229	7.25328	84.40755	0.15994	7.916	161.961	183.25049	188.052	181.569	315.35699
	7349	0.05212	0.68053	0.02617	0.18353	0	0	0.05764	0.03646	0.01094	0.07356	0.07443	0.58675	0.02	0.14586	0	0	0.18232	0.0472	7.85048	0.12252	-58.625	136.5	2.436	0.08928	0.12575	2.67	0.113	0.00134	0.03167	87.685	65.54672	7.29006	84.46887	0.16023	7.904	153.15401	173.646	178.131	170.172	320.98001
	7348.5	0.04955	0.67238	0.02618	0.17474	0	0	0.07716	0.0347	0.01041	0.07768	0.07073	0.57951	0.02	0.13882	0	0	0.17352	0.06316	7.87525	0.11187	-58.5	137	2.437	0.09307	0.12777	2.6805	0.1155	0.00177	0.03255	80.73	65.85088	7.3289	84.36321	0.15965	7.904	150.05551	169.5965	174.5145	169.91949	322.80103
