~Version	Information								
 VERS.        2.00                                         :CWLS Log Ascii Standard - Version 2
 WRAP.        NO                                           :One line per depth step
~Well	Information	Block							
 #MNEM.UNIT	Data	Type	Information						
 #---------	---------	-------------------------------							
 STRT.F       7800.00000                                                                                     :START DEPTH
 STOP.F       6680.00000                                                                                     :STOP DEPTH
 STEP.F       -0.50000                                                                                       :INCREMENT
 NULL.        -999.25000                                                                                     :NULL DATA VALUE
 COMP.                                                                                                       :COMPANY
 WELL.        Dollie Thorell A4                                                                              :WELL
  FLD.        Wise County                                                                                    :FIELD
  LOC.                                                                                                       :LOCATION
 PROV.                                                                                                       :PROVINCE
 STAT.                                                                                                       :STATE
 CNTY.                                                                                                       :COUNTY
 CTRY.                                                                                                       :COUNTRY
 DATE.                                                                                                       :DATE
  UWI.        4249735151                                                                                     :UNIQUE WELL UWI
  LIC.                                                                                                       :LICENSE NUMBER
  API.        4249735151                                                                                     :API NUMBER
 SRVC.        SLB                                                                                            :SERVICE COMPANY
~Parameter	Information	Block						
#MNEM.UNIT    VALUE                                        :DESCRIPTION
#----.----    ---------------                              :-------------------
~Curve	Information	Block						
#MNEM.UNIT    VALUE                                        :DESCRIPTION
#----.----    ---------------                              :-------------------
 DEPT.F       00 001 00 00                                 :Depth Index
 WTOC.LBF/LBF                                              :1 WEIGHT PERCENT OF TOTAL ORGANIC CARBON
 WQUA.LBF/LBF                                              :2 WEIGHT PERCENT OF QUARTZ
 WPYR.LBF/LBF                                              :3 WEIGHT PERCENT OF PYRITE
 WILL.LBF/LBF                                              :4 WEIGHT PERCENT OF ILLITE
 WDOL.LBF/LBF                                              :5 WEIGHT PERCENT OF DOLOMITE
 WCLC.LBF/LBF                                              :6 WEIGHT PERCENT OF CALCITE
 WCAR.LBF/LBF                                              :7 WEIGHT PERCENT OF CARBONATE
 VXBW.V/V                                                  :8 VOLUME OF BOUND WATER IN FLUSHED ZONE
 VUWA.V/V                                                  :9 VOLUME OF WATER IN UNDISTURBED ZONE
 VUGA.V/V                                                  :10 VOLUME OF GAS IN UNDISTURBED ZONE
 VTOC.V/V                                                  :11 VOLUME OF TOTAL ORGANIC CARBON
 VQUA.V/V                                                  :12 VOLUME OF QUARTZ RELATIVE TO TOTAL VOLUME
 VPYR.V/V                                                  :13 VOLUME OF PYRITE RELATIVE TO TOTAL VOLUME
 VILL.V/V                                                  :14 VOLUME OF ILLITE (DRY) RELATIVE TO TOTAL VOLUME
 VDOL.V/V                                                  :15 VOLUME OF DOLOMITE RELATIVE TO TOTAL VOLUME
 VCLC.V/V                                                  :16 VOLUME OF CALCITE RELATIVE TO TOTAL VOLUME
  VCL.V/V                                                  :17 VOLUME OF CLAY TYPE MATERIAL RELATIVE TO TOTAL VOLUME
 VCAR.V/V                                                  :18 VOLUME FRACTION OF CARBONATE RELATIVE TO TOTAL VOLUME
 TOCH.OHMM                                                 :19 SUMMATION OF WEIGHT PERCENT TOC DECIMAL-FT
   SW.V/V                                                  :20 WATER SATURATION
   SP.MV                                                   :21 SPONTANEOUS POTENTIAL
 RPAH.OHMM                                                 :22 RESERVOIR HEIGHT (FT)
 RHOB.G/C3                                                 :23 BULK DENSITY
 PIGN.V/V                                                  :24 EFFECTIVE "POROSITY," "VISO," "VPAR," AND BOUND WATER REMOVED
 PHIT.V/V                                                  :25 TOTAL POROSITY_ INCLUDES ALL FORMS OF "POROSITY," INCLUDING THAT OCCUPIED BY BOUND "FLUIDS," AND IS INDEPENDENT OF ROCK AND FLUID MATERIALS AND OF ENVIRONMENTAL EFFECTS
  PEF.                                                     :26 PHOTOELECTRIC FACTOR
 NPHI.V/V                                                  :27 THERMAL NEUTRON POROSITY (ORIGINAL RATIO METHOD) IN SELECTED LITHOLOGY
 KINT.MD                                                   :28 INTRINSIC PERMEABILITY
   KH.OHMM                                                 :29 SUMMATION OF PERMEABILITY MD-FT
   GR.GAPI                                                 :30 GAMMA RAY
  GIP.                                                     :31 GAS IN PLACE BCF PER SQUARE MILE
 GASH.OHMM                                                 :32 SUMMATION OF GAS FILLED MATRIX POROSITY DECIMAL-FT
  DTT.US/F                                                 :33 THEORETICAL DT VALUE
 DPHI.V/V                                                  :34 DENSITY POROSITY
 CALI.IN                                                   :35 CALIPER
 AT90.OHMM                                                 :36 AIT TWO FOOT RESISTIVITY A90
 AT60.OHMM                                                 :37 AIT TWO FOOT RESISTIVITY A60
 AT30.OHMM                                                 :38 AIT TWO FOOT RESISTIVITY A30
 AT20.OHMM                                                 :39 AIT TWO FOOT RESISTIVITY A20
 AT10.OHMM                                                 :40 AIT TWO FOOT RESISTIVITY A10
~Ascii   DEPT         WTOC         WQUA         WPYR         WILL         WDOL         WCLC         WCAR         VXBW         VUWA         VUGA         VTOC         VQUA         VPYR         VILL         VDOL         VCLC          VCL         VCAR         TOCH           SW           SP         RPAH         RHOB         PIGN         PHIT          PEF         NPHI         KINT           KH           GR          GIP         GASH          DTT         DPHI         CALI         AT90         AT60         AT30         AT20         AT10																																						
# ...
	6855.5	0	0	0	0.14208	0	0.85792	0	0.03176	0.02729	0	0	0	0	0.12705	0	0.81389	0.15882	0	-999.25	1	-12.5005	-999.25	2.713	0.02729	0.05905	4.383	0.0595	0.00001	-999.25	40.4525	-999.25	-999.25	59.59259	-0.00175	7.879	23.185	23.7805	25.593	28.7475	33.4225
	6855	0	0	0	0.15414	0	0.84586	0	0.03433	0.02895	0	0	0	0	0.13731	0	0.79941	0.17164	0	-999.25	1	-12.688	-999.25	2.711	0.02895	0.06328	4.379	0.065	0.00001	-999.25	42.828	-999.25	-999.25	60.52598	-0.00058	7.879	20.369	20.996	22.195	25.155	29.526
	6854.5	0	0	0	0.16444	0	0.83556	0	0.0364	0.03309	0	0	0	0	0.1456	0	0.78491	0.182	0	-999.25	1	-13.2505	-999.25	2.701	0.03309	0.06949	4.4635	0.071	0.00002	-999.25	44.068	-999.25	-999.25	61.70884	0.00526	7.879	16.8505	17.3875	18.1365	20.3125	23.2275
	6854	0	0	0	0.17572	0	0.82428	0	0.03858	0.03924	0	0	0	0	0.1543	0	0.76788	0.19288	0	-999.25	1	-13.813	-999.25	2.691	0.03924	0.07782	4.548	0.077	0.00004	-999.25	45.308	-999.25	-999.25	63.22663	0.01111	7.879	13.332	13.779	14.078	15.47	16.929
	6853.5	0	0	0	0.18138	0	0.81862	0	0.0394	0.04833	0	0	0	0	0.15761	0	0.75465	0.19701	0	-999.25	1	-14.688	-999.25	2.689	0.04833	0.08773	4.504	0.0825	0.00009	-999.25	46.033	-999.25	-999.25	64.83658	0.01228	7.8915	10.3015	10.566	10.785	11.8835	12.6525
	6853	0	0	0	0.18949	0	0.81051	0	0.04049	0.06257	0	0	0	0	0.16197	0	0.73496	0.20246	0	-999.25	1	-15.563	-999.25	2.687	0.06257	0.10307	4.46	0.088	0.0002	-999.25	46.758	-999.25	-999.25	67.30426	0.01345	7.904	7.271	7.353	7.492	8.297	8.376
	6852.5	0	0	0	0.18362	0	0.81638	0	0.03991	0.04737	0	0	0	0	0.15965	0	0.75307	0.19957	0	-999.25	1	-15.219	-999.25	2.6865	0.04737	0.08728	4.388	0.084	0.00008	-999.25	47.514	-999.25	-999.25	64.82414	0.01374	7.904	10.49	10.566	11.1765	12.069	12.675
	6852	0	0	0	0.18032	0	0.81968	0	0.03962	0.03774	0	0	0	0	0.15847	0	0.76417	0.19808	0	-999.25	1	-14.875	-999.25	2.686	0.03774	0.07736	4.316	0.08	0.00003	-999.25	48.27	-999.25	-999.25	63.27307	0.01404	7.904	13.709	13.779	14.861	15.841	16.974
	6851.5	0	0	0	0.17958	0	0.82042	0	0.03967	0.03259	0	0	0	0	0.15868	0	0.76906	0.19835	0	-999.25	1	-14.6565	-999.25	2.6975	0.03259	0.07226	4.337	0.072	0.00001	-999.25	48.208	-999.25	-999.25	62.49872	0.00731	7.8795	15.872	15.995	17.221	18.2105	21.5125
	6851	0	0	0	0.17922	0	0.82078	0	0.03977	0.02829	0	0	0	0	0.15907	0	0.77287	0.19884	0	-999.25	1	-14.438	-999.25	2.709	0.02829	0.06806	4.358	0.064	0.00001	-999.25	48.146	-999.25	-999.25	61.86742	0.00058	7.855	18.035	18.211	19.581	20.58	26.051
	6850.5	0	0	0	0.18652	0	0.81348	0	0.04161	0.02194	0	0	0	0	0.16642	0	0.77003	0.20803	0	-999.25	1	-14.188	-999.25	2.713	0.02194	0.06354	4.38	0.0645	0	-999.25	49.9375	-999.25	-999.25	61.38215	-0.00175	7.867	21.169	21.7115	23.164	24.2485	29.7325
	6850	0	0	0	0.19409	0	0.80591	0	0.04348	0.01645	0	0	0	0	0.17392	0	0.76615	0.2174	0	-999.25	1	-13.938	-999.25	2.717	0.01645	0.05993	4.402	0.065	0	-999.25	51.729	-999.25	-999.25	61.03891	-0.00409	7.879	24.303	25.212	26.747	27.917	33.414
	6849.5	0	0	0	0.19063	0	0.80937	0	0.04255	0.02063	0	0	0	0	0.1702	0	0.76662	0.21275	0	-999.25	1	-13.6565	-999.25	2.692	0.02063	0.06318	4.4585	0.0705	0	-999.25	50.638	-999.25	-999.25	61.43221	0.01053	7.879	21.697	22.3705	23.604	25.475	30.4755
	6849	0	0	0	0.18743	0	0.81257	0	0.04166	0.02537	0	0	0	0	0.16662	0	0.76636	0.20828	0	-999.25	1	-13.375	-999.25	2.667	0.02537	0.06702	4.515	0.076	0	-999.25	49.547	-999.25	-999.25	61.91998	0.02515	7.879	19.091	19.529	20.461	23.033	27.537
	6848.5	0	0	0	0.17519	0	0.82481	0	0.03896	0.02683	0	0	0	0	0.15583	0	0.77838	0.19479	0	-999.25	1	-13.4065	-999.25	2.6645	0.02683	0.06579	4.5205	0.075	0	-999.25	46.9335	-999.25	-999.25	61.42939	0.02661	7.867	19.583	19.8965	20.962	23.7065	27.107
	6848	0	0	0	0.16293	0	0.83707	0	0.03625	0.0283	0	0	0	0	0.14502	0	0.79043	0.18127	0	-999.25	1	-13.438	-999.25	2.662	0.0283	0.06456	4.526	0.074	0.00001	-999.25	44.32	-999.25	-999.25	60.93755	0.02807	7.855	20.075	20.264	21.463	24.38	26.677
	6847.5	0	0	0	0.14718	0	0.85282	0	0.03286	0.02765	0	0	0	0	0.13145	0	0.80804	0.16431	0	-999.25	1	-13.6565	-999.25	2.6785	0.02765	0.06051	4.512	0.0665	0.00001	-999.25	41.0065	-999.25	-999.25	59.93915	0.01842	7.843	22.421	22.544	24.0625	27.3215	30.713
	6847	0	0	0	0.13156	0	0.86844	0	0.02946	0.02741	0	0	0	0	0.11784	0	0.82528	0.14731	0	-999.25	1	-13.875	-999.25	2.695	0.02741	0.05687	4.498	0.059	0.00001	-999.25	37.693	-999.25	-999.25	59.00101	0.00877	7.831	24.767	24.824	26.662	30.263	34.749
	6846.5	0	0	0	0.13106	0	0.86894	0	0.02946	0.02386	0	0	0	0	0.11784	0	0.82885	0.1473	0	-999.25	1	-14.25	-999.25	2.698	0.02386	0.05332	4.5635	0.055	0	-999.25	37.279	-999.25	-999.25	58.45712	0.00702	7.843	28.3635	28.233	30.7385	34.831	41.47
	6846	0	0	0	0.13078	0	0.86922	0	0.02949	0.02087	0	0	0	0	0.11795	0	0.8317	0.14744	0	-999.25	1	-14.625	-999.25	2.701	0.02087	0.05036	4.629	0.051	0	-999.25	36.865	-999.25	-999.25	58.00706	0.00526	7.855	31.96	31.642	34.815	39.399	48.191
	6845.5	0	0	0	0.12424	0	0.87576	0	0.028	0.02242	0	0	0	0	0.112	0	0.83758	0.14	0	-999.25	1	-14.9065	-999.25	2.6975	0.02242	0.05042	4.669	0.0535	0	-999.25	35.166	-999.25	-999.25	57.85029	0.00731	7.843	31.411	31.4765	34.14	38.55	48.1825
	6845	0	0	0	0.11765	0	0.88235	0	0.0265	0.02397	0	0	0	0	0.10602	0	0.84351	0.13252	0	-999.25	1	-15.188	-999.25	2.694	0.02397	0.05047	4.709	0.056	0	-999.25	33.467	-999.25	-999.25	57.69061	0.00936	7.831	30.862	31.311	33.465	37.701	48.174
	6844.5	0	0	0	0.12348	0	0.87652	0	0.02779	0.0239	0	0	0	0	0.11117	0	0.83715	0.13896	0	-999.25	1	-15.4065	-999.25	2.6985	0.0239	0.05169	4.657	0.0585	0	-999.25	34.992	-999.25	-999.25	58.02066	0.00673	7.819	29.7185	30.3175	32.3305	36.5165	46.369
	6844	0	0	0	0.12933	0	0.87067	0	0.02908	0.02387	0	0	0	0	0.11631	0	0.83074	0.14539	0	-999.25	1	-15.625	-999.25	2.703	0.02387	0.05295	4.605	0.061	0	-999.25	36.517	-999.25	-999.25	58.35762	0.00409	7.807	28.575	29.324	31.196	35.332	44.564
	6843.5	0	0	0	0.14983	0	0.85017	0	0.03363	0.02209	0	0	0	0	0.13452	0	0.80976	0.16815	0	-999.25	1	-15.719	-999.25	2.692	0.02209	0.05572	4.6255	0.063	0	-999.25	40.857	-999.25	-999.25	59.29171	0.01053	7.819	26.737	27.5005	29.3215	33.072	41.3205
	6843	0	0	0	0.17025	0	0.82975	0	0.03814	0.02042	0	0	0	0	0.15258	0	0.78886	0.19072	0	-999.25	1	-15.813	-999.25	2.681	0.02042	0.05856	4.646	0.065	0	-999.25	45.197	-999.25	-999.25	60.23228	0.01696	7.831	24.899	25.677	27.447	30.812	38.077
	6842.5	0	0	0	0.15187	0	0.84813	0	0.03394	0.02591	0	0	0	0	0.13577	0	0.80438	0.16971	0	-999.25	1	-15.813	-999.25	2.683	0.02591	0.05985	4.5625	0.068	0	-999.25	41.6195	-999.25	-999.25	59.9588	0.01579	7.819	23.08	23.693	25.3315	28.454	35.1625
	6842	0	0	0	0.13325	0	0.86675	0	0.02971	0.03152	0	0	0	0	0.11882	0	0.81996	0.14853	0	-999.25	1	-15.813	-999.25	2.685	0.03152	0.06122	4.479	0.071	0.00002	-999.25	38.042	-999.25	-999.25	59.69413	0.01462	7.807	21.261	21.709	23.216	26.096	32.248
	6841.5	0	0	0	0.13735	0	0.86265	0	0.0306	0.03128	0	0	0	0	0.12242	0	0.8157	0.15302	0	-999.25	1	-15.7505	-999.25	2.688	0.03128	0.06189	4.4325	0.0715	0.00002	-999.25	39.213	-999.25	-999.25	59.8965	0.01287	7.807	20.941	21.2765	22.8785	25.6455	31.017
	6841	0	0	0	0.1415	0	0.8585	0	0.03151	0.03104	0	0	0	0	0.12605	0	0.81139	0.15757	0	-999.25	1	-15.688	-999.25	2.691	0.03104	0.06256	4.386	0.072	0.00001	-999.25	40.384	-999.25	-999.25	60.10086	0.01111	7.807	20.621	20.844	22.541	25.195	29.786
	6840.5	0	0	0	0.14232	0	0.85768	0	0.03177	0.02855	0	0	0	0	0.12709	0	0.81258	0.15887	0	-999.25	1	-15.7815	-999.25	2.693	0.02855	0.06033	4.4135	0.0665	0.00001	-999.25	40.488	-999.25	-999.25	59.78836	0.00994	7.807	22.3305	22.468	24.4145	27.1015	32.3665
	6840	0	0	0	0.14322	0	0.85678	0	0.03204	0.02629	0	0	0	0	0.12818	0	0.81349	0.16022	0	-999.25	1	-15.875	-999.25	2.695	0.02629	0.05833	4.441	0.061	0	-999.25	40.592	-999.25	-999.25	59.51355	0.00877	7.807	24.04	24.092	26.288	29.008	34.947
	6839.5	0	0	0	0.13396	0	0.86604	0	0.0301	0.02378	0	0	0	0	0.12039	0	0.82573	0.15049	0	-999.25	1	-16.25	-999.25	2.6965	0.02378	0.05388	4.512	0.0585	0	-999.25	38.3045	-999.25	-999.25	58.61494	0.00789	7.801	27.987	28.0635	30.822	34.0085	42.9525
	6839	0	0	0	0.125	0	0.875	0	0.02818	0.022	0	0	0	0	0.11272	0	0.8371	0.1409	0	-999.25	1	-16.625	-999.25	2.698	0.022	0.05018	4.583	0.056	0	-999.25	36.017	-999.25	-999.25	57.8332	0.00702	7.795	31.934	32.035	35.356	39.009	50.958
