~Version	Information								
 VERS.        2.00                                         :CWLS Log Ascii Standard - Version 2
 WRAP.        NO                                           :One line per depth step
~Well	Information	Block							
 #MNEM.UNIT	Data	Type	Information						
 #---------	---------	-------------------------------							
 STRT.F       7800.00000                                                                                     :START DEPTH
 STOP.F       6680.00000                                                                                     :STOP DEPTH
 STEP.F       -0.50000                                                                                       :INCREMENT
 NULL.        -999.25000                                                                                     :NULL DATA VALUE
 COMP.                                                                                                       :COMPANY
 WELL.        Dollie Thorell A4                                                                              :WELL
  FLD.        Wise County                                                                                    :FIELD
  LOC.                                                                                                       :LOCATION
 PROV.                                                                                                       :PROVINCE
 STAT.                                                                                                       :STATE
 CNTY.                                                                                                       :COUNTY
 CTRY.                                                                                                       :COUNTRY
 DATE.                                                                                                       :DATE
  UWI.        4249735151                                                                                     :UNIQUE WELL UWI
  LIC.                                                                                                       :LICENSE NUMBER
  API.        4249735151                                                                                     :API NUMBER
 SRVC.        SLB                                                                                            :SERVICE COMPANY
~Parameter	Information	Block						
#MNEM.UNIT    VALUE                                        :DESCRIPTION
#----.----    ---------------                              :-------------------
~Curve	Information	Block						
#MNEM.UNIT    VALUE                                        :DESCRIPTION
#----.----    ---------------                              :-------------------
 DEPT.F       00 001 00 00                                 :Depth Index
 WTOC.LBF/LBF                                              :1 WEIGHT PERCENT OF TOTAL ORGANIC CARBON
 WQUA.LBF/LBF                                              :2 WEIGHT PERCENT OF QUARTZ
 WPYR.LBF/LBF                                              :3 WEIGHT PERCENT OF PYRITE
 WILL.LBF/LBF                                              :4 WEIGHT PERCENT OF ILLITE
 WDOL.LBF/LBF                                              :5 WEIGHT PERCENT OF DOLOMITE
 WCLC.LBF/LBF                                              :6 WEIGHT PERCENT OF CALCITE
 WCAR.LBF/LBF                                              :7 WEIGHT PERCENT OF CARBONATE
 VXBW.V/V                                                  :8 VOLUME OF BOUND WATER IN FLUSHED ZONE
 VUWA.V/V                                                  :9 VOLUME OF WATER IN UNDISTURBED ZONE
 VUGA.V/V                                                  :10 VOLUME OF GAS IN UNDISTURBED ZONE
 VTOC.V/V                                                  :11 VOLUME OF TOTAL ORGANIC CARBON
 VQUA.V/V                                                  :12 VOLUME OF QUARTZ RELATIVE TO TOTAL VOLUME
 VPYR.V/V                                                  :13 VOLUME OF PYRITE RELATIVE TO TOTAL VOLUME
 VILL.V/V                                                  :14 VOLUME OF ILLITE (DRY) RELATIVE TO TOTAL VOLUME
 VDOL.V/V                                                  :15 VOLUME OF DOLOMITE RELATIVE TO TOTAL VOLUME
 VCLC.V/V                                                  :16 VOLUME OF CALCITE RELATIVE TO TOTAL VOLUME
  VCL.V/V                                                  :17 VOLUME OF CLAY TYPE MATERIAL RELATIVE TO TOTAL VOLUME
 VCAR.V/V                                                  :18 VOLUME FRACTION OF CARBONATE RELATIVE TO TOTAL VOLUME
 TOCH.OHMM                                                 :19 SUMMATION OF WEIGHT PERCENT TOC DECIMAL-FT
   SW.V/V                                                  :20 WATER SATURATION
   SP.MV                                                   :21 SPONTANEOUS POTENTIAL
 RPAH.OHMM                                                 :22 RESERVOIR HEIGHT (FT)
 RHOB.G/C3                                                 :23 BULK DENSITY
 PIGN.V/V                                                  :24 EFFECTIVE "POROSITY," "VISO," "VPAR," AND BOUND WATER REMOVED
 PHIT.V/V                                                  :25 TOTAL POROSITY_ INCLUDES ALL FORMS OF "POROSITY," INCLUDING THAT OCCUPIED BY BOUND "FLUIDS," AND IS INDEPENDENT OF ROCK AND FLUID MATERIALS AND OF ENVIRONMENTAL EFFECTS
  PEF.                                                     :26 PHOTOELECTRIC FACTOR
 NPHI.V/V                                                  :27 THERMAL NEUTRON POROSITY (ORIGINAL RATIO METHOD) IN SELECTED LITHOLOGY
 KINT.MD                                                   :28 INTRINSIC PERMEABILITY
   KH.OHMM                                                 :29 SUMMATION OF PERMEABILITY MD-FT
   GR.GAPI                                                 :30 GAMMA RAY
  GIP.                                                     :31 GAS IN PLACE BCF PER SQUARE MILE
 GASH.OHMM                                                 :32 SUMMATION OF GAS FILLED MATRIX POROSITY DECIMAL-FT
  DTT.US/F                                                 :33 THEORETICAL DT VALUE
 DPHI.V/V                                                  :34 DENSITY POROSITY
 CALI.IN                                                   :35 CALIPER
 AT90.OHMM                                                 :36 AIT TWO FOOT RESISTIVITY A90
 AT60.OHMM                                                 :37 AIT TWO FOOT RESISTIVITY A60
 AT30.OHMM                                                 :38 AIT TWO FOOT RESISTIVITY A30
 AT20.OHMM                                                 :39 AIT TWO FOOT RESISTIVITY A20
 AT10.OHMM                                                 :40 AIT TWO FOOT RESISTIVITY A10
~Ascii   DEPT         WTOC         WQUA         WPYR         WILL         WDOL         WCLC         WCAR         VXBW         VUWA         VUGA         VTOC         VQUA         VPYR         VILL         VDOL         VCLC          VCL         VCAR         TOCH           SW           SP         RPAH         RHOB         PIGN         PHIT          PEF         NPHI         KINT           KH           GR          GIP         GASH          DTT         DPHI         CALI         AT90         AT60         AT30         AT20         AT10																																						
# ...
	6787.5	0	0	0	0.09827	0	0.90173	0	0.02258	0.00799	0	0	0	0	0.09031	0	0.87913	0.11288	0	-999.25	1	-26.844	-999.25	2.7455	0.00799	0.03056	4.876	0.0195	0	-999.25	28.107	-999.25	-999.25	54.20473	-0.02076	7.765	81.02451	85.127	92.1985	100.1175	148.43701
	6787	0	0	0	0.10283	0	0.89717	0	0.02358	0.00893	0	0	0	0	0.09433	0	0.87315	0.11792	0	-999.25	1	-26.688	-999.25	2.757	0.00893	0.03252	4.944	0.024	0	-999.25	28.357	-999.25	-999.25	54.61662	-0.02749	7.771	71.203	74.47	79.222	86.989	130.744
	6786.5	0	0	0	0.08579	0	0.91421	0	0.01967	0.01209	0	0	0	0	0.07869	0	0.88955	0.09836	0	-999.25	1	-26.719	-999.25	2.744	0.01209	0.03176	4.956	0.022	0	-999.25	24.808	-999.25	-999.25	54.06318	-0.01988	7.765	71.223	73.394	79.9345	88.205	128.9075
	6786	0	0	0	0.0685	0	0.9315	0	0.01571	0.01512	0	0	0	0	0.06283	0	0.90634	0.07853	0	-999.25	1	-26.75	-999.25	2.731	0.01512	0.03083	4.968	0.02	0	-999.25	21.259	-999.25	-999.25	53.47598	-0.01228	7.759	71.243	72.318	80.647	89.421	127.071
	6785.5	0	0	0	0.06414	0	0.93586	0	0.0147	0.01636	0	0	0	0	0.05879	0	0.91015	0.07349	0	-999.25	1	-26.719	-999.25	2.722	0.01636	0.03106	4.9055	0.0205	0	-999.25	20.9535	-999.25	-999.25	53.39843	-0.00702	7.759	69.58549	69.714	77.83501	85.7365	126.5895
	6785	0	0	0	0.05982	0	0.94018	0	0.0137	0.01758	0	0	0	0	0.05481	0	0.91391	0.06851	0	-999.25	1	-26.688	-999.25	2.713	0.01758	0.03128	4.843	0.021	0	-999.25	20.648	-999.25	-999.25	53.3202	-0.00175	7.759	67.928	67.11	75.023	82.052	126.108
	6784.5	0	0	0	0.06534	0	0.93466	0	0.01499	0.01486	0	0	0	0	0.05998	0	0.91017	0.07497	0	-999.25	1	-26.813	-999.25	2.709	0.01486	0.02985	4.8695	0.0195	0	-999.25	21.7185	-999.25	-999.25	53.2469	0.00058	7.771	76.857	75.1875	86.344	93.533	131.20151
	6784	0	0	0	0.07078	0	0.92922	0	0.01627	0.0124	0	0	0	0	0.06507	0	0.90626	0.08134	0	-999.25	1	-26.938	-999.25	2.705	0.0124	0.02867	4.896	0.018	0	-999.25	22.789	-999.25	-999.25	53.20814	0.00292	7.783	85.786	83.265	97.665	105.014	136.295
	6783.5	0	0	0	0.06646	0	0.93354	0	0.01527	0.01373	0	0	0	0	0.06107	0	0.90993	0.07633	0	-999.25	1	-27.1565	-999.25	2.7095	0.01373	0.029	4.802	0.021	0	-999.25	22.499	-999.25	-999.25	53.14678	0.00029	7.783	82.3745	82.457	92.91	100.0125	140.26849
	6783	0	0	0	0.06211	0	0.93789	0	0.01426	0.01509	0	0	0	0	0.05703	0	0.91362	0.07129	0	-999.25	1	-27.375	-999.25	2.714	0.01509	0.02935	4.708	0.024	0	-999.25	22.209	-999.25	-999.25	53.08683	-0.00234	7.783	78.963	81.649	88.155	95.011	144.242
	6782.5	0	0	0	0.06826	0	0.93174	0	0.01568	0.0137	0	0	0	0	0.0627	0	0.90792	0.07838	0	-999.25	1	-27.3125	-999.25	2.7225	0.0137	0.02938	4.714	0.0205	0	-999.25	23.3595	-999.25	-999.25	53.25053	-0.00731	7.783	80.539	82.422	88.7675	94.5255	143.82849
	6782	0	0	0	0.0744	0	0.9256	0	0.01709	0.01229	0	0	0	0	0.06836	0	0.90225	0.08545	0	-999.25	1	-27.25	-999.25	2.731	0.01229	0.02938	4.72	0.017	0	-999.25	24.51	-999.25	-999.25	53.41	-0.01228	7.783	82.115	83.195	89.38	94.04	143.41499
	6781.5	0	0	0	0.06847	0	0.93153	0	0.01573	0.013	0	0	0	0	0.06294	0	0.90833	0.07867	0	-999.25	1	-27.4065	-999.25	2.736	0.013	0.02873	4.723	0.0155	0	-999.25	23.152	-999.25	-999.25	53.15815	-0.0152	7.771	83.362	84.311	90.69949	96.2245	148.4465
	6781	0	0	0	0.06249	0	0.93751	0	0.01436	0.0137	0	0	0	0	0.05746	0	0.91448	0.07182	0	-999.25	1	-27.563	-999.25	2.741	0.0137	0.02806	4.726	0.014	0	-999.25	21.794	-999.25	-999.25	52.9026	-0.01813	7.759	84.609	85.427	92.019	98.409	153.478
	6780.5	0	0	0	0.06099	0	0.93901	0	0.01401	0.01445	0	0	0	0	0.05605	0	0.91549	0.07006	0	-999.25	1	-28.063	-999.25	2.7365	0.01445	0.02846	4.741	0.0145	0	-999.25	21.415	-999.25	-999.25	52.92429	-0.0155	7.771	81.84	81.9785	88.869	94.873	145.02499
	6780	0	0	0	0.05949	0	0.94051	0	0.01366	0.01522	0	0	0	0	0.05464	0	0.91647	0.0683	0	-999.25	1	-28.563	-999.25	2.732	0.01522	0.02888	4.756	0.015	0	-999.25	21.036	-999.25	-999.25	52.94899	-0.01287	7.783	79.071	78.53	85.719	91.337	136.57201
	6779.5	0	0	0	0.06478	0	0.93522	0	0.01488	0.01405	0	0	0	0	0.05952	0	0.91155	0.0744	0	-999.25	1	-28.844	-999.25	2.732	0.01405	0.02893	4.7595	0.0145	0	-999.25	22.132	-999.25	-999.25	53.09317	-0.01287	7.771	80.8495	80.6295	88.0975	94.959	138.91299
	6779	0	0	0	0.07003	0	0.92997	0	0.01609	0.01288	0	0	0	0	0.06436	0	0.90668	0.08044	0	-999.25	1	-29.125	-999.25	2.732	0.01288	0.02897	4.763	0.014	0	-999.25	23.228	-999.25	-999.25	53.23376	-0.01287	7.759	82.628	82.729	90.476	98.581	141.254
	6778.5	0	0	0	0.05939	0	0.94061	0	0.01365	0.01459	0	0	0	0	0.05459	0	0.91718	0.06824	0	-999.25	1	-29.625	-999.25	2.729	0.01459	0.02823	4.745	0.0155	0	-999.25	21.1565	-999.25	-999.25	52.84801	-0.01111	7.771	83.0285	84.0645	92.8515	101.1355	144.07599
	6778	0	0	0	0.04864	0	0.95136	0	0.01118	0.01623	0	0	0	0	0.04472	0	0.92787	0.0559	0	-999.25	1	-30.125	-999.25	2.726	0.01623	0.02741	4.727	0.017	0	-999.25	19.085	-999.25	-999.25	52.44577	-0.00936	7.783	83.429	85.4	95.227	103.69	146.89799
	6777.5	0	0	0	0.04156	0	0.95843	0	0.00955	0.01771	0	0	0	0	0.0382	0	0.93454	0.04775	0	-999.25	1	-30.75	-999.25	2.726	0.01771	0.02726	4.7015	0.016	0	-999.25	17.8105	-999.25	-999.25	52.24059	-0.00936	7.771	80.9395	83.9925	93.69	101.058	147.89
	6777	0	0	0	0.0344	0	0.9656	0	0.0079	0.01916	0	0	0	0	0.03161	0	0.94133	0.03952	0	-999.25	1	-31.375	-999.25	2.726	0.01916	0.02706	4.676	0.015	0	-999.25	16.536	-999.25	-999.25	52.02551	-0.00936	7.759	78.45	82.585	92.153	98.426	148.882
	6776.5	0	0	0	0.04415	0	0.95585	0	0.01014	0.01801	0	0	0	0	0.04055	0	0.93131	0.05068	0	-999.25	1	-31.8125	-999.25	2.7235	0.01801	0.02814	4.6955	0.016	0	-999.25	18.416	-999.25	-999.25	52.44132	-0.00789	7.759	77.3595	82.5	89.5545	95.2765	146.84351
	6776	0	0	0	0.05378	0	0.94622	0	0.01234	0.0168	0	0	0	0	0.04937	0	0.92149	0.06171	0	-999.25	1	-32.25	-999.25	2.721	0.0168	0.02914	4.715	0.017	0	-999.25	20.296	-999.25	-999.25	52.84101	-0.00643	7.759	76.269	82.415	86.956	92.127	144.80499
	6775.5	0	0	0	0.0651	0	0.9349	0	0.01493	0.01545	0	0	0	0	0.05972	0	0.90989	0.07465	0	-999.25	1	-32.4065	-999.25	2.716	0.01545	0.03038	4.7445	0.018	0	-999.25	22.511	-999.25	-999.25	53.321	-0.00351	7.759	74.3545	79.748	84.864	89.1625	139.2085
	6775	0	0	0	0.07629	0	0.92371	0	0.01749	0.01406	0	0	0	0	0.06995	0	0.8985	0.08743	0	-999.25	1	-32.563	-999.25	2.711	0.01406	0.03155	4.774	0.019	0	-999.25	24.726	-999.25	-999.25	53.78568	-0.00058	7.759	72.44	77.081	82.772	86.198	133.612
	6774.5	0	0	0	0.07614	0	0.92386	0	0.01745	0.01411	0	0	0	0	0.06981	0	0.89863	0.08726	0	-999.25	1	-32.8755	-999.25	2.724	0.01411	0.03157	4.7275	0.018	0	-999.25	24.852	-999.25	-999.25	53.7841	-0.00819	7.771	71.8065	75.3745	81.402	86.6665	129.103
	6774	0	0	0	0.07596	0	0.92404	0	0.01741	0.01417	0	0	0	0	0.06964	0	0.89877	0.08705	0	-999.25	1	-33.188	-999.25	2.737	0.01417	0.03158	4.681	0.017	0	-999.25	24.978	-999.25	-999.25	53.78236	-0.01579	7.783	71.173	73.668	80.032	87.135	124.594
	6773.5	0	0	0	0.07999	0	0.92001	0	0.01834	0.01343	0	0	0	0	0.07334	0	0.89489	0.09168	0	-999.25	1	-33.4065	-999.25	2.7435	0.01343	0.03176	4.6175	0.019	0	-999.25	26.242	-999.25	-999.25	53.91339	-0.01959	7.771	71.459	73.4015	79.925	87.887	127.3425
	6773	0	0	0	0.084	0	0.916	0	0.01926	0.01268	0	0	0	0	0.07703	0	0.89104	0.09628	0	-999.25	1	-33.625	-999.25	2.75	0.01268	0.03193	4.554	0.021	0	-999.25	27.506	-999.25	-999.25	54.0425	-0.02339	7.759	71.745	73.135	79.818	88.639	130.091
	6772.5	0	0	0	0.07655	0	0.92345	0	0.01756	0.01355	0	0	0	0	0.07022	0	0.89867	0.08778	0	-999.25	1	-33.7815	-999.25	2.7335	0.01355	0.03111	4.6615	0.0185	0	-999.25	25.3345	-999.25	-999.25	53.72559	-0.01374	7.771	73.9305	74.325	81.4305	89.8065	134.722
	6772	0	0	0	0.06909	0	0.93091	0	0.01585	0.01442	0	0	0	0	0.0634	0	0.90632	0.07926	0	-999.25	1	-33.938	-999.25	2.717	0.01442	0.03027	4.769	0.016	0	-999.25	23.163	-999.25	-999.25	53.40722	-0.00409	7.783	76.116	75.515	83.043	90.974	139.353
	6771.5	0	0	0	0.05473	0	0.94527	0	0.01258	0.01496	0	0	0	0	0.05032	0	0.92214	0.06291	0	-999.25	1	-33.938	-999.25	2.714	0.01496	0.02754	4.899	0.012	0	-999.25	19.2155	-999.25	-999.25	52.62276	-0.00234	7.771	85.3345	86.669	95.276	105.7565	160.819
	6771	0	0	0	0.04026	0	0.95974	0	0.00927	0.01569	0	0	0	0	0.03709	0	0.93795	0.04636	0	-999.25	1	-33.938	-999.25	2.711	0.01569	0.02496	5.029	0.008	0	-999.25	15.268	-999.25	-999.25	51.85775	-0.00058	7.759	94.553	97.823	107.509	120.539	182.285
