~Version	Information								
 VERS.        2.00                                         :CWLS Log Ascii Standard - Version 2
 WRAP.        NO                                           :One line per depth step
~Well	Information	Block							
 #MNEM.UNIT	Data	Type	Information						
 #---------	---------	-------------------------------							
 STRT.F       7800.00000                                                                                     :START DEPTH
 STOP.F       6680.00000                                                                                     :STOP DEPTH
 STEP.F       -0.50000                                                                                       :INCREMENT
 NULL.        -999.25000                                                                                     :NULL DATA VALUE
 COMP.                                                                                                       :COMPANY
 WELL.        Dollie Thorell A4                                                                              :WELL
  FLD.        Wise County                                                                                    :FIELD
  LOC.                                                                                                       :LOCATION
 PROV.                                                                                                       :PROVINCE
 STAT.                                                                                                       :STATE
 CNTY.                                                                                                       :COUNTY
 CTRY.                                                                                                       :COUNTRY
 DATE.                                                                                                       :DATE
  UWI.        4249735151                                                                                     :UNIQUE WELL UWI
  LIC.                                                                                                       :LICENSE NUMBER
  API.        4249735151                                                                                     :API NUMBER
 SRVC.        SLB                                                                                            :SERVICE COMPANY
~Parameter	Information	Block						
#MNEM.UNIT    VALUE                                        :DESCRIPTION
#----.----    ---------------                              :-------------------
~Curve	Information	Block						
#MNEM.UNIT    VALUE                                        :DESCRIPTION
#----.----    ---------------                              :-------------------
 DEPT.F       00 001 00 00                                 :Depth Index
 WTOC.LBF/LBF                                              :1 WEIGHT PERCENT OF TOTAL ORGANIC CARBON
 WQUA.LBF/LBF                                              :2 WEIGHT PERCENT OF QUARTZ
 WPYR.LBF/LBF                                              :3 WEIGHT PERCENT OF PYRITE
 WILL.LBF/LBF                                              :4 WEIGHT PERCENT OF ILLITE
 WDOL.LBF/LBF                                              :5 WEIGHT PERCENT OF DOLOMITE
 WCLC.LBF/LBF                                              :6 WEIGHT PERCENT OF CALCITE
 WCAR.LBF/LBF                                              :7 WEIGHT PERCENT OF CARBONATE
 VXBW.V/V                                                  :8 VOLUME OF BOUND WATER IN FLUSHED ZONE
 VUWA.V/V                                                  :9 VOLUME OF WATER IN UNDISTURBED ZONE
 VUGA.V/V                                                  :10 VOLUME OF GAS IN UNDISTURBED ZONE
 VTOC.V/V                                                  :11 VOLUME OF TOTAL ORGANIC CARBON
 VQUA.V/V                                                  :12 VOLUME OF QUARTZ RELATIVE TO TOTAL VOLUME
 VPYR.V/V                                                  :13 VOLUME OF PYRITE RELATIVE TO TOTAL VOLUME
 VILL.V/V                                                  :14 VOLUME OF ILLITE (DRY) RELATIVE TO TOTAL VOLUME
 VDOL.V/V                                                  :15 VOLUME OF DOLOMITE RELATIVE TO TOTAL VOLUME
 VCLC.V/V                                                  :16 VOLUME OF CALCITE RELATIVE TO TOTAL VOLUME
  VCL.V/V                                                  :17 VOLUME OF CLAY TYPE MATERIAL RELATIVE TO TOTAL VOLUME
 VCAR.V/V                                                  :18 VOLUME FRACTION OF CARBONATE RELATIVE TO TOTAL VOLUME
 TOCH.OHMM                                                 :19 SUMMATION OF WEIGHT PERCENT TOC DECIMAL-FT
   SW.V/V                                                  :20 WATER SATURATION
   SP.MV                                                   :21 SPONTANEOUS POTENTIAL
 RPAH.OHMM                                                 :22 RESERVOIR HEIGHT (FT)
 RHOB.G/C3                                                 :23 BULK DENSITY
 PIGN.V/V                                                  :24 EFFECTIVE "POROSITY," "VISO," "VPAR," AND BOUND WATER REMOVED
 PHIT.V/V                                                  :25 TOTAL POROSITY_ INCLUDES ALL FORMS OF "POROSITY," INCLUDING THAT OCCUPIED BY BOUND "FLUIDS," AND IS INDEPENDENT OF ROCK AND FLUID MATERIALS AND OF ENVIRONMENTAL EFFECTS
  PEF.                                                     :26 PHOTOELECTRIC FACTOR
 NPHI.V/V                                                  :27 THERMAL NEUTRON POROSITY (ORIGINAL RATIO METHOD) IN SELECTED LITHOLOGY
 KINT.MD                                                   :28 INTRINSIC PERMEABILITY
   KH.OHMM                                                 :29 SUMMATION OF PERMEABILITY MD-FT
   GR.GAPI                                                 :30 GAMMA RAY
  GIP.                                                     :31 GAS IN PLACE BCF PER SQUARE MILE
 GASH.OHMM                                                 :32 SUMMATION OF GAS FILLED MATRIX POROSITY DECIMAL-FT
  DTT.US/F                                                 :33 THEORETICAL DT VALUE
 DPHI.V/V                                                  :34 DENSITY POROSITY
 CALI.IN                                                   :35 CALIPER
 AT90.OHMM                                                 :36 AIT TWO FOOT RESISTIVITY A90
 AT60.OHMM                                                 :37 AIT TWO FOOT RESISTIVITY A60
 AT30.OHMM                                                 :38 AIT TWO FOOT RESISTIVITY A30
 AT20.OHMM                                                 :39 AIT TWO FOOT RESISTIVITY A20
 AT10.OHMM                                                 :40 AIT TWO FOOT RESISTIVITY A10
~Ascii   DEPT         WTOC         WQUA         WPYR         WILL         WDOL         WCLC         WCAR         VXBW         VUWA         VUGA         VTOC         VQUA         VPYR         VILL         VDOL         VCLC          VCL         VCAR         TOCH           SW           SP         RPAH         RHOB         PIGN         PHIT          PEF         NPHI         KINT           KH           GR          GIP         GASH          DTT         DPHI         CALI         AT90         AT60         AT30         AT20         AT10																																						
# ...
	7567.5	0	0	0	0.18176	0.44659	0.37165	0	0.04168	0.01641	0	0	0	0	0.1667	0.41361	0.3616	0.20838	0	-999.25	1	5.0005	-999.25	2.695	0.01641	0.05808	4.1515	0.09	0	-999.25	87.1385	-999.25	-999.25	61.17354	0.00877	7.988	21.97	23.378	24.6355	26.655	31.4465
	7567	0	0	0	0.21591	0.55982	0.22427	0	0.04936	0.01874	0	0	0	0	0.19742	0.51693	0.21755	0.24678	0	-999.25	1	5.063	-999.25	2.697	0.01874	0.0681	3.988	0.095	0	-999.25	90.89	-999.25	-999.25	62.78306	0.0076	8	18.838	20.074	20.939	22.486	26.197
	7566.5	0	0	0	0.25136	0.69728	0.05136	0	0.05756	0.01727	0	0	0	0	0.23025	0.645	0.04991	0.28781	0	-999.25	1	4.438	-999.25	2.71	0.01727	0.07483	3.7945	0.1025	0	-999.25	96.8495	-999.25	-999.25	63.80595	0	8	16.8755	17.7585	18.6215	20.0535	23.2345
	7566	0	0	0	0.22114	0.77886	0	0	0.05088	0.02165	0	0	0	0	0.20354	0.72392	0	0.25442	0	-999.25	1	3.813	-999.25	2.723	0.02165	0.07254	3.601	0.11	0	-999.25	102.809	-999.25	-999.25	62.34976	-0.0076	8	14.913	15.443	16.304	17.621	20.272
	7565.5	0	0	0	0.22739	0.77261	0	0	0.05256	0.01577	0	0	0	0	0.21026	0.72141	0	0.26282	0	-999.25	1	2.219	-999.25	2.73	0.01577	0.06833	3.6355	0.0995	0	-999.25	99.1095	-999.25	-999.25	61.89947	-0.0117	8	14.559	14.975	15.8	17.017	18.993
	7565	0	0	0	0.21944	0.76697	0.01359	0	0.05081	0.01524	0	0	0	0	0.20325	0.71735	0.01335	0.25406	0	-999.25	1	0.625	-999.25	2.737	0.01524	0.06606	3.67	0.089	0	-999.25	95.41	-999.25	-999.25	61.41608	-0.01579	8	14.205	14.507	15.296	16.413	17.714
	7564.5	0	0	0	0.11315	0.53722	0.34963	0	0.0266	0.00798	0	0	0	0	0.10641	0.51019	0.34882	0.13301	0	-999.25	1	-2.9375	-999.25	2.7425	0.00798	0.03458	3.988	0.064	0	-999.25	70.506	-999.25	-999.25	55.64547	-0.01901	8	24.8605	25.3125	28.0955	29.28	32.1215
	7564	0	0	0	0.00784	0.31298	0.67918	0	0.00187	0.0013	0	0	0	0	0.00748	0.30165	0.68769	0.00936	0	-999.25	1	-6.5	-999.25	2.748	0.0013	0.00318	4.306	0.039	0	-999.25	45.602	-999.25	-999.25	49.84291	-0.02222	8	35.516	36.118	40.895	42.147	46.529
	7563.5	0	0	0	0.00001	0.19215	0.80784	0	0	0.00001	0	0	0	0	0.00001	0.18461	0.81537	0.00001	0	-999.25	1	-10.719	-999.25	2.75	0.0001	0.0001	4.5035	0.031	0	-999.25	36.2175	-999.25	-999.25	49.89434	-0.02339	8	70.3425	74.99	86.01701	116.6785	75.358
	7563	0	0	0	0.00001	0.07182	0.92817	0	0	0.00001	0	0	0	0	0.00001	0.0686	0.93138	0.00001	0	-999.25	1	-14.938	-999.25	2.752	0.0001	0.0001	4.701	0.023	0	-999.25	26.833	-999.25	-999.25	50.59036	-0.02456	8	105.169	113.862	131.13901	191.21001	104.187
	7562.5	0	0	0	0.00001	0.07943	0.92056	0	0	0.00001	0	0	0	0	0.00001	0.0759	0.92408	0.00001	0	-999.25	1	-18.4065	-999.25	2.743	0.0001	0.0001	4.6885	0.0225	0	-999.25	27.831	-999.25	-999.25	50.54659	-0.0193	7.988	172.89751	152.819	164.49701	204.283	232.543
	7562	0	0	0	0.00001	0.08703	0.91296	0	0	0.00001	0	0	0	0	0.00001	0.08319	0.91679	0.00001	0	-999.25	1	-21.875	-999.25	2.734	0.0001	0.0001	4.676	0.022	0	-999.25	28.829	-999.25	-999.25	50.50282	-0.01404	7.976	240.62601	191.776	197.855	217.356	360.89899
	7561.5	0	0	0	0.00001	0.02587	0.97413	0	0	0.00001	0	0	0	0	0.00001	0.02465	0.97533	0.00001	0	-999.25	1	-25	-999.25	2.721	0.0001	0.0001	4.7765	0.016	0	-999.25	25.5525	-999.25	-999.25	50.85407	-0.00643	7.976	357.93851	246.332	257.54401	330.19449	842.08301
	7561	0	0	0	0.00001	0	0.99999	0	0	0.00001	0	0	0	0	0.00001	0	0.99998	0.00001	0	-999.25	1	-28.125	-999.25	2.708	0.0001	0.0001	4.877	0.01	0	-999.25	22.276	-999.25	-999.25	51.00198	0.00117	7.976	475.25101	300.888	317.233	443.03299	1323.26697
	7560.5	0	0	0	0.00001	0	0.99999	0	0	0.00001	0	0	0	0	0.00001	0	0.99998	0.00001	0	-999.25	1	-31.375	-999.25	2.7055	0.0001	0.0001	4.957	0.0075	0	-999.25	19.8855	-999.25	-999.25	51.00198	0.00263	7.964	964.6225	604.50354	588.3855	1181.48853	1636.63354
	7560	0	0	0	0.00001	0	0.99999	0	0	0.00001	0	0	0	0	0.00001	0	0.99998	0.00001	0	-999.25	1	-34.625	-999.25	2.703	0.0001	0.0001	5.037	0.005	0	-999.25	17.495	-999.25	-999.25	51.00198	0.00409	7.952	1453.99402	908.11902	859.53802	1919.94397	1950
	7559.5	0	0	0	0.00001	0	0.99999	0	0	0.00001	0	0	0	0	0.00001	0	0.99998	0.00001	0	-999.25	1	-37.4065	-999.25	2.715	0.0001	0.0001	4.9585	0.0065	0	-999.25	19.579	-999.25	-999.25	51.00198	-0.00292	7.964	1301.08643	1044.39844	978.47949	1648.49341	1950
	7559	0	0	0	0.00001	0	0.99999	0	0	0.00001	0	0	0	0	0.00001	0	0.99998	0.00001	0	-999.25	1	-40.188	-999.25	2.727	0.0001	0.0001	4.88	0.008	0	-999.25	21.663	-999.25	-999.25	51.00198	-0.00994	7.976	1148.17896	1180.67798	1097.42102	1377.04297	1950
	7558.5	0	0	0	0.00001	0	0.99999	0	0	0.00001	0	0	0	0	0.00001	0	0.99998	0.00001	0	-999.25	1	-42.438	-999.25	2.725	0.0001	0.0001	4.8365	0.0095	0	-999.25	22.858	-999.25	-999.25	51.00198	-0.00877	7.976	840.20251	898.91699	844.20105	1055.07153	1899.13098
	7558	0	0	0	0.00001	0.01568	0.98431	0	0	0.00001	0	0	0	0	0.00001	0.01493	0.98505	0.00001	0	-999.25	1	-44.688	-999.25	2.723	0.0001	0.0001	4.793	0.011	0	-999.25	24.053	-999.25	-999.25	50.91238	-0.0076	7.976	532.22601	617.15601	590.98102	733.09998	1848.26196
	7557.5	0	0	0	0.00001	0.02937	0.97062	0	0	0.00001	0	0	0	0	0.00001	0.028	0.97198	0.00001	0	-999.25	1	-46.188	-999.25	2.7235	0.0001	0.0001	4.7725	0.0115	0	-999.25	21.126	-999.25	-999.25	50.83401	-0.00789	7.976	456.259	507.16449	524.39502	618.85046	1631.33301
	7557	0	0	0	0.00001	0.04304	0.95695	0	0	0.00001	0	0	0	0	0.00001	0.04106	0.95892	0.00001	0	-999.25	1	-47.688	-999.25	2.724	0.0001	0.0001	4.752	0.012	0	-999.25	18.199	-999.25	-999.25	50.75563	-0.00819	7.976	380.29199	397.173	457.80899	504.60101	1414.40405
	7556.5	0	0	0	0.00001	0.05326	0.94673	0	0	0.00001	0	0	0	0	0.00001	0.05083	0.94915	0.00001	0	-999.25	1	-48.938	-999.25	2.7255	0.0001	0.0001	4.734	0.014	0	-999.25	21.4135	-999.25	-999.25	50.69702	-0.00906	7.97	336.01349	353.78351	407.24548	424.58801	1134.11853
	7556	0	0	0	0.00001	0.06347	0.93652	0	0	0.00001	0	0	0	0	0.00001	0.0606	0.93938	0.00001	0	-999.25	1	-50.188	-999.25	2.727	0.0001	0.0001	4.716	0.016	0	-999.25	24.628	-999.25	-999.25	50.6384	-0.00994	7.964	291.73499	310.39401	356.68201	344.57501	853.83301
	7555.5	0	0	0	0.00001	0.06668	0.93332	0	0	0.00001	0	0	0	0	0.00001	0.06367	0.93631	0.00001	0	-999.25	1	-51.1255	-999.25	2.7255	0.0001	0.0001	4.711	0.017	0	-999.25	24.3885	-999.25	-999.25	50.61995	-0.00906	7.97	239.14799	256.87402	280.392	266.401	652.15601
	7555	0	0	0	0.00001	0.06988	0.93011	0	0	0.00001	0	0	0	0	0.00001	0.06674	0.93324	0.00001	0	-999.25	1	-52.063	-999.25	2.724	0.0001	0.0001	4.706	0.018	0	-999.25	24.149	-999.25	-999.25	50.60151	-0.00819	7.976	186.561	203.354	204.10201	188.22701	450.479
	7554.5	0	0	0	0.00001	0.05207	0.94792	0	0	0.00001	0	0	0	0	0.00001	0.04969	0.95029	0.00001	0	-999.25	1	-53.0005	-999.25	2.7505	0.0001	0.0001	4.7345	0.0165	0	-999.25	22.1105	-999.25	-999.25	50.70382	-0.02368	7.964	221.0735	243.039	231.68149	208.24701	460.86798
	7554	0	0	0	0.00001	0.03423	0.96576	0	0	0.00001	0	0	0	0	0.00001	0.03264	0.96734	0.00001	0	-999.25	1	-53.938	-999.25	2.777	0.0001	0.0001	4.763	0.015	0	-999.25	20.072	-999.25	-999.25	50.80614	-0.03918	7.952	255.586	282.724	259.26099	228.267	471.25699
	7553.5	0	0	0	0.00001	0	0.99999	0	0	0.00001	0	0	0	0	0.00001	0	0.99998	0.00001	0	-999.25	1	-54.688	-999.25	2.755	0.0001	0.0001	4.8445	0.013	0	-999.25	19.708	-999.25	-999.25	51.00198	-0.02632	7.964	276.27301	318.51251	335.39398	280.62799	647.21552
	7553	0	0	0	0.00001	0	0.99999	0	0	0.00001	0	0	0	0	0.00001	0	0.99998	0.00001	0	-999.25	1	-55.438	-999.25	2.733	0.0001	0.0001	4.926	0.011	0	-999.25	19.344	-999.25	-999.25	51.00198	-0.01345	7.976	296.95999	354.30099	411.52701	332.98901	823.17401
	7552.5	0	0	0	0.00001	0	0.99999	0	0	0.00001	0	0	0	0	0.00001	0	0.99998	0.00001	0	-999.25	1	-56.438	-999.25	2.7225	0.0001	0.0001	4.907	0.011	0	-999.25	18.388	-999.25	-999.25	51.00198	-0.00731	7.976	370.93701	411.52448	457.88849	382.52753	1050.05847
	7552	0	0	0	0.00001	0	0.99999	0	0	0.00001	0	0	0	0	0.00001	0	0.99998	0.00001	0	-999.25	1	-57.438	-999.25	2.712	0.0001	0.0001	4.888	0.011	0	-999.25	17.432	-999.25	-999.25	51.00198	-0.00117	7.976	444.914	468.74799	504.25	432.06601	1276.94299
	7551.5	0	0	0	0.00001	0	0.99999	0	0	0.00001	0	0	0	0	0.00001	0	0.99998	0.00001	0	-999.25	1	-58.1565	-999.25	2.714	0.0001	0.0001	4.842	0.0115	0	-999.25	17.6995	-999.25	-999.25	51.00198	-0.00234	7.976	408.82651	421.43951	441.05701	380.272	1138.62744
