~Version	Information								
 VERS.        2.00                                         :CWLS Log Ascii Standard - Version 2
 WRAP.        NO                                           :One line per depth step
~Well	Information	Block							
 #MNEM.UNIT	Data	Type	Information						
 #---------	---------	-------------------------------							
 STRT.F       7800.00000                                                                                     :START DEPTH
 STOP.F       6680.00000                                                                                     :STOP DEPTH
 STEP.F       -0.50000                                                                                       :INCREMENT
 NULL.        -999.25000                                                                                     :NULL DATA VALUE
 COMP.                                                                                                       :COMPANY
 WELL.        Dollie Thorell A4                                                                              :WELL
  FLD.        Wise County                                                                                    :FIELD
  LOC.                                                                                                       :LOCATION
 PROV.                                                                                                       :PROVINCE
 STAT.                                                                                                       :STATE
 CNTY.                                                                                                       :COUNTY
 CTRY.                                                                                                       :COUNTRY
 DATE.                                                                                                       :DATE
  UWI.        4249735151                                                                                     :UNIQUE WELL UWI
  LIC.                                                                                                       :LICENSE NUMBER
  API.        4249735151                                                                                     :API NUMBER
 SRVC.        SLB                                                                                            :SERVICE COMPANY
~Parameter	Information	Block						
#MNEM.UNIT    VALUE                                        :DESCRIPTION
#----.----    ---------------                              :-------------------
~Curve	Information	Block						
#MNEM.UNIT    VALUE                                        :DESCRIPTION
#----.----    ---------------                              :-------------------
 DEPT.F       00 001 00 00                                 :Depth Index
 WTOC.LBF/LBF                                              :1 WEIGHT PERCENT OF TOTAL ORGANIC CARBON
 WQUA.LBF/LBF                                              :2 WEIGHT PERCENT OF QUARTZ
 WPYR.LBF/LBF                                              :3 WEIGHT PERCENT OF PYRITE
 WILL.LBF/LBF                                              :4 WEIGHT PERCENT OF ILLITE
 WDOL.LBF/LBF                                              :5 WEIGHT PERCENT OF DOLOMITE
 WCLC.LBF/LBF                                              :6 WEIGHT PERCENT OF CALCITE
 WCAR.LBF/LBF                                              :7 WEIGHT PERCENT OF CARBONATE
 VXBW.V/V                                                  :8 VOLUME OF BOUND WATER IN FLUSHED ZONE
 VUWA.V/V                                                  :9 VOLUME OF WATER IN UNDISTURBED ZONE
 VUGA.V/V                                                  :10 VOLUME OF GAS IN UNDISTURBED ZONE
 VTOC.V/V                                                  :11 VOLUME OF TOTAL ORGANIC CARBON
 VQUA.V/V                                                  :12 VOLUME OF QUARTZ RELATIVE TO TOTAL VOLUME
 VPYR.V/V                                                  :13 VOLUME OF PYRITE RELATIVE TO TOTAL VOLUME
 VILL.V/V                                                  :14 VOLUME OF ILLITE (DRY) RELATIVE TO TOTAL VOLUME
 VDOL.V/V                                                  :15 VOLUME OF DOLOMITE RELATIVE TO TOTAL VOLUME
 VCLC.V/V                                                  :16 VOLUME OF CALCITE RELATIVE TO TOTAL VOLUME
  VCL.V/V                                                  :17 VOLUME OF CLAY TYPE MATERIAL RELATIVE TO TOTAL VOLUME
 VCAR.V/V                                                  :18 VOLUME FRACTION OF CARBONATE RELATIVE TO TOTAL VOLUME
 TOCH.OHMM                                                 :19 SUMMATION OF WEIGHT PERCENT TOC DECIMAL-FT
   SW.V/V                                                  :20 WATER SATURATION
   SP.MV                                                   :21 SPONTANEOUS POTENTIAL
 RPAH.OHMM                                                 :22 RESERVOIR HEIGHT (FT)
 RHOB.G/C3                                                 :23 BULK DENSITY
 PIGN.V/V                                                  :24 EFFECTIVE "POROSITY," "VISO," "VPAR," AND BOUND WATER REMOVED
 PHIT.V/V                                                  :25 TOTAL POROSITY_ INCLUDES ALL FORMS OF "POROSITY," INCLUDING THAT OCCUPIED BY BOUND "FLUIDS," AND IS INDEPENDENT OF ROCK AND FLUID MATERIALS AND OF ENVIRONMENTAL EFFECTS
  PEF.                                                     :26 PHOTOELECTRIC FACTOR
 NPHI.V/V                                                  :27 THERMAL NEUTRON POROSITY (ORIGINAL RATIO METHOD) IN SELECTED LITHOLOGY
 KINT.MD                                                   :28 INTRINSIC PERMEABILITY
   KH.OHMM                                                 :29 SUMMATION OF PERMEABILITY MD-FT
   GR.GAPI                                                 :30 GAMMA RAY
  GIP.                                                     :31 GAS IN PLACE BCF PER SQUARE MILE
 GASH.OHMM                                                 :32 SUMMATION OF GAS FILLED MATRIX POROSITY DECIMAL-FT
  DTT.US/F                                                 :33 THEORETICAL DT VALUE
 DPHI.V/V                                                  :34 DENSITY POROSITY
 CALI.IN                                                   :35 CALIPER
 AT90.OHMM                                                 :36 AIT TWO FOOT RESISTIVITY A90
 AT60.OHMM                                                 :37 AIT TWO FOOT RESISTIVITY A60
 AT30.OHMM                                                 :38 AIT TWO FOOT RESISTIVITY A30
 AT20.OHMM                                                 :39 AIT TWO FOOT RESISTIVITY A20
 AT10.OHMM                                                 :40 AIT TWO FOOT RESISTIVITY A10
~Ascii   DEPT         WTOC         WQUA         WPYR         WILL         WDOL         WCLC         WCAR         VXBW         VUWA         VUGA         VTOC         VQUA         VPYR         VILL         VDOL         VCLC          VCL         VCAR         TOCH           SW           SP         RPAH         RHOB         PIGN         PHIT          PEF         NPHI         KINT           KH           GR          GIP         GASH          DTT         DPHI         CALI         AT90         AT60         AT30         AT20         AT10																																						
	7800	0	0	0	0.03417	0.94059	0.02523	0	0.00836	0.00251	0	0	0	0	0.03344	0.92949	0.0262	0.0418	0	-999.25	1	-91.813	-999.25	2.832	0.00251	0.01087	3.318	0.021	0	-999.25	32.653	-999.25	-999.25	47.8451	-0.07135	7.542	32.481	46.519	80.223	101.617	137.31799
	7799.5	0	0	0	0.03198	0.96613	0.00189	0	0.00784	0.00235	0	0	0	0	0.03135	0.95649	0.00196	0.03919	0	-999.25	1	-94.2505	-999.25	2.8365	0.00235	0.01019	3.2765	0.022	0	-999.25	30.699	-999.25	-999.25	47.5319	-0.07398	7.542	35.9615	51.431	91.5795	122.039	180.808
	7799	0	0	0	0.02095	0.97905	0	0	0.00515	0.00155	0	0	0	0	0.02061	0.97269	0	0.02577	0	-999.25	1	-96.688	-999.25	2.841	0.00155	0.0067	3.235	0.023	0	-999.25	28.745	-999.25	-999.25	46.65684	-0.07661	7.542	39.442	56.343	102.936	142.461	224.298
	7798.5	0	0	0	0.0244	0.9756	0	0	0.00599	0.0018	0	0	0	0	0.02398	0.96823	0	0.02997	0	-999.25	1	-98.6565	-999.25	2.837	0.0018	0.00779	3.2325	0.0235	0	-999.25	29.94	-999.25	-999.25	46.92732	-0.07427	7.542	42.9585	61.168	118.4545	173.57449	280.78149
	7798	0	0	0	0.02553	0.97447	0	0	0.00626	0.00362	0	0	0	0	0.02504	0.96509	0	0.0313	0	-999.25	1	-100.625	-999.25	2.833	0.00362	0.00987	3.23	0.024	0	-999.25	31.135	-999.25	-999.25	47.28165	-0.07193	7.542	46.475	65.993	133.97301	204.688	337.26501
	7797.5	0	0	0	0.03429	0.96011	0.0056	0	0.0084	0.00252	0	0	0	0	0.03359	0.94967	0.00582	0.04199	0	-999.25	1	-102.1875	-999.25	2.833	0.00252	0.01092	3.2875	0.024	0	-999.25	29.2045	-999.25	-999.25	47.73479	-0.07193	7.542	48.8145	67.6335	137.12601	201.89	374.58151
	7797	0	0	0	0.02077	0.91998	0.05925	0	0.00509	0.00153	0	0	0	0	0.02038	0.91135	0.06166	0.02547	0	-999.25	1	-103.75	-999.25	2.833	0.00153	0.00662	3.345	0.024	0	-999.25	27.274	-999.25	-999.25	47.0076	-0.07193	7.542	51.154	69.274	140.27901	199.092	411.89801
	7796.5	0	0	0	0.00014	0.87937	0.12048	0	0.00003	0.00001	0	0	0	0	0.00014	0.87401	0.1258	0.00017	0	-999.25	1	-104.7815	-999.25	2.8385	0.0001	0.00013	3.399	0.023	0	-999.25	27.8775	-999.25	-999.25	45.76606	-0.07515	7.53	53.9935	72.6095	144.70351	201.48099	431.392
	7796	0	0	0	0.00001	0.84845	0.15154	0	0	0.00001	0	0	0	0	0.00001	0.84199	0.15799	0.00001	0	-999.25	1	-105.813	-999.25	2.844	0.0001	0.0001	3.453	0.022	0	-999.25	28.481	-999.25	-999.25	45.95004	-0.07836	7.518	56.833	75.945	149.12801	203.87	450.88599
	7795.5	0	0	0	0.00001	0.85471	0.14529	0	0	0.00001	0	0	0	0	0.00001	0.84846	0.15152	0.00001	0	-999.25	1	-107.188	-999.25	2.8415	0.0001	0.0001	3.4415	0.0225	0	-999.25	27.753	-999.25	-999.25	45.91119	-0.0769	7.4815	60.052	80.745	164.67999	228.53299	539.87598
	7795	0	0	0	0.00001	0.86121	0.13879	0	0	0.00001	0	0	0	0	0.00001	0.8552	0.14478	0.00001	0	-999.25	1	-108.563	-999.25	2.839	0.0001	0.0001	3.43	0.023	0	-999.25	27.025	-999.25	-999.25	45.8708	-0.07544	7.445	63.271	85.545	180.23199	253.196	628.86603
	7794.5	0	0	0	0.01091	0.85765	0.13144	0	0.00267	0.0008	0	0	0	0	0.0107	0.84912	0.13671	0.01337	0	-999.25	1	-109.969	-999.25	2.8285	0.0008	0.00348	3.4395	0.0215	0	-999.25	28.1405	-999.25	-999.25	46.67995	-0.0693	7.4935	66.0425	90.2645	194.3465	273.39249	736.9165
	7794	0	0	0	0.02958	0.85754	0.11288	0	0.00722	0.00216	0	0	0	0	0.02886	0.84491	0.11684	0.03608	0	-999.25	1	-111.375	-999.25	2.818	0.00216	0.00938	3.449	0.02	0	-999.25	29.256	-999.25	-999.25	48.0209	-0.06316	7.542	68.814	94.984	208.461	293.58899	844.96698
	7793.5	0	0	0	0.01949	0.89494	0.08557	0	0.00478	0.00143	0	0	0	0	0.0191	0.88572	0.08897	0.02388	0	-999.25	1	-112.5315	-999.25	2.8295	0.00143	0.00621	3.3845	0.0195	0	-999.25	27.69	-999.25	-999.25	47.06914	-0.06988	7.542	71.17551	100.4775	227.58551	301.27399	918.96545
	7793	0	0	0	0.0095	0.93202	0.05848	0	0.00234	0.0007	0	0	0	0	0.00935	0.92654	0.06107	0.01169	0	-999.25	1	-113.688	-999.25	2.841	0.0007	0.00304	3.32	0.019	0	-999.25	26.124	-999.25	-999.25	46.11807	-0.07661	7.542	73.537	105.971	246.71001	308.95901	992.96399
	7792.5	0	0	0	0.00001	0.931	0.06899	0	0	0.00001	0	0	0	0	0.00001	0.92776	0.07222	0.00001	0	-999.25	1	-114.594	-999.25	2.8615	0.0001	0.0001	3.308	0.018	0	-999.25	24.6595	-999.25	-999.25	45.43545	-0.0886	7.554	74.229	105.01649	243.0975	278.24551	861.88196
	7792	0	0	0	0.00001	0.95346	0.04653	0	0	0.00001	0	0	0	0	0.00001	0.95121	0.04877	0.00001	0	-999.25	1	-115.5	-999.25	2.882	0.0001	0.0001	3.296	0.017	0	-999.25	23.195	-999.25	-999.25	45.29472	-0.10058	7.566	74.921	104.062	239.485	247.532	730.79999
	7791.5	0	0	0	0.00001	0.96143	0.03856	0	0	0.00001	0	0	0	0	0.00001	0.95955	0.04043	0.00001	0	-999.25	1	-116.375	-999.25	2.876	0.0001	0.0001	3.28	0.014	0	-999.25	23.279	-999.25	-999.25	45.24468	-0.09708	7.578	72.9665	98.698	223.1465	239.48749	679.08148
	7791	0	0	0	0.00001	0.9694	0.03059	0	0	0.00001	0	0	0	0	0.00001	0.96789	0.03209	0.00001	0	-999.25	1	-117.25	-999.25	2.87	0.0001	0.0001	3.264	0.011	0	-999.25	23.363	-999.25	-999.25	45.19464	-0.09357	7.59	71.012	93.334	206.808	231.44299	627.36298
	7790.5	0	0	0	0.00001	0.97311	0.02688	0	0	0.00001	0	0	0	0	0.00001	0.97178	0.0282	0.00001	0	-999.25	1	-117.594	-999.25	2.866	0.0001	0.0001	3.2545	0.0135	0	-999.25	26.5	-999.25	-999.25	45.17132	-0.09123	7.578	66.0825	90.119	223.73151	241.02249	525.79846
	7790	0	0	0	0.00001	0.97682	0.02317	0	0	0.00001	0	0	0	0	0.00001	0.97566	0.02432	0.00001	0	-999.25	1	-117.938	-999.25	2.862	0.0001	0.0001	3.245	0.016	0	-999.25	29.637	-999.25	-999.25	45.14799	-0.08889	7.566	61.153	86.904	240.655	250.60201	424.23401
	7789.5	0	0	0	0.00014	0.92238	0.07748	0	0.00003	0.00001	0	0	0	0	0.00013	0.91874	0.08108	0.00017	0	-999.25	1	-118.5315	-999.25	2.8485	0.0001	0.00013	3.3295	0.02	0	-999.25	31.9735	-999.25	-999.25	45.4972	-0.08099	7.59	56.957	77.832	183.6235	196.5265	332.12152
	7789	0	0	0	0.01062	0.87258	0.11679	0	0.00261	0.00078	0	0	0	0	0.01042	0.86461	0.12158	0.01303	0	-999.25	1	-119.125	-999.25	2.835	0.00078	0.00339	3.414	0.024	0	-999.25	34.31	-999.25	-999.25	46.56737	-0.0731	7.614	52.761	68.76	126.592	142.451	240.009
	7788.5	0	0	0	0.05161	0.9337	0.0147	0	0.01256	0.00377	0	0	0	0	0.05026	0.91823	0.01518	0.06282	0	-999.25	1	-118.7815	-999.25	2.819	0.00377	0.01633	3.338	0.025	0	-999.25	30.6355	-999.25	-999.25	49.13042	-0.06374	7.59	51.907	66.32401	120.119	131.6705	229.17749
	7788	0	0	0	0.03854	0.96146	0	0	0.0093	0.01581	0	0	0	0	0.03722	0.93767	0	0.04652	0	-999.25	1	-118.438	-999.25	2.803	0.01581	0.02511	3.262	0.026	0	-999.25	26.961	-999.25	-999.25	50.00885	-0.05439	7.566	51.053	63.888	113.646	120.89	218.34599
	7787.5	0	0	0	0.03774	0.96226	0	0	0.00909	0.01849	0	0	0	0	0.03636	0.93607	0	0.04545	0	-999.25	1	-117.6565	-999.25	2.7985	0.01849	0.02757	3.2555	0.03	0.00001	-999.25	27.4405	-999.25	-999.25	50.36473	-0.05175	7.626	50.232	63.909	114.94	131.7305	274.25699
	7787	0	0	0	0.03694	0.96306	0	0	0.00887	0.02116	0	0	0	0	0.0355	0.93447	0	0.04437	0	-999.25	1	-116.875	-999.25	2.794	0.02116	0.03004	3.249	0.034	0.00003	-999.25	27.92	-999.25	-999.25	50.72053	-0.04912	7.686	49.411	63.93	116.234	142.571	330.168
	7786.5	0	0	0	0.06206	0.89589	0.04205	0	0.01452	0.03506	0.00396	0	0	0	0.05808	0.84663	0.04175	0.0726	0	-999.25	0.89852	-114.75	-999.25	2.7395	0.03902	0.05354	3.3675	0.034	0.00036	-999.25	31.057	-999.25	-999.25	55.41043	-0.01725	7.795	48.7405	62.7345	116.2165	146.45599	373.6185
	7786	0	0	0	0.06099	0.81643	0.12258	0	0.01399	0.03379	0.02052	0	0	0	0.05596	0.75642	0.11931	0.06995	0	-999.25	0.62217	-112.625	-999.25	2.685	0.05432	0.06831	3.486	0.034	0.00099	-999.25	34.194	-999.25	-999.25	58.59774	0.01462	7.904	48.07	61.539	116.199	150.341	417.069
	7785.5	0	0	0	0.05378	0.82014	0.12608	0	0.01249	0.03561	0.00842	0	0	0	0.04995	0.76929	0.12424	0.06244	0	-999.25	0.80874	-110.25	-999.25	2.718	0.04403	0.05652	3.4775	0.0345	0.00055	-999.25	32.3405	-999.25	-999.25	56.25707	-0.00468	7.8555	48.979	60.6195	126.42751	165.27951	394.59601
	7785	0	0	0	0.04734	0.8278	0.12487	0	0.01115	0.03204	0	0	0	0	0.04459	0.78744	0.12478	0.05574	0	-999.25	1	-107.875	-999.25	2.751	0.03204	0.04319	3.469	0.035	0.00017	-999.25	30.487	-999.25	-999.25	53.78009	-0.02398	7.807	49.888	59.7	136.65601	180.218	372.12299
	7784.5	0	0	0	0.05877	0.88767	0.05356	0	0.01396	0.02423	0	0	0	0	0.05586	0.85194	0.054	0.06982	0	-999.25	1	-106.3125	-999.25	2.7705	0.02423	0.0382	3.3915	0.032	0.00003	-999.25	30.8915	-999.25	-999.25	52.92045	-0.03538	7.753	46.953	59.4695	125.453	168.9425	358.19348
