~Version	Information								
 VERS.        2.00                                         :CWLS Log Ascii Standard - Version 2
 WRAP.        NO                                           :One line per depth step
~Well	Information	Block							
 #MNEM.UNIT	Data	Type	Information						
 #---------	---------	-------------------------------							
 STRT.F       7800.00000                                                                                     :START DEPTH
 STOP.F       6680.00000                                                                                     :STOP DEPTH
 STEP.F       -0.50000                                                                                       :INCREMENT
 NULL.        -999.25000                                                                                     :NULL DATA VALUE
 COMP.                                                                                                       :COMPANY
 WELL.        Dollie Thorell A4                                                                              :WELL
  FLD.        Wise County                                                                                    :FIELD
  LOC.                                                                                                       :LOCATION
 PROV.                                                                                                       :PROVINCE
 STAT.                                                                                                       :STATE
 CNTY.                                                                                                       :COUNTY
 CTRY.                                                                                                       :COUNTRY
 DATE.                                                                                                       :DATE
  UWI.        4249735151                                                                                     :UNIQUE WELL UWI
  LIC.                                                                                                       :LICENSE NUMBER
  API.        4249735151                                                                                     :API NUMBER
 SRVC.        SLB                                                                                            :SERVICE COMPANY
~Parameter	Information	Block						
#MNEM.UNIT    VALUE                                        :DESCRIPTION
#----.----    ---------------                              :-------------------
~Curve	Information	Block						
#MNEM.UNIT    VALUE                                        :DESCRIPTION
#----.----    ---------------                              :-------------------
 DEPT.F       00 001 00 00                                 :Depth Index
 WTOC.LBF/LBF                                              :1 WEIGHT PERCENT OF TOTAL ORGANIC CARBON
 WQUA.LBF/LBF                                              :2 WEIGHT PERCENT OF QUARTZ
 WPYR.LBF/LBF                                              :3 WEIGHT PERCENT OF PYRITE
 WILL.LBF/LBF                                              :4 WEIGHT PERCENT OF ILLITE
 WDOL.LBF/LBF                                              :5 WEIGHT PERCENT OF DOLOMITE
 WCLC.LBF/LBF                                              :6 WEIGHT PERCENT OF CALCITE
 WCAR.LBF/LBF                                              :7 WEIGHT PERCENT OF CARBONATE
 VXBW.V/V                                                  :8 VOLUME OF BOUND WATER IN FLUSHED ZONE
 VUWA.V/V                                                  :9 VOLUME OF WATER IN UNDISTURBED ZONE
 VUGA.V/V                                                  :10 VOLUME OF GAS IN UNDISTURBED ZONE
 VTOC.V/V                                                  :11 VOLUME OF TOTAL ORGANIC CARBON
 VQUA.V/V                                                  :12 VOLUME OF QUARTZ RELATIVE TO TOTAL VOLUME
 VPYR.V/V                                                  :13 VOLUME OF PYRITE RELATIVE TO TOTAL VOLUME
 VILL.V/V                                                  :14 VOLUME OF ILLITE (DRY) RELATIVE TO TOTAL VOLUME
 VDOL.V/V                                                  :15 VOLUME OF DOLOMITE RELATIVE TO TOTAL VOLUME
 VCLC.V/V                                                  :16 VOLUME OF CALCITE RELATIVE TO TOTAL VOLUME
  VCL.V/V                                                  :17 VOLUME OF CLAY TYPE MATERIAL RELATIVE TO TOTAL VOLUME
 VCAR.V/V                                                  :18 VOLUME FRACTION OF CARBONATE RELATIVE TO TOTAL VOLUME
 TOCH.OHMM                                                 :19 SUMMATION OF WEIGHT PERCENT TOC DECIMAL-FT
   SW.V/V                                                  :20 WATER SATURATION
   SP.MV                                                   :21 SPONTANEOUS POTENTIAL
 RPAH.OHMM                                                 :22 RESERVOIR HEIGHT (FT)
 RHOB.G/C3                                                 :23 BULK DENSITY
 PIGN.V/V                                                  :24 EFFECTIVE "POROSITY," "VISO," "VPAR," AND BOUND WATER REMOVED
 PHIT.V/V                                                  :25 TOTAL POROSITY_ INCLUDES ALL FORMS OF "POROSITY," INCLUDING THAT OCCUPIED BY BOUND "FLUIDS," AND IS INDEPENDENT OF ROCK AND FLUID MATERIALS AND OF ENVIRONMENTAL EFFECTS
  PEF.                                                     :26 PHOTOELECTRIC FACTOR
 NPHI.V/V                                                  :27 THERMAL NEUTRON POROSITY (ORIGINAL RATIO METHOD) IN SELECTED LITHOLOGY
 KINT.MD                                                   :28 INTRINSIC PERMEABILITY
   KH.OHMM                                                 :29 SUMMATION OF PERMEABILITY MD-FT
   GR.GAPI                                                 :30 GAMMA RAY
  GIP.                                                     :31 GAS IN PLACE BCF PER SQUARE MILE
 GASH.OHMM                                                 :32 SUMMATION OF GAS FILLED MATRIX POROSITY DECIMAL-FT
  DTT.US/F                                                 :33 THEORETICAL DT VALUE
 DPHI.V/V                                                  :34 DENSITY POROSITY
 CALI.IN                                                   :35 CALIPER
 AT90.OHMM                                                 :36 AIT TWO FOOT RESISTIVITY A90
 AT60.OHMM                                                 :37 AIT TWO FOOT RESISTIVITY A60
 AT30.OHMM                                                 :38 AIT TWO FOOT RESISTIVITY A30
 AT20.OHMM                                                 :39 AIT TWO FOOT RESISTIVITY A20
 AT10.OHMM                                                 :40 AIT TWO FOOT RESISTIVITY A10
~Ascii   DEPT         WTOC         WQUA         WPYR         WILL         WDOL         WCLC         WCAR         VXBW         VUWA         VUGA         VTOC         VQUA         VPYR         VILL         VDOL         VCLC          VCL         VCAR         TOCH           SW           SP         RPAH         RHOB         PIGN         PHIT          PEF         NPHI         KINT           KH           GR          GIP         GASH          DTT         DPHI         CALI         AT90         AT60         AT30         AT20         AT10																																						
# ...
	7088.5	0.04601	0.56612	0.02587	0.30568	0	0	0.05631	0.06144	0.0215	0.03956	0.06647	0.49375	0.02	0.24575	0	0	0.30718	0.04665	16.62994	0.32604	-24.3125	276.5	2.5	0.06595	0.12739	3.0445	0.1715	0.00025	0.06885	118.123	134.55	15.01407	84.96266	0.12281	8.012	25.1005	25.879	26.7215	28.0665	29.9275
	7088	0.04318	0.55169	0.02581	0.2946	0	0	0.08472	0.05936	0.02078	0.04235	0.06254	0.48242	0.02	0.23745	0	0	0.29682	0.07036	16.65153	0.30619	-24.125	277	2.5	0.06786	0.12722	3.085	0.161	0.00026	0.06898	110.134	134.73427	15.03525	84.422	0.12281	8	24.918	25.77	26.621	28.038	29.822
	7087.5	0.0413	0.54673	0.02575	0.28397	0	0	0.10225	0.05735	0.02007	0.04427	0.05995	0.47915	0.02	0.2294	0	0	0.28675	0.08512	16.67218	0.29075	-23.8125	277.5	2.5015	0.06904	0.12638	3.0965	0.168	0.00026	0.06911	104.883	134.92215	15.05738	83.91695	0.12193	8	26.4215	27.2905	28.391	29.89	32.058
	7087	0.03943	0.54171	0.02569	0.27345	0	0	0.11972	0.05535	0.01937	0.0462	0.05736	0.47581	0.02	0.22138	0	0	0.27673	0.09988	16.69189	0.27589	-23.5	278	2.503	0.07021	0.12556	3.108	0.175	0.00025	0.06923	99.632	135.11363	15.08048	83.41415	0.12105	8	27.925	28.811	30.161	31.742	34.294
	7086.5	0.03876	0.55023	0.02565	0.26979	0	0	0.11556	0.05468	0.01914	0.04575	0.05646	0.48398	0.02	0.21874	0	0	0.27342	0.09655	16.71127	0.27505	-23.0315	278.5	2.5065	0.06959	0.12427	3.0835	0.1775	0.00025	0.06936	98.8525	135.30295	15.10336	83.10152	0.11901	8.006	29.206	30.1745	31.572	33.3845	36.6935
	7086	0.03809	0.55873	0.02562	0.26618	0	0	0.11139	0.05403	0.01891	0.0453	0.05556	0.49215	0.02	0.21611	0	0	0.27014	0.09319	16.73032	0.27422	-22.563	279	2.51	0.06896	0.12299	3.059	0.18	0.00026	0.06949	98.073	135.49008	15.12601	82.79031	0.11696	8.012	30.487	31.538	32.983	35.027	39.093
	7085.5	0.04123	0.57613	0.02576	0.27634	0	0	0.08054	0.05579	0.01953	0.04513	0.05982	0.50474	0.02	0.22315	0	0	0.27894	0.06702	16.75093	0.28102	-22.219	279.5	2.5015	0.06948	0.12527	3.0115	0.1755	0.00028	0.06963	103.4435	135.68042	15.14857	83.72995	0.12193	8.018	29.5355	30.526	32.0395	33.9635	37.676
	7085	0.0444	0.59373	0.0259	0.28662	0	0	0.04934	0.05755	0.02014	0.04496	0.06408	0.51733	0.02	0.2302	0	0	0.28775	0.04083	16.77313	0.28773	-21.875	280	2.493	0.07	0.12755	2.964	0.171	0.0003	0.06978	108.814	135.87396	15.17105	84.67014	0.1269	8.024	28.584	29.514	31.096	32.9	36.259
	7084.5	0.0404	0.58878	0.02576	0.28033	0	0	0.06474	0.0566	0.01981	0.04397	0.05862	0.51587	0.02	0.22639	0	0	0.28299	0.05388	16.79333	0.28861	-21.5315	280.5	2.5035	0.06864	0.12524	2.982	0.172	0.00029	0.06992	102.8215	136.05972	15.19304	83.71129	0.12076	8.012	26.944	27.7265	28.8955	30.448	33.4165
	7084	0.03643	0.58388	0.02561	0.27416	0	0	0.07991	0.05566	0.01948	0.04298	0.05316	0.51441	0.02	0.22263	0	0	0.27829	0.06687	16.81155	0.28959	-21.188	281	2.514	0.06727	0.12293	3	0.173	0.00027	0.07006	96.829	136.23767	15.21453	82.75489	0.11462	8	25.304	25.939	26.695	27.996	30.574
	7083.5	0.03038	0.55067	0.02513	0.2584	0	0	0.13541	0.05347	0.01871	0.03448	0.04519	0.49449	0.02	0.21388	0	0	0.26735	0.1155	16.82674	0.32564	-20.938	281.5	2.5445	0.05747	0.11094	3.1105	0.1635	0.00016	0.07014	92.6385	136.38252	15.23177	79.70454	0.09678	8	28.404	29.0385	30.3305	32.085	33.954
	7083	0.02456	0.51876	0.02466	0.24341	0	0	0.1886	0.05132	0.01796	0.02596	0.03722	0.47463	0.02	0.20527	0	0	0.25659	0.16389	16.83902	0.37679	-20.688	282	2.575	0.04767	0.09899	3.221	0.154	0.00005	0.07016	88.448	136.49428	15.24475	76.66292	0.07895	8	31.504	32.138	33.966	36.174	37.334
	7082.5	0.02408	0.49831	0.02455	0.23487	0	0	0.21819	0.04975	0.01741	0.02493	0.03667	0.45811	0.02	0.19902	0	0	0.24877	0.19052	16.85106	0.37911	-20.344	282.5	2.581	0.04593	0.09569	3.2775	0.152	0.00004	0.07018	88.368	136.60239	15.25721	75.86677	0.07544	8	37.033	37.905	40.007	42.9515	44.5705
	7082	0.02361	0.47807	0.02443	0.2267	0	0	0.24719	0.04825	0.01689	0.02388	0.03612	0.44157	0.02	0.193	0	0	0.24125	0.21686	16.86286	0.3821	-20	282.5	2.587	0.0442	0.09245	3.334	0.15	0.00002	0.07019	88.288	136.70674	15.26915	75.08474	0.07193	8	42.562	43.672	46.048	49.729	51.807
	7081.5	0.03193	0.5434	0.02503	0.2427	0	0	0.15694	0.05042	0.01765	0.03404	0.04767	0.48989	0.02	0.20167	0	0	0.25209	0.13438	16.87883	0.31533	-19.6565	283	2.5495	0.05596	0.10638	3.1175	0.158	0.00014	0.07026	95.896	136.85233	15.28618	78.91939	0.09386	8.012	41.551	42.486	44.714	48.3475	50.808
	7081	0.04066	0.61198	0.02566	0.25946	0	0	0.06223	0.05258	0.0184	0.04421	0.05923	0.53817	0.02	0.21031	0	0	0.26289	0.05198	16.89916	0.27172	-19.313	283.5	2.512	0.06773	0.1203	2.901	0.166	0.0003	0.07042	103.504	137.03918	15.30828	82.75228	0.11579	8.024	40.54	41.3	43.38	46.966	49.809
	7080.5	0.04428	0.65736	0.02591	0.27245	0	0	0	0.05469	0.01914	0.04574	0.06389	0.5726	0.02	0.21874	0	0	0.27343	0	16.9213	0.27309	-19.1565	284	2.495	0.07009	0.12477	2.776	0.164	0.00031	0.07057	106.921	137.23483	15.33115	84.23578	0.12573	8.012	36.1395	36.962	39.005	41.9795	44.657
	7080	0.04782	0.64141	0.02607	0.28469	0	0	0	0.05678	0.01987	0.04766	0.06854	0.55512	0.02	0.22711	0	0	0.28389	0	16.94521	0.27429	-19	284.5	2.478	0.07245	0.12923	2.651	0.162	0.0003	0.07072	110.338	137.44048	15.35498	85.4935	0.13567	8	31.739	32.624	34.63	36.993	39.505
	7079.5	0.04726	0.63626	0.02604	0.29044	0	0	0	0.05799	0.0203	0.04561	0.06782	0.55133	0.02	0.23198	0	0	0.28997	0	16.96884	0.28636	-18.875	285	2.4835	0.07088	0.12888	2.6925	0.171	0.0003	0.07087	112.014	137.63922	15.37779	85.41547	0.13246	8.012	29.594	30.6995	31.6915	33.6565	35.7385
	7079	0.0467	0.63103	0.02601	0.29626	0	0	0	0.05923	0.02073	0.04355	0.0671	0.54745	0.02	0.23691	0	0	0.29614	0	16.99219	0.29906	-18.75	285.5	2.489	0.06932	0.12854	2.734	0.18	0.00029	0.07102	113.69	137.83107	15.39957	85.34098	0.12924	8.024	27.449	28.775	28.753	30.32	31.972
	7078.5	0.04552	0.6331	0.02602	0.29536	0	0	0	0.05902	0.02066	0.04481	0.06537	0.549	0.02	0.23608	0	0	0.2951	0	17.01495	0.2929	-18.5625	286	2.4875	0.07053	0.12954	2.8325	0.1755	0.0003	0.07117	110.18201	138.02525	15.42197	85.36087	0.13012	8.012	25.731	26.9075	27.0825	28.639	29.9165
	7078	0.04427	0.60806	0.026	0.29398	0	0	0.02769	0.0588	0.02058	0.04623	0.06364	0.52779	0.02	0.2352	0	0	0.29401	0.02283	17.03708	0.2869	-18.375	286.5	2.486	0.07173	0.13054	2.931	0.171	0.0003	0.07132	106.674	138.22231	15.44509	85.28094	0.13099	8	24.013	25.04	25.412	26.958	27.861
	7077.5	0.03765	0.56665	0.02565	0.27628	0	0	0.09377	0.05601	0.0196	0.04403	0.05486	0.49854	0.02	0.22405	0	0	0.28007	0.07836	17.0559	0.28757	-17.9375	287	2.5055	0.06817	0.12419	3.053	0.161	0.00027	0.07145	96.92751	138.40486	15.4671	83.08758	0.11959	8.012	24.5255	25.4885	26.178	27.849	28.611
	7077	0.03119	0.52531	0.02531	0.25902	0	0	0.15917	0.05322	0.01863	0.04177	0.04607	0.4684	0.02	0.21289	0	0	0.26611	0.13481	17.0715	0.28829	-17.5	287.5	2.525	0.06461	0.11784	3.175	0.151	0.00019	0.07154	87.181	138.5728	15.48798	80.88764	0.10819	8.024	25.038	25.937	26.944	28.74	29.361
	7076.5	0.03158	0.53385	0.02531	0.26115	0	0	0.14812	0.05366	0.01878	0.04043	0.04664	0.47606	0.02	0.21465	0	0	0.26831	0.12546	17.08729	0.2956	-16.875	288	2.5275	0.06354	0.1172	3.151	0.156	0.00019	0.07164	89.31	138.73714	15.5082	80.88045	0.10673	8.03	25.3595	25.9145	27.624	29.326	30.3575
	7076	0.03196	0.54326	0.02531	0.26335	0	0	0.13613	0.05412	0.01894	0.03919	0.04721	0.48445	0.02	0.21646	0	0	0.27058	0.1153	17.10327	0.30323	-16.25	288.5	2.53	0.06246	0.11658	3.127	0.161	0.0002	0.07174	91.439	138.89816	15.52779	80.88219	0.10526	8.036	25.681	25.892	28.304	29.912	31.354
	7075.5	0.03745	0.55842	0.02562	0.27434	0	0	0.10418	0.05569	0.01949	0.04387	0.05463	0.49189	0.02	0.22274	0	0	0.27843	0.08716	17.122	0.28709	-15.594	289	2.5075	0.06789	0.12357	3.0745	0.16	0.00026	0.07187	97.0005	139.08002	15.54973	82.91022	0.11842	8.03	25.349	25.655	27.4395	29.1505	30.923
	7075	0.04307	0.57401	0.02594	0.28561	0	0	0.07137	0.05726	0.02004	0.04855	0.06206	0.49937	0.02	0.22903	0	0	0.28628	0.05897	17.14353	0.27335	-14.938	289.5	2.485	0.07331	0.13057	3.022	0.159	0.00028	0.07201	102.562	139.28273	15.574	84.93835	0.13158	8.024	25.017	25.418	26.575	28.389	30.492
	7074.5	0.04289	0.57381	0.02591	0.28524	0	0	0.07216	0.05725	0.02004	0.04754	0.06187	0.49982	0.02	0.22902	0	0	0.28627	0.05971	17.16497	0.27704	-14.844	290	2.4885	0.07233	0.12959	3.022	0.1525	0.00028	0.07215	103.45399	139.48216	15.59777	84.74678	0.12953	8.024	25.6195	26.2605	27.8685	29.4705	31.814
