~Version	Information								
 VERS.        2.00                                         :CWLS Log Ascii Standard - Version 2
 WRAP.        NO                                           :One line per depth step
~Well	Information	Block							
 #MNEM.UNIT	Data	Type	Information						
 #---------	---------	-------------------------------							
 STRT.F       7800.00000                                                                                     :START DEPTH
 STOP.F       6680.00000                                                                                     :STOP DEPTH
 STEP.F       -0.50000                                                                                       :INCREMENT
 NULL.        -999.25000                                                                                     :NULL DATA VALUE
 COMP.                                                                                                       :COMPANY
 WELL.        Dollie Thorell A4                                                                              :WELL
  FLD.        Wise County                                                                                    :FIELD
  LOC.                                                                                                       :LOCATION
 PROV.                                                                                                       :PROVINCE
 STAT.                                                                                                       :STATE
 CNTY.                                                                                                       :COUNTY
 CTRY.                                                                                                       :COUNTRY
 DATE.                                                                                                       :DATE
  UWI.        4249735151                                                                                     :UNIQUE WELL UWI
  LIC.                                                                                                       :LICENSE NUMBER
  API.        4249735151                                                                                     :API NUMBER
 SRVC.        SLB                                                                                            :SERVICE COMPANY
~Parameter	Information	Block						
#MNEM.UNIT    VALUE                                        :DESCRIPTION
#----.----    ---------------                              :-------------------
~Curve	Information	Block						
#MNEM.UNIT    VALUE                                        :DESCRIPTION
#----.----    ---------------                              :-------------------
 DEPT.F       00 001 00 00                                 :Depth Index
 WTOC.LBF/LBF                                              :1 WEIGHT PERCENT OF TOTAL ORGANIC CARBON
 WQUA.LBF/LBF                                              :2 WEIGHT PERCENT OF QUARTZ
 WPYR.LBF/LBF                                              :3 WEIGHT PERCENT OF PYRITE
 WILL.LBF/LBF                                              :4 WEIGHT PERCENT OF ILLITE
 WDOL.LBF/LBF                                              :5 WEIGHT PERCENT OF DOLOMITE
 WCLC.LBF/LBF                                              :6 WEIGHT PERCENT OF CALCITE
 WCAR.LBF/LBF                                              :7 WEIGHT PERCENT OF CARBONATE
 VXBW.V/V                                                  :8 VOLUME OF BOUND WATER IN FLUSHED ZONE
 VUWA.V/V                                                  :9 VOLUME OF WATER IN UNDISTURBED ZONE
 VUGA.V/V                                                  :10 VOLUME OF GAS IN UNDISTURBED ZONE
 VTOC.V/V                                                  :11 VOLUME OF TOTAL ORGANIC CARBON
 VQUA.V/V                                                  :12 VOLUME OF QUARTZ RELATIVE TO TOTAL VOLUME
 VPYR.V/V                                                  :13 VOLUME OF PYRITE RELATIVE TO TOTAL VOLUME
 VILL.V/V                                                  :14 VOLUME OF ILLITE (DRY) RELATIVE TO TOTAL VOLUME
 VDOL.V/V                                                  :15 VOLUME OF DOLOMITE RELATIVE TO TOTAL VOLUME
 VCLC.V/V                                                  :16 VOLUME OF CALCITE RELATIVE TO TOTAL VOLUME
  VCL.V/V                                                  :17 VOLUME OF CLAY TYPE MATERIAL RELATIVE TO TOTAL VOLUME
 VCAR.V/V                                                  :18 VOLUME FRACTION OF CARBONATE RELATIVE TO TOTAL VOLUME
 TOCH.OHMM                                                 :19 SUMMATION OF WEIGHT PERCENT TOC DECIMAL-FT
   SW.V/V                                                  :20 WATER SATURATION
   SP.MV                                                   :21 SPONTANEOUS POTENTIAL
 RPAH.OHMM                                                 :22 RESERVOIR HEIGHT (FT)
 RHOB.G/C3                                                 :23 BULK DENSITY
 PIGN.V/V                                                  :24 EFFECTIVE "POROSITY," "VISO," "VPAR," AND BOUND WATER REMOVED
 PHIT.V/V                                                  :25 TOTAL POROSITY_ INCLUDES ALL FORMS OF "POROSITY," INCLUDING THAT OCCUPIED BY BOUND "FLUIDS," AND IS INDEPENDENT OF ROCK AND FLUID MATERIALS AND OF ENVIRONMENTAL EFFECTS
  PEF.                                                     :26 PHOTOELECTRIC FACTOR
 NPHI.V/V                                                  :27 THERMAL NEUTRON POROSITY (ORIGINAL RATIO METHOD) IN SELECTED LITHOLOGY
 KINT.MD                                                   :28 INTRINSIC PERMEABILITY
   KH.OHMM                                                 :29 SUMMATION OF PERMEABILITY MD-FT
   GR.GAPI                                                 :30 GAMMA RAY
  GIP.                                                     :31 GAS IN PLACE BCF PER SQUARE MILE
 GASH.OHMM                                                 :32 SUMMATION OF GAS FILLED MATRIX POROSITY DECIMAL-FT
  DTT.US/F                                                 :33 THEORETICAL DT VALUE
 DPHI.V/V                                                  :34 DENSITY POROSITY
 CALI.IN                                                   :35 CALIPER
 AT90.OHMM                                                 :36 AIT TWO FOOT RESISTIVITY A90
 AT60.OHMM                                                 :37 AIT TWO FOOT RESISTIVITY A60
 AT30.OHMM                                                 :38 AIT TWO FOOT RESISTIVITY A30
 AT20.OHMM                                                 :39 AIT TWO FOOT RESISTIVITY A20
 AT10.OHMM                                                 :40 AIT TWO FOOT RESISTIVITY A10
~Ascii   DEPT         WTOC         WQUA         WPYR         WILL         WDOL         WCLC         WCAR         VXBW         VUWA         VUGA         VTOC         VQUA         VPYR         VILL         VDOL         VCLC          VCL         VCAR         TOCH           SW           SP         RPAH         RHOB         PIGN         PHIT          PEF         NPHI         KINT           KH           GR          GIP         GASH          DTT         DPHI         CALI         AT90         AT60         AT30         AT20         AT10																																						
# ...
	7650.5	0	0	0	0.00001	0.13388	0.86611	0	0	0.00001	0	0	0	0	0.00001	0.12826	0.87172	0.00001	0	-999.25	1	3.813	-999.25	2.7645	0.0001	0.0001	4.5855	0.066	0	-999.25	60.7815	-999.25	-999.25	50.2324	-0.03187	8.163	31.77	33.453	36.007	38.481	44.6565
	7650	0	0	0	0.00001	0.15525	0.84474	0	0	0.00001	0	0	0	0	0.00001	0.14889	0.85109	0.00001	0	-999.25	1	3.438	-999.25	2.753	0.0001	0.0001	4.547	0.074	0	-999.25	69.369	-999.25	-999.25	50.10862	-0.02515	8.145	27.235	28.272	29.206	30.602	39.079
	7649.5	0	0	0	0.00001	0.14696	0.85303	0	0	0.00001	0	0	0	0	0.00001	0.14088	0.8591	0.00001	0	-999.25	1	3.2505	-999.25	2.747	0.0001	0.0001	4.565	0.0615	0	-999.25	59.443	-999.25	-999.25	50.15668	-0.02164	8.0965	32.6805	33.547	34.7405	37.031	44.181
	7649	0	0	0	0.00001	0.13866	0.86133	0	0	0.00001	0	0	0	0	0.00001	0.13287	0.86711	0.00001	0	-999.25	1	3.063	-999.25	2.741	0.0001	0.0001	4.583	0.049	0	-999.25	49.517	-999.25	-999.25	50.20475	-0.01813	8.048	38.126	38.822	40.275	43.46	49.283
	7648.5	0	0	0	0.00001	0.09272	0.90727	0	0	0.00001	0	0	0	0	0.00001	0.08865	0.91133	0.00001	0	-999.25	1	2.4065	-999.25	2.75	0.0001	0.0001	4.6605	0.043	0	-999.25	41.1975	-999.25	-999.25	50.47008	-0.02339	8.042	55.773	55.9885	61.4685	67.772	75.7095
	7648	0	0	0	0.00001	0.04657	0.95342	0	0	0.00001	0	0	0	0	0.00001	0.04443	0.95555	0.00001	0	-999.25	1	1.75	-999.25	2.759	0.0001	0.0001	4.738	0.037	0	-999.25	32.878	-999.25	-999.25	50.73541	-0.02865	8.036	73.42	73.155	82.662	92.084	102.136
	7647.5	0	0	0	0.00001	0.02697	0.97302	0	0	0.00001	0	0	0	0	0.00001	0.02571	0.97427	0.00001	0	-999.25	1	1.375	-999.25	2.7565	0.0001	0.0001	4.7675	0.0395	0	-999.25	36.2965	-999.25	-999.25	50.84772	-0.02719	8.042	82.3395	80.805	91.886	99.5235	108.5595
	7647	0	0	0	0.00001	0.00734	0.99265	0	0	0.00001	0	0	0	0	0.00001	0.00699	0.99299	0.00001	0	-999.25	1	1	-999.25	2.754	0.0001	0.0001	4.797	0.042	0	-999.25	39.715	-999.25	-999.25	50.96004	-0.02573	8.048	91.259	88.455	101.11	106.963	114.983
	7646.5	0	0	0	0.00001	0.01348	0.98651	0	0	0.00001	0	0	0	0	0.00001	0.01284	0.98714	0.00001	0	-999.25	1	1.0625	-999.25	2.7255	0.0001	0.0001	4.7825	0.055	0	-999.25	52.0885	-999.25	-999.25	50.92492	-0.00906	8.048	65.827	64.2435	71.33	76.1715	86.414
	7646	0	0	0	0.02258	0.01982	0.95761	0	0.00527	0.00626	0	0	0	0	0.02108	0.01869	0.9487	0.02635	0	-999.25	1	1.125	-999.25	2.697	0.00626	0.01153	4.768	0.068	0	-999.25	64.462	-999.25	-999.25	53.11156	0.0076	8.048	40.395	40.032	41.55	45.38	57.845
	7645.5	0	0	0	0.05647	0.11541	0.82812	0	0.01316	0.00653	0	0	0	0	0.05265	0.10864	0.81902	0.06581	0	-999.25	1	1.719	-999.25	2.7005	0.00653	0.01969	4.631	0.0725	0	-999.25	69.2575	-999.25	-999.25	54.54589	0.00556	8.048	35.097	34.939	36.134	39.1365	48.027
	7645	0	0	0	0.09071	0.21141	0.69788	0	0.0211	0.0068	0	0	0	0	0.08441	0.19867	0.68901	0.10552	0	-999.25	1	2.313	-999.25	2.704	0.0068	0.0279	4.494	0.077	0	-999.25	74.053	-999.25	-999.25	55.9916	0.00351	8.048	29.799	29.846	30.718	32.893	38.209
	7644.5	0	0	0	0.08339	0.20526	0.71135	0	0.01944	0.00583	0	0	0	0	0.07776	0.19328	0.7037	0.0972	0	-999.25	1	2.4065	-999.25	2.707	0.00583	0.02527	4.502	0.0695	0	-999.25	72.691	-999.25	-999.25	55.47191	0.00175	8.036	26.318	26.4585	27.4045	29.2555	33.5325
	7644	0	0	0	0.07434	0.19814	0.72753	0	0.01736	0.00521	0	0	0	0	0.06945	0.18693	0.72106	0.08681	0	-999.25	1	2.5	-999.25	2.71	0.00521	0.02257	4.51	0.062	0	-999.25	71.329	-999.25	-999.25	54.90813	0	8.024	22.837	23.071	24.091	25.618	28.856
	7643.5	0	0	0	0.05763	0.13644	0.80593	0	0.01342	0.00798	0	0	0	0	0.05369	0.12836	0.79655	0.06712	0	-999.25	1	3	-999.25	2.7005	0.00798	0.0214	4.596	0.0625	0	-999.25	68.4295	-999.25	-999.25	54.70749	0.00556	7.988	29.4275	29.893	31.7305	32.8685	36.501
	7643	0	0	0	0.03624	0.07178	0.89198	0	0.00841	0.01165	0	0	0	0	0.03366	0.06733	0.87895	0.04207	0	-999.25	1	3.5	-999.25	2.691	0.01165	0.02006	4.682	0.063	0	-999.25	65.53	-999.25	-999.25	54.39296	0.01111	7.952	36.018	36.715	39.37	40.119	44.146
	7642.5	0	0	0	0.06224	0.15361	0.78415	0	0.01449	0.00827	0	0	0	0	0.05797	0.14448	0.77479	0.07246	0	-999.25	1	3.625	-999.25	2.701	0.00827	0.02276	4.5705	0.0705	0	-999.25	68.9095	-999.25	-999.25	54.91564	0.00526	7.988	33.438	33.872	36.3215	37.023	43.428
	7642	0	0	0	0.08318	0.23228	0.68454	0	0.01942	0.00583	0	0	0	0	0.07767	0.21901	0.67808	0.09709	0	-999.25	1	3.75	-999.25	2.711	0.00583	0.02524	4.459	0.078	0	-999.25	72.289	-999.25	-999.25	55.31104	-0.00058	8.024	30.858	31.029	33.273	33.927	42.71
	7641.5	0	0	0	0.06907	0.30527	0.62566	0	0.01624	0.00487	0	0	0	0	0.06495	0.28985	0.62409	0.08118	0	-999.25	1	3.3125	-999.25	2.728	0.00487	0.02111	4.3385	0.075	0	-999.25	68.71201	-999.25	-999.25	53.96463	-0.01053	8.036	32.1495	32.09	34.0875	35.3545	44.641
	7641	0	0	0	0.05517	0.37726	0.56757	0	0.01306	0.00392	0	0	0	0	0.05224	0.3607	0.57009	0.06529	0	-999.25	1	2.875	-999.25	2.745	0.00392	0.01698	4.218	0.072	0	-999.25	65.135	-999.25	-999.25	52.61897	-0.02047	8.048	33.441	33.151	34.902	36.782	46.572
	7640.5	0	0	0	0.00014	0.29167	0.70819	0	0.00003	0.00001	0	0	0	0	0.00013	0.28158	0.71825	0.00017	0	-999.25	1	1.7815	-999.25	2.758	0.0001	0.00013	4.3335	0.057	0	-999.25	55.422	-999.25	-999.25	49.3202	-0.02807	8	38.133	37.888	40.373	42.4815	54.655
	7640	0	0	0	0.00001	0.22411	0.77588	0	0	0.00001	0	0	0	0	0.00001	0.21565	0.78433	0.00001	0	-999.25	1	0.688	-999.25	2.771	0.0001	0.0001	4.449	0.042	0	-999.25	45.709	-999.25	-999.25	49.70809	-0.03567	7.952	42.825	42.625	45.844	48.181	62.738
	7639.5	0	0	0	0.00001	0.15519	0.84481	0	0	0.00001	0	0	0	0	0.00001	0.14883	0.85115	0.00001	0	-999.25	1	-0.375	-999.25	2.757	0.0001	0.0001	4.563	0.035	0	-999.25	37.96	-999.25	-999.25	50.10902	-0.02749	7.964	77.7485	75.55251	89.7505	92.3185	106.40649
	7639	0	0	0	0.00001	0.08592	0.91407	0	0	0.00001	0	0	0	0	0.00001	0.08213	0.91785	0.00001	0	-999.25	1	-1.438	-999.25	2.743	0.0001	0.0001	4.677	0.028	0	-999.25	30.211	-999.25	-999.25	50.50922	-0.0193	7.976	112.672	108.48	133.657	136.45599	150.075
	7638.5	0	0	0	0.00001	0.12801	0.87198	0	0	0.00001	0	0	0	0	0.00001	0.1226	0.87738	0.00001	0	-999.25	1	-2.063	-999.25	2.7375	0.0001	0.0001	4.6065	0.038	0	-999.25	36.072	-999.25	-999.25	50.26637	-0.01608	7.976	95.285	93.786	110.33749	116.409	148.0295
	7638	0	0	0	0.00001	0.16987	0.83012	0	0	0.00025	0	0	0	0	0.00001	0.16299	0.83675	0.00001	0	-999.25	1	-2.688	-999.25	2.732	0.00025	0.00026	4.536	0.048	0	-999.25	41.933	-999.25	-999.25	50.06032	-0.01287	7.976	77.898	79.092	87.018	96.362	145.98399
	7637.5	0	0	0	0.00001	0.19106	0.80894	0	0	0.00297	0	0	0	0	0.00001	0.183	0.81401	0.00001	0	-999.25	1	-3.188	-999.25	2.7305	0.00297	0.00297	4.4945	0.053	0	-999.25	46.908	-999.25	-999.25	50.34532	-0.01199	7.988	67.1725	68.4105	73.642	81.2225	121.1075
	7637	0	0	0	0.01245	0.21855	0.769	0	0.00295	0.00418	0	0	0	0	0.01178	0.2089	0.77219	0.01473	0	-999.25	1	-3.688	-999.25	2.729	0.00418	0.00712	4.453	0.058	0	-999.25	51.883	-999.25	-999.25	51.09094	-0.01111	8	56.447	57.729	60.266	66.083	96.231
	7636.5	0	0	0	0.02474	0.30717	0.66808	0	0.00588	0.00176	0	0	0	0	0.02353	0.29493	0.67389	0.02941	0	-999.25	1	-4.313	-999.25	2.7435	0.00176	0.00765	4.3215	0.0665	0	-999.25	53.763	-999.25	-999.25	50.9343	-0.01959	8	48.6475	49.447	51.518	56.237	79.9255
	7636	0	0	0	0.02465	0.38825	0.5871	0	0.00588	0.00176	0	0	0	0	0.02353	0.37426	0.59456	0.02942	0	-999.25	1	-4.938	-999.25	2.758	0.00176	0.00765	4.19	0.075	0	-999.25	55.643	-999.25	-999.25	50.45882	-0.02807	8	40.848	41.165	42.77	46.391	63.62
	7635.5	0	0	0	0.00425	0.30317	0.69258	0	0.00102	0.0003	0	0	0	0	0.00406	0.29254	0.70208	0.00508	0	-999.25	1	-5.0005	-999.25	2.755	0.0003	0.00132	4.3175	0.065	0	-999.25	54.9645	-999.25	-999.25	49.53893	-0.02632	8.012	45.5545	45.2895	47.6965	51.5025	67.4185
	7635	0	0	0	0.00001	0.22387	0.77612	0	0	0.00001	0	0	0	0	0.00001	0.21542	0.78456	0.00001	0	-999.25	1	-5.063	-999.25	2.752	0.0001	0.0001	4.445	0.055	0	-999.25	54.286	-999.25	-999.25	49.70949	-0.02456	8.024	50.261	49.414	52.623	56.614	71.217
	7634.5	0	0	0	0.00001	0.14464	0.85536	0	0	0.00001	0	0	0	0	0.00001	0.13864	0.86134	0.00001	0	-999.25	1	-5.1565	-999.25	2.7495	0.0001	0.0001	4.576	0.0425	0	-999.25	44.7665	-999.25	-999.25	50.17014	-0.0231	8.018	71.303	66.4945	74.42599	80.948	104.9695
