~Version	Information								
 VERS.        2.00                                         :CWLS Log Ascii Standard - Version 2
 WRAP.        NO                                           :One line per depth step
~Well	Information	Block							
 #MNEM.UNIT	Data	Type	Information						
 #---------	---------	-------------------------------							
 STRT.F       7800.00000                                                                                     :START DEPTH
 STOP.F       6680.00000                                                                                     :STOP DEPTH
 STEP.F       -0.50000                                                                                       :INCREMENT
 NULL.        -999.25000                                                                                     :NULL DATA VALUE
 COMP.                                                                                                       :COMPANY
 WELL.        Dollie Thorell A4                                                                              :WELL
  FLD.        Wise County                                                                                    :FIELD
  LOC.                                                                                                       :LOCATION
 PROV.                                                                                                       :PROVINCE
 STAT.                                                                                                       :STATE
 CNTY.                                                                                                       :COUNTY
 CTRY.                                                                                                       :COUNTRY
 DATE.                                                                                                       :DATE
  UWI.        4249735151                                                                                     :UNIQUE WELL UWI
  LIC.                                                                                                       :LICENSE NUMBER
  API.        4249735151                                                                                     :API NUMBER
 SRVC.        SLB                                                                                            :SERVICE COMPANY
~Parameter	Information	Block						
#MNEM.UNIT    VALUE                                        :DESCRIPTION
#----.----    ---------------                              :-------------------
~Curve	Information	Block						
#MNEM.UNIT    VALUE                                        :DESCRIPTION
#----.----    ---------------                              :-------------------
 DEPT.F       00 001 00 00                                 :Depth Index
 WTOC.LBF/LBF                                              :1 WEIGHT PERCENT OF TOTAL ORGANIC CARBON
 WQUA.LBF/LBF                                              :2 WEIGHT PERCENT OF QUARTZ
 WPYR.LBF/LBF                                              :3 WEIGHT PERCENT OF PYRITE
 WILL.LBF/LBF                                              :4 WEIGHT PERCENT OF ILLITE
 WDOL.LBF/LBF                                              :5 WEIGHT PERCENT OF DOLOMITE
 WCLC.LBF/LBF                                              :6 WEIGHT PERCENT OF CALCITE
 WCAR.LBF/LBF                                              :7 WEIGHT PERCENT OF CARBONATE
 VXBW.V/V                                                  :8 VOLUME OF BOUND WATER IN FLUSHED ZONE
 VUWA.V/V                                                  :9 VOLUME OF WATER IN UNDISTURBED ZONE
 VUGA.V/V                                                  :10 VOLUME OF GAS IN UNDISTURBED ZONE
 VTOC.V/V                                                  :11 VOLUME OF TOTAL ORGANIC CARBON
 VQUA.V/V                                                  :12 VOLUME OF QUARTZ RELATIVE TO TOTAL VOLUME
 VPYR.V/V                                                  :13 VOLUME OF PYRITE RELATIVE TO TOTAL VOLUME
 VILL.V/V                                                  :14 VOLUME OF ILLITE (DRY) RELATIVE TO TOTAL VOLUME
 VDOL.V/V                                                  :15 VOLUME OF DOLOMITE RELATIVE TO TOTAL VOLUME
 VCLC.V/V                                                  :16 VOLUME OF CALCITE RELATIVE TO TOTAL VOLUME
  VCL.V/V                                                  :17 VOLUME OF CLAY TYPE MATERIAL RELATIVE TO TOTAL VOLUME
 VCAR.V/V                                                  :18 VOLUME FRACTION OF CARBONATE RELATIVE TO TOTAL VOLUME
 TOCH.OHMM                                                 :19 SUMMATION OF WEIGHT PERCENT TOC DECIMAL-FT
   SW.V/V                                                  :20 WATER SATURATION
   SP.MV                                                   :21 SPONTANEOUS POTENTIAL
 RPAH.OHMM                                                 :22 RESERVOIR HEIGHT (FT)
 RHOB.G/C3                                                 :23 BULK DENSITY
 PIGN.V/V                                                  :24 EFFECTIVE "POROSITY," "VISO," "VPAR," AND BOUND WATER REMOVED
 PHIT.V/V                                                  :25 TOTAL POROSITY_ INCLUDES ALL FORMS OF "POROSITY," INCLUDING THAT OCCUPIED BY BOUND "FLUIDS," AND IS INDEPENDENT OF ROCK AND FLUID MATERIALS AND OF ENVIRONMENTAL EFFECTS
  PEF.                                                     :26 PHOTOELECTRIC FACTOR
 NPHI.V/V                                                  :27 THERMAL NEUTRON POROSITY (ORIGINAL RATIO METHOD) IN SELECTED LITHOLOGY
 KINT.MD                                                   :28 INTRINSIC PERMEABILITY
   KH.OHMM                                                 :29 SUMMATION OF PERMEABILITY MD-FT
   GR.GAPI                                                 :30 GAMMA RAY
  GIP.                                                     :31 GAS IN PLACE BCF PER SQUARE MILE
 GASH.OHMM                                                 :32 SUMMATION OF GAS FILLED MATRIX POROSITY DECIMAL-FT
  DTT.US/F                                                 :33 THEORETICAL DT VALUE
 DPHI.V/V                                                  :34 DENSITY POROSITY
 CALI.IN                                                   :35 CALIPER
 AT90.OHMM                                                 :36 AIT TWO FOOT RESISTIVITY A90
 AT60.OHMM                                                 :37 AIT TWO FOOT RESISTIVITY A60
 AT30.OHMM                                                 :38 AIT TWO FOOT RESISTIVITY A30
 AT20.OHMM                                                 :39 AIT TWO FOOT RESISTIVITY A20
 AT10.OHMM                                                 :40 AIT TWO FOOT RESISTIVITY A10
~Ascii   DEPT         WTOC         WQUA         WPYR         WILL         WDOL         WCLC         WCAR         VXBW         VUWA         VUGA         VTOC         VQUA         VPYR         VILL         VDOL         VCLC          VCL         VCAR         TOCH           SW           SP         RPAH         RHOB         PIGN         PHIT          PEF         NPHI         KINT           KH           GR          GIP         GASH          DTT         DPHI         CALI         AT90         AT60         AT30         AT20         AT10																																						
# ...
	7010.5	0	0	0	0.0955	0	0.9045	0	0.0215	0.02837	0	0	0	0	0.086	0	0.86413	0.10751	0	-999.25	1	-15.6565	-999.25	2.7195	0.02837	0.04987	4.3305	0.076	0.00001	-999.25	44.258	-999.25	-999.25	57.038	-0.00556	7.904	29.5965	29.0635	31.2205	34.8185	44.859
	7010	0	0	0	0.07994	0	0.92006	0	0.01806	0.02781	0	0	0	0	0.07223	0	0.8819	0.09029	0	-999.25	1	-15.438	-999.25	2.722	0.02781	0.04587	4.345	0.074	0.00001	-999.25	37.929	-999.25	-999.25	56.04049	-0.00702	7.904	33.541	32.579	35.584	39.541	50.953
	7009.5	0	0	0	0.08708	0	0.91292	0	0.01962	0.02894	0	0	0	0	0.07849	0	0.87295	0.09811	0	-999.25	1	-15.313	-999.25	2.713	0.02894	0.04856	4.352	0.0775	0.00002	-999.25	39.6105	-999.25	-999.25	56.6275	-0.00175	7.904	30.5825	29.845	32.112	35.7515	46.3045
	7009	0	0	0	0.09431	0	0.90569	0	0.02119	0.03037	0	0	0	0	0.08478	0	0.86366	0.10597	0	-999.25	1	-15.188	-999.25	2.704	0.03037	0.05157	4.359	0.081	0.00002	-999.25	41.292	-999.25	-999.25	57.26351	0.00351	7.904	27.624	27.111	28.64	31.962	41.656
	7008.5	0	0	0	0.10057	0	0.89943	0	0.02255	0.03133	0	0	0	0	0.09021	0	0.85591	0.11276	0	-999.25	1	-15.0005	-999.25	2.6935	0.03133	0.05389	4.3995	0.082	0.00002	-999.25	42.9655	-999.25	-999.25	57.7704	0.00965	7.91	25.6675	25.3025	26.868	29.8895	37.512
	7008	0	0	0	0.10689	0	0.89311	0	0.02392	0.0325	0	0	0	0	0.09566	0	0.84792	0.11958	0	-999.25	1	-14.813	-999.25	2.683	0.0325	0.05642	4.44	0.083	0.00003	-999.25	44.639	-999.25	-999.25	58.31033	0.01579	7.916	23.711	23.494	25.096	27.817	33.368
	7007.5	0	0	0	0.11128	0	0.88872	0	0.02487	0.03279	0	0	0	0	0.09948	0	0.84286	0.12435	0	-999.25	1	-14.6255	-999.25	2.6835	0.03279	0.05766	4.425	0.0855	0.00003	-999.25	46.412	-999.25	-999.25	58.60751	0.0155	7.922	22.8725	22.7475	24.3655	27.1075	32.6225
	7007	0	0	0	0.11569	0	0.88431	0	0.02583	0.03313	0	0	0	0	0.10331	0	0.83774	0.12913	0	-999.25	1	-14.438	-999.25	2.684	0.03313	0.05895	4.41	0.088	0.00003	-999.25	48.185	-999.25	-999.25	58.91241	0.0152	7.928	22.034	22.001	23.635	26.398	31.877
	7006.5	0	0	0	0.12357	0	0.87643	0	0.02753	0.03374	0	0	0	0	0.11013	0	0.82861	0.13766	0	-999.25	1	-14.1255	-999.25	2.678	0.03374	0.06127	4.3905	0.0915	0.00003	-999.25	51.351	-999.25	-999.25	59.45744	0.01871	7.94	20.682	20.7935	22.1345	24.434	29.5865
	7006	0	0.0083	0.0013	0.13577	0	0.82029	0.03435	0.03018	0.0338	0	0	0.008	0.00111	0.12072	0	0.77378	0.1509	0.0324	-999.25	1	-13.813	-999.25	2.672	0.0338	0.06398	4.371	0.095	0.00002	-999.25	54.517	-999.25	-999.25	60.35768	0.02222	7.952	19.33	19.586	20.634	22.47	27.296
	7005.5	0	0.00794	0.00124	0.13415	0	0.8239	0.03277	0.02983	0.03372	0	0	0.00766	0.00106	0.11933	0	0.77748	0.14916	0.03092	-999.25	1	-13.5005	-999.25	2.6745	0.03372	0.06355	4.384	0.0915	0.00002	-999.25	53.8885	-999.25	-999.25	60.24421	0.02076	7.94	19.5305	19.9705	20.992	22.968	27.7135
	7005	0	0.00757	0.00117	0.13253	0	0.82759	0.03113	0.02948	0.03364	0	0	0.00731	0.001	0.11793	0	0.78125	0.14741	0.02939	-999.25	1	-13.188	-999.25	2.677	0.03364	0.06312	4.397	0.088	0.00003	-999.25	53.26	-999.25	-999.25	60.13117	0.0193	7.928	19.731	20.355	21.35	23.466	28.131
	7004.5	0	0	0	0.12015	0	0.87985	0	0.02677	0.03438	0	0	0	0	0.10707	0	0.83178	0.13384	0	-999.25	1	-13.0315	-999.25	2.684	0.03438	0.06115	4.393	0.092	0.00003	-999.25	48.8095	-999.25	-999.25	59.35421	0.0152	7.928	20.564	20.926	22.5085	24.7155	29.5525
	7004	0	0	0	0.11166	0	0.88834	0	0.02491	0.03453	0	0	0	0	0.09963	0	0.84093	0.12454	0	-999.25	1	-12.875	-999.25	2.691	0.03453	0.05944	4.389	0.096	0.00003	-999.25	44.359	-999.25	-999.25	58.88363	0.01111	7.928	21.397	21.497	23.667	25.965	30.974
	7003.5	0	0.0003	0.00005	0.12175	0	0.87654	0.00135	0.02711	0.0346	0	0	0.00029	0.00004	0.10844	0	0.82824	0.13555	0.00128	-999.25	1	-12.844	-999.25	2.688	0.0346	0.06171	4.36	0.098	0.00003	-999.25	49.207	-999.25	-999.25	59.48497	0.01287	7.94	20.223	20.4565	22.3085	24.482	29.2105
	7003	0	0.01116	0.00169	0.1371	0	0.80568	0.04437	0.03047	0.03391	0	0	0.01076	0.00145	0.12186	0	0.75972	0.15233	0.04183	-999.25	1	-12.813	-999.25	2.685	0.03391	0.06437	4.331	0.1	0.00002	-999.25	54.055	-999.25	-999.25	60.5084	0.01462	7.952	19.049	19.416	20.95	22.999	27.447
	7002.5	0	0.01091	0.00165	0.13484	0	0.80938	0.04322	0.02994	0.03493	0	0	0.01051	0.00141	0.11977	0	0.76271	0.14972	0.04073	-999.25	1	-12.688	-999.25	2.685	0.03493	0.06487	4.3025	0.098	0.00003	-999.25	51.864	-999.25	-999.25	60.51991	0.01462	7.952	18.664	19.067	20.512	22.5465	26.8805
	7002	0	0.0199	0.00273	0.13628	0	0.7712	0.06989	0.03024	0.03535	0	0	0.01916	0.00233	0.12096	0	0.72616	0.1512	0.0658	-999.25	1	-12.563	-999.25	2.685	0.03535	0.06559	4.274	0.096	0.00003	-999.25	49.673	-999.25	-999.25	60.82935	0.01462	7.952	18.279	18.718	20.074	22.094	26.314
	7001.5	0	0.02907	0.00385	0.14871	0	0.72225	0.09613	0.03295	0.03461	0	0	0.02795	0.00328	0.13179	0	0.67904	0.16473	0.09038	-999.25	1	-12.344	-999.25	2.6845	0.03461	0.06756	4.258	0.1015	0.00002	-999.25	54.262	-999.25	-999.25	61.59935	0.01491	7.952	17.5235	18.018	19.2355	21.244	25.213
	7001	0	0.03876	0.00497	0.16108	0	0.67428	0.1209	0.03563	0.03394	0	0	0.03721	0.00423	0.14253	0	0.63296	0.17817	0.11349	-999.25	1	-12.125	-999.25	2.684	0.03394	0.06957	4.242	0.107	0.00002	-999.25	58.851	-999.25	-999.25	62.37207	0.0152	7.952	16.768	17.318	18.397	20.394	24.112
	7000.5	0	0.021	0.00305	0.15039	0	0.7481	0.07746	0.03329	0.03526	0	0	0.02018	0.00259	0.13316	0	0.70276	0.16645	0.07277	-999.25	1	-12.094	-999.25	2.682	0.03526	0.06855	4.3045	0.108	0.00003	-999.25	56.1725	-999.25	-999.25	61.65787	0.01637	7.952	17.0135	17.3725	18.8595	20.8105	24.3345
	7000	0	0.00673	0.00112	0.13965	0	0.82271	0.02979	0.03093	0.03656	0	0	0.00647	0.00096	0.12374	0	0.77334	0.15467	0.028	-999.25	1	-12.063	-999.25	2.68	0.03656	0.0675	4.367	0.109	0.00003	-999.25	53.494	-999.25	-999.25	60.95094	0.01754	7.952	17.259	17.427	19.322	21.227	24.557
	6999.5	0	0.00696	0.00117	0.14082	0	0.82016	0.0309	0.03119	0.03661	0	0	0.00669	0.00099	0.12474	0	0.77074	0.15593	0.02904	-999.25	1	-11.9065	-999.25	2.681	0.03661	0.0678	4.3605	0.1065	0.00003	-999.25	53.9255	-999.25	-999.25	61.03115	0.01696	7.964	17.1225	17.3665	19.0265	20.9645	24.458
	6999	0	0.00719	0.00121	0.142	0	0.81757	0.03203	0.03144	0.03667	0	0	0.00691	0.00103	0.12575	0	0.76811	0.15719	0.03009	-999.25	1	-11.75	-999.25	2.682	0.03667	0.06811	4.354	0.104	0.00003	-999.25	54.357	-999.25	-999.25	61.1125	0.01637	7.976	16.986	17.306	18.731	20.702	24.359
	6998.5	0	0.00806	0.00138	0.14686	0	0.80735	0.03635	0.03248	0.03679	0	0	0.00774	0.00117	0.12993	0	0.75777	0.16241	0.03412	-999.25	1	-11.594	-999.25	2.677	0.03679	0.06927	4.3995	0.1075	0.00003	-999.25	56.2465	-999.25	-999.25	61.42928	0.0193	7.97	16.507	16.901	18.1845	19.966	23.244
	6998	0	0.00098	0.0002	0.14744	0	0.84604	0.00534	0.03258	0.03767	0	0	0.00094	0.00017	0.13032	0	0.79332	0.1629	0.00501	-999.25	1	-11.438	-999.25	2.672	0.03767	0.07025	4.445	0.111	0.00004	-999.25	58.136	-999.25	-999.25	61.42332	0.02222	7.964	16.028	16.496	17.638	19.23	22.129
	6997.5	0	0.00071	0.00014	0.14597	0	0.84931	0.00386	0.03227	0.03747	0	0	0.00069	0.00012	0.12908	0	0.79675	0.16135	0.00362	-999.25	1	-11.188	-999.25	2.6735	0.03747	0.06974	4.432	0.107	0.00004	-999.25	57.744	-999.25	-999.25	61.30422	0.02135	7.958	16.2425	16.69	17.895	19.6585	22.777
	6997	0	0.00045	0.00009	0.14451	0	0.85254	0.00242	0.03196	0.03729	0	0	0.00043	0.00008	0.12784	0	0.80013	0.1598	0.00227	-999.25	1	-10.938	-999.25	2.675	0.03729	0.06925	4.419	0.103	0.00004	-999.25	57.352	-999.25	-999.25	61.18699	0.02047	7.952	16.457	16.884	18.152	20.087	23.425
	6996.5	0	0.00986	0.00165	0.14734	0	0.79799	0.04317	0.03257	0.0373	0	0	0.00946	0.0014	0.13027	0	0.74851	0.16284	0.04049	-999.25	1	-10.844	-999.25	2.672	0.0373	0.06987	4.376	0.107	0.00004	-999.25	55.4495	-999.25	-999.25	61.56841	0.02222	7.964	16.255	16.6555	17.9195	19.754	22.844
	6996	0	0.01803	0.00271	0.14862	0	0.76123	0.06942	0.03283	0.03757	0	0	0.01728	0.0023	0.13133	0	0.71361	0.16416	0.06507	-999.25	1	-10.75	-999.25	2.669	0.03757	0.07041	4.333	0.111	0.00004	-999.25	53.547	-999.25	-999.25	61.83805	0.02398	7.976	16.053	16.427	17.687	19.421	22.263
	6995.5	0	0.01788	0.00268	0.14757	0	0.7631	0.06877	0.03259	0.038	0	0	0.01714	0.00228	0.13037	0	0.71518	0.16296	0.06445	-999.25	1	-10.75	-999.25	2.6695	0.038	0.07059	4.351	0.107	0.00004	-999.25	52.549	-999.25	-999.25	61.83602	0.02368	7.952	15.9185	16.2775	17.537	19.3095	22.0775
