~Version	Information								
 VERS.        2.00                                         :CWLS Log Ascii Standard - Version 2
 WRAP.        NO                                           :One line per depth step
~Well	Information	Block							
 #MNEM.UNIT	Data	Type	Information						
 #---------	---------	-------------------------------							
 STRT.F       7800.00000                                                                                     :START DEPTH
 STOP.F       6680.00000                                                                                     :STOP DEPTH
 STEP.F       -0.50000                                                                                       :INCREMENT
 NULL.        -999.25000                                                                                     :NULL DATA VALUE
 COMP.                                                                                                       :COMPANY
 WELL.        Dollie Thorell A4                                                                              :WELL
  FLD.        Wise County                                                                                    :FIELD
  LOC.                                                                                                       :LOCATION
 PROV.                                                                                                       :PROVINCE
 STAT.                                                                                                       :STATE
 CNTY.                                                                                                       :COUNTY
 CTRY.                                                                                                       :COUNTRY
 DATE.                                                                                                       :DATE
  UWI.        4249735151                                                                                     :UNIQUE WELL UWI
  LIC.                                                                                                       :LICENSE NUMBER
  API.        4249735151                                                                                     :API NUMBER
 SRVC.        SLB                                                                                            :SERVICE COMPANY
~Parameter	Information	Block						
#MNEM.UNIT    VALUE                                        :DESCRIPTION
#----.----    ---------------                              :-------------------
~Curve	Information	Block						
#MNEM.UNIT    VALUE                                        :DESCRIPTION
#----.----    ---------------                              :-------------------
 DEPT.F       00 001 00 00                                 :Depth Index
 WTOC.LBF/LBF                                              :1 WEIGHT PERCENT OF TOTAL ORGANIC CARBON
 WQUA.LBF/LBF                                              :2 WEIGHT PERCENT OF QUARTZ
 WPYR.LBF/LBF                                              :3 WEIGHT PERCENT OF PYRITE
 WILL.LBF/LBF                                              :4 WEIGHT PERCENT OF ILLITE
 WDOL.LBF/LBF                                              :5 WEIGHT PERCENT OF DOLOMITE
 WCLC.LBF/LBF                                              :6 WEIGHT PERCENT OF CALCITE
 WCAR.LBF/LBF                                              :7 WEIGHT PERCENT OF CARBONATE
 VXBW.V/V                                                  :8 VOLUME OF BOUND WATER IN FLUSHED ZONE
 VUWA.V/V                                                  :9 VOLUME OF WATER IN UNDISTURBED ZONE
 VUGA.V/V                                                  :10 VOLUME OF GAS IN UNDISTURBED ZONE
 VTOC.V/V                                                  :11 VOLUME OF TOTAL ORGANIC CARBON
 VQUA.V/V                                                  :12 VOLUME OF QUARTZ RELATIVE TO TOTAL VOLUME
 VPYR.V/V                                                  :13 VOLUME OF PYRITE RELATIVE TO TOTAL VOLUME
 VILL.V/V                                                  :14 VOLUME OF ILLITE (DRY) RELATIVE TO TOTAL VOLUME
 VDOL.V/V                                                  :15 VOLUME OF DOLOMITE RELATIVE TO TOTAL VOLUME
 VCLC.V/V                                                  :16 VOLUME OF CALCITE RELATIVE TO TOTAL VOLUME
  VCL.V/V                                                  :17 VOLUME OF CLAY TYPE MATERIAL RELATIVE TO TOTAL VOLUME
 VCAR.V/V                                                  :18 VOLUME FRACTION OF CARBONATE RELATIVE TO TOTAL VOLUME
 TOCH.OHMM                                                 :19 SUMMATION OF WEIGHT PERCENT TOC DECIMAL-FT
   SW.V/V                                                  :20 WATER SATURATION
   SP.MV                                                   :21 SPONTANEOUS POTENTIAL
 RPAH.OHMM                                                 :22 RESERVOIR HEIGHT (FT)
 RHOB.G/C3                                                 :23 BULK DENSITY
 PIGN.V/V                                                  :24 EFFECTIVE "POROSITY," "VISO," "VPAR," AND BOUND WATER REMOVED
 PHIT.V/V                                                  :25 TOTAL POROSITY_ INCLUDES ALL FORMS OF "POROSITY," INCLUDING THAT OCCUPIED BY BOUND "FLUIDS," AND IS INDEPENDENT OF ROCK AND FLUID MATERIALS AND OF ENVIRONMENTAL EFFECTS
  PEF.                                                     :26 PHOTOELECTRIC FACTOR
 NPHI.V/V                                                  :27 THERMAL NEUTRON POROSITY (ORIGINAL RATIO METHOD) IN SELECTED LITHOLOGY
 KINT.MD                                                   :28 INTRINSIC PERMEABILITY
   KH.OHMM                                                 :29 SUMMATION OF PERMEABILITY MD-FT
   GR.GAPI                                                 :30 GAMMA RAY
  GIP.                                                     :31 GAS IN PLACE BCF PER SQUARE MILE
 GASH.OHMM                                                 :32 SUMMATION OF GAS FILLED MATRIX POROSITY DECIMAL-FT
  DTT.US/F                                                 :33 THEORETICAL DT VALUE
 DPHI.V/V                                                  :34 DENSITY POROSITY
 CALI.IN                                                   :35 CALIPER
 AT90.OHMM                                                 :36 AIT TWO FOOT RESISTIVITY A90
 AT60.OHMM                                                 :37 AIT TWO FOOT RESISTIVITY A60
 AT30.OHMM                                                 :38 AIT TWO FOOT RESISTIVITY A30
 AT20.OHMM                                                 :39 AIT TWO FOOT RESISTIVITY A20
 AT10.OHMM                                                 :40 AIT TWO FOOT RESISTIVITY A10
~Ascii   DEPT         WTOC         WQUA         WPYR         WILL         WDOL         WCLC         WCAR         VXBW         VUWA         VUGA         VTOC         VQUA         VPYR         VILL         VDOL         VCLC          VCL         VCAR         TOCH           SW           SP         RPAH         RHOB         PIGN         PHIT          PEF         NPHI         KINT           KH           GR          GIP         GASH          DTT         DPHI         CALI         AT90         AT60         AT30         AT20         AT10																																						
# ...
	6936	0	0.01879	0.00267	0.1435	0	0.76663	0.06841	0.0319	0.03234	0	0	0.01813	0.00228	0.1276	0	0.72321	0.1595	0.06453	-999.25	1	-11.813	-999.25	2.701	0.03234	0.06424	4.277	0.075	0.00002	-999.25	56.935	-999.25	-999.25	60.79564	0.00526	8.072	19.373	18.656	19.947	23.489	21.459
	6935.5	0	0.02827	0.00374	0.15103	0	0.72331	0.09365	0.03362	0.02978	0	0	0.02731	0.00321	0.13446	0	0.68317	0.16808	0.08845	-999.25	1	-12.6565	-999.25	2.6965	0.02978	0.0634	4.262	0.094	0.00001	-999.25	61.3745	-999.25	-999.25	61.02519	0.00789	8.072	20.263	19	20.1535	23.022	22.3885
	6935	0	0.03865	0.00481	0.15851	0	0.68082	0.11721	0.03532	0.02732	0	0	0.03737	0.00412	0.14128	0	0.64376	0.1766	0.11083	-999.25	1	-13.5	-999.25	2.692	0.02732	0.06264	4.247	0.113	0	-999.25	65.814	-999.25	-999.25	61.26722	0.01053	8.072	21.153	19.344	20.36	22.555	23.318
	6934.5	0.00389	0.14979	0.01389	0.22927	0	0.33598	0.26718	0.05023	0.02778	0	0.00613	0.14242	0.01171	0.20093	0	0.31239	0.25117	0.24841	-999.25	1	-14.0315	-999.25	2.6625	0.02778	0.07801	4.062	0.1535	0	-999.25	77.3325	-999.25	-999.25	67.24269	0.02778	8.0965	14.3495	13.3465	13.9635	15.3545	15.929
	6934	0.00804	0.28279	0.02276	0.30071	0	0.05417	0.33154	0.06379	0.04264	0	0.01226	0.26034	0.01857	0.25517	0	0.04877	0.31897	0.29846	-999.25	1	-14.563	-999.25	2.633	0.04264	0.10643	3.877	0.194	0	-999.25	88.851	-999.25	-999.25	74.82674	0.04503	8.121	7.546	7.349	7.567	8.154	8.54
	6933.5	0.00922	0.28281	0.02331	0.31044	0	0.04022	0.334	0.06552	0.04534	0	0.01399	0.25902	0.01892	0.26207	0	0.03602	0.32759	0.29913	-999.25	1	-14.4065	-999.25	2.624	0.04534	0.11085	3.8905	0.193	0	-999.25	91.0235	-999.25	-999.25	75.84615	0.05029	8.121	6.9245	6.78	7.001	7.6045	7.8095
	6933	0.01042	0.2812	0.02385	0.32033	0	0.02775	0.33645	0.06721	0.04865	0	0.01571	0.25605	0.01924	0.26885	0	0.02471	0.33606	0.29957	-999.25	1	-14.25	-999.25	2.615	0.04865	0.11586	3.904	0.192	0.00001	-999.25	93.196	-999.25	-999.25	76.93697	0.05556	8.121	6.303	6.211	6.435	7.055	7.079
	6932.5	0.00877	0.28123	0.02379	0.3207	0	0.02924	0.33627	0.06732	0.04922	0	0.01324	0.25618	0.01921	0.26926	0	0.02605	0.33658	0.29953	-999.25	1	-14.1565	-999.25	2.627	0.04922	0.11654	3.852	0.185	0.00001	-999.25	93.21249	-999.25	-999.25	76.8232	0.04854	8.121	6.216	6.1585	6.418	6.989	7.0505
	6932	0.00713	0.31898	0.02478	0.32399	0	0	0.32511	0.06799	0.04925	0	0.01076	0.2905	0.02	0.27197	0	0	0.33997	0.28953	-999.25	1	-14.063	-999.25	2.639	0.04925	0.11724	3.8	0.178	0.00001	-999.25	93.229	-999.25	-999.25	77.02105	0.04152	8.121	6.129	6.106	6.401	6.923	7.022
	6931.5	0.00683	0.32217	0.02477	0.31788	0	0	0.32835	0.06673	0.05001	0	0.0103	0.2935	0.02	0.26693	0	0	0.33366	0.29251	-999.25	1	-14.1255	-999.25	2.6375	0.05001	0.11675	3.781	0.1815	0.00001	-999.25	89.1185	-999.25	-999.25	76.79958	0.0424	8.121	6.1685	6.158	6.459	6.968	7.1755
	6931	0.00653	0.32537	0.02476	0.31177	0	0	0.33157	0.06547	0.05079	0	0.00985	0.29652	0.02	0.26189	0	0	0.32736	0.29548	-999.25	1	-14.188	-999.25	2.636	0.05079	0.11626	3.762	0.185	0.00001	-999.25	85.008	-999.25	-999.25	76.57884	0.04327	8.121	6.208	6.21	6.517	7.013	7.329
	6930.5	0.00646	0.32551	0.02475	0.31164	0	0	0.33163	0.06547	0.05055	0	0.00976	0.29674	0.02	0.26186	0	0	0.32733	0.29562	-999.25	1	-14.188	-999.25	2.637	0.05055	0.11602	3.7495	0.186	0.00001	-999.25	85.13	-999.25	-999.25	76.53553	0.04269	8.133	6.237	6.2415	6.552	7.0645	7.404
	6930	0.0064	0.32567	0.02475	0.31152	0	0	0.33167	0.06546	0.05033	0	0.00967	0.29697	0.02	0.26183	0	0	0.32729	0.29574	-999.25	1	-14.188	-999.25	2.638	0.05033	0.11579	3.737	0.187	0.00001	-999.25	85.252	-999.25	-999.25	76.49314	0.04211	8.145	6.266	6.273	6.587	7.116	7.479
	6929.5	0.00748	0.348	0.02479	0.31722	0	0	0.30251	0.06654	0.04991	0	0.01128	0.3168	0.02	0.26618	0	0	0.33272	0.26929	-999.25	1	-14.219	-999.25	2.6345	0.04991	0.11645	3.7235	0.189	0.00001	-999.25	88.63651	-999.25	-999.25	76.92949	0.04415	8.157	6.2005	6.2045	6.5115	7.0415	7.386
	6929	0.00856	0.35411	0.02482	0.32285	0	0	0.28966	0.06763	0.04955	0	0.01289	0.32192	0.02	0.27052	0	0	0.33816	0.25749	-999.25	1	-14.25	-999.25	2.631	0.04955	0.11718	3.71	0.191	0.00001	-999.25	92.021	-999.25	-999.25	77.30836	0.0462	8.169	6.135	6.136	6.436	6.967	7.293
	6928.5	0.00855	0.35431	0.02484	0.32242	0	0	0.28988	0.0675	0.05024	0	0.01287	0.32189	0.02	0.26999	0	0	0.33749	0.25752	-999.25	1	-13.75	-999.25	2.629	0.05024	0.11773	3.7395	0.196	0.00001	-999.25	91.2065	-999.25	-999.25	77.37566	0.04737	8.157	6.0655	6.0635	6.342	6.8765	7.1645
	6928	0.00854	0.33261	0.02485	0.32187	0	0	0.31214	0.06736	0.05101	0	0.01285	0.30209	0.02	0.26946	0	0	0.33682	0.27723	-999.25	1	-13.25	-999.25	2.627	0.05101	0.11838	3.769	0.201	0.00001	-999.25	90.392	-999.25	-999.25	77.3682	0.04854	8.145	5.996	5.991	6.248	6.786	7.036
	6927.5	0.0087	0.33218	0.02484	0.32245	0	0	0.31183	0.06751	0.05053	0	0.0131	0.3018	0.02	0.27003	0	0	0.33754	0.27704	-999.25	1	-12.5625	-999.25	2.627	0.05053	0.11804	3.8135	0.1965	0.00001	-999.25	91.0715	-999.25	-999.25	77.35185	0.04854	8.157	6.032	6.029	6.2885	6.839	7.107
	6927	0.00886	0.2962	0.02443	0.32183	0	0.01139	0.33728	0.06744	0.05034	0	0.01334	0.26936	0.01969	0.26976	0	0.01013	0.3372	0.29993	-999.25	1	-11.875	-999.25	2.627	0.05034	0.11778	3.858	0.192	0.00001	-999.25	91.751	-999.25	-999.25	77.14687	0.04854	8.169	6.068	6.067	6.329	6.892	7.178
	6926.5	0.00936	0.26378	0.02323	0.32125	0	0.0465	0.33588	0.06734	0.05033	0	0.0141	0.23996	0.01873	0.26937	0	0.04137	0.33672	0.29879	-999.25	1	-11.594	-999.25	2.626	0.05033	0.11767	3.9125	0.1925	0.00001	-999.25	93.69901	-999.25	-999.25	76.9425	0.04912	8.169	6.0785	6.0755	6.334	6.8885	7.1765
	6926	0.00986	0.23321	0.02203	0.32071	0	0.08125	0.33294	0.06725	0.05031	0	0.01485	0.21222	0.01777	0.26901	0	0.0723	0.33627	0.29627	-999.25	1	-11.313	-999.25	2.625	0.05031	0.11756	3.967	0.193	0.00001	-999.25	95.647	-999.25	-999.25	76.74781	0.04971	8.169	6.089	6.084	6.339	6.885	7.175
	6925.5	0.00946	0.23308	0.02206	0.32246	0	0.08003	0.33291	0.06765	0.04987	0	0.01427	0.2122	0.0178	0.27059	0	0.07125	0.33824	0.29637	-999.25	1	-11.1565	-999.25	2.627	0.04987	0.11752	3.9605	0.1995	0.00001	-999.25	96.9845	-999.25	-999.25	76.73091	0.04854	8.169	6.101	6.1075	6.379	6.9345	7.235
	6925	0.00907	0.23297	0.02209	0.3242	0	0.07879	0.33288	0.06804	0.04944	0	0.01368	0.21219	0.01783	0.27217	0	0.07017	0.34022	0.29647	-999.25	1	-11	-999.25	2.629	0.04944	0.11748	3.954	0.206	0.00001	-999.25	98.322	-999.25	-999.25	76.71461	0.04737	8.169	6.113	6.131	6.419	6.984	7.295
	6924.5	0.00685	0.30064	0.02481	0.3328	0	0	0.33491	0.06976	0.04952	0	0.01032	0.27347	0.02	0.27903	0	0	0.34879	0.2979	-999.25	1	-10.9065	-999.25	2.6405	0.04952	0.11928	3.8485	0.2065	0.00001	-999.25	98.1965	-999.25	-999.25	77.37874	0.04064	8.169	5.9265	5.9575	6.2255	6.781	7.068
	6924	0.00462	0.33368	0.02483	0.33432	0	0	0.30255	0.07001	0.05091	0	0.00696	0.30323	0.02	0.28003	0	0	0.35004	0.26886	-999.25	1	-10.813	-999.25	2.652	0.05091	0.12092	3.743	0.207	0.00001	-999.25	98.071	-999.25	-999.25	77.48143	0.03392	8.169	5.74	5.784	6.032	6.578	6.841
	6923.5	0.00472	0.33208	0.02485	0.3376	0	0	0.30075	0.07065	0.05101	0	0.00711	0.30157	0.02	0.28259	0	0	0.35324	0.26708	-999.25	1	-10.5315	-999.25	2.6515	0.05101	0.12165	3.6975	0.2065	0.00001	-999.25	99.9125	-999.25	-999.25	77.65795	0.03421	8.181	5.6775	5.7235	5.981	6.528	6.758
	6923	0.00483	0.36773	0.02488	0.34113	0	0	0.26143	0.07129	0.05099	0	0.00725	0.33349	0.02	0.28515	0	0	0.35643	0.23183	-999.25	1	-10.25	-999.25	2.651	0.05099	0.12228	3.652	0.206	0.00002	-999.25	101.754	-999.25	-999.25	77.96951	0.0345	8.193	5.615	5.663	5.93	6.478	6.675
	6922.5	0.00694	0.36883	0.02493	0.33685	0	0	0.26245	0.07025	0.05225	0	0.01041	0.33381	0.02	0.28101	0	0	0.35126	0.23227	-999.25	1	-9.9065	-999.25	2.64	0.05225	0.12251	3.702	0.1995	0.00002	-999.25	98.0005	-999.25	-999.25	78.18613	0.04094	8.193	5.5765	5.6315	5.885	6.444	6.6005
	6922	0.00906	0.33285	0.02497	0.33233	0	0	0.30079	0.06922	0.05365	0	0.01357	0.30084	0.02	0.27687	0	0	0.34609	0.26585	-999.25	1	-9.563	-999.25	2.629	0.05365	0.12287	3.752	0.193	0.00001	-999.25	94.247	-999.25	-999.25	78.27363	0.04737	8.193	5.538	5.6	5.84	6.41	6.526
