~Version	Information								
 VERS.        2.00                                         :CWLS Log Ascii Standard - Version 2
 WRAP.        NO                                           :One line per depth step
~Well	Information	Block							
 #MNEM.UNIT	Data	Type	Information						
 #---------	---------	-------------------------------							
 STRT.F       7800.00000                                                                                     :START DEPTH
 STOP.F       6680.00000                                                                                     :STOP DEPTH
 STEP.F       -0.50000                                                                                       :INCREMENT
 NULL.        -999.25000                                                                                     :NULL DATA VALUE
 COMP.                                                                                                       :COMPANY
 WELL.        Dollie Thorell A4                                                                              :WELL
  FLD.        Wise County                                                                                    :FIELD
  LOC.                                                                                                       :LOCATION
 PROV.                                                                                                       :PROVINCE
 STAT.                                                                                                       :STATE
 CNTY.                                                                                                       :COUNTY
 CTRY.                                                                                                       :COUNTRY
 DATE.                                                                                                       :DATE
  UWI.        4249735151                                                                                     :UNIQUE WELL UWI
  LIC.                                                                                                       :LICENSE NUMBER
  API.        4249735151                                                                                     :API NUMBER
 SRVC.        SLB                                                                                            :SERVICE COMPANY
~Parameter	Information	Block						
#MNEM.UNIT    VALUE                                        :DESCRIPTION
#----.----    ---------------                              :-------------------
~Curve	Information	Block						
#MNEM.UNIT    VALUE                                        :DESCRIPTION
#----.----    ---------------                              :-------------------
 DEPT.F       00 001 00 00                                 :Depth Index
 WTOC.LBF/LBF                                              :1 WEIGHT PERCENT OF TOTAL ORGANIC CARBON
 WQUA.LBF/LBF                                              :2 WEIGHT PERCENT OF QUARTZ
 WPYR.LBF/LBF                                              :3 WEIGHT PERCENT OF PYRITE
 WILL.LBF/LBF                                              :4 WEIGHT PERCENT OF ILLITE
 WDOL.LBF/LBF                                              :5 WEIGHT PERCENT OF DOLOMITE
 WCLC.LBF/LBF                                              :6 WEIGHT PERCENT OF CALCITE
 WCAR.LBF/LBF                                              :7 WEIGHT PERCENT OF CARBONATE
 VXBW.V/V                                                  :8 VOLUME OF BOUND WATER IN FLUSHED ZONE
 VUWA.V/V                                                  :9 VOLUME OF WATER IN UNDISTURBED ZONE
 VUGA.V/V                                                  :10 VOLUME OF GAS IN UNDISTURBED ZONE
 VTOC.V/V                                                  :11 VOLUME OF TOTAL ORGANIC CARBON
 VQUA.V/V                                                  :12 VOLUME OF QUARTZ RELATIVE TO TOTAL VOLUME
 VPYR.V/V                                                  :13 VOLUME OF PYRITE RELATIVE TO TOTAL VOLUME
 VILL.V/V                                                  :14 VOLUME OF ILLITE (DRY) RELATIVE TO TOTAL VOLUME
 VDOL.V/V                                                  :15 VOLUME OF DOLOMITE RELATIVE TO TOTAL VOLUME
 VCLC.V/V                                                  :16 VOLUME OF CALCITE RELATIVE TO TOTAL VOLUME
  VCL.V/V                                                  :17 VOLUME OF CLAY TYPE MATERIAL RELATIVE TO TOTAL VOLUME
 VCAR.V/V                                                  :18 VOLUME FRACTION OF CARBONATE RELATIVE TO TOTAL VOLUME
 TOCH.OHMM                                                 :19 SUMMATION OF WEIGHT PERCENT TOC DECIMAL-FT
   SW.V/V                                                  :20 WATER SATURATION
   SP.MV                                                   :21 SPONTANEOUS POTENTIAL
 RPAH.OHMM                                                 :22 RESERVOIR HEIGHT (FT)
 RHOB.G/C3                                                 :23 BULK DENSITY
 PIGN.V/V                                                  :24 EFFECTIVE "POROSITY," "VISO," "VPAR," AND BOUND WATER REMOVED
 PHIT.V/V                                                  :25 TOTAL POROSITY_ INCLUDES ALL FORMS OF "POROSITY," INCLUDING THAT OCCUPIED BY BOUND "FLUIDS," AND IS INDEPENDENT OF ROCK AND FLUID MATERIALS AND OF ENVIRONMENTAL EFFECTS
  PEF.                                                     :26 PHOTOELECTRIC FACTOR
 NPHI.V/V                                                  :27 THERMAL NEUTRON POROSITY (ORIGINAL RATIO METHOD) IN SELECTED LITHOLOGY
 KINT.MD                                                   :28 INTRINSIC PERMEABILITY
   KH.OHMM                                                 :29 SUMMATION OF PERMEABILITY MD-FT
   GR.GAPI                                                 :30 GAMMA RAY
  GIP.                                                     :31 GAS IN PLACE BCF PER SQUARE MILE
 GASH.OHMM                                                 :32 SUMMATION OF GAS FILLED MATRIX POROSITY DECIMAL-FT
  DTT.US/F                                                 :33 THEORETICAL DT VALUE
 DPHI.V/V                                                  :34 DENSITY POROSITY
 CALI.IN                                                   :35 CALIPER
 AT90.OHMM                                                 :36 AIT TWO FOOT RESISTIVITY A90
 AT60.OHMM                                                 :37 AIT TWO FOOT RESISTIVITY A60
 AT30.OHMM                                                 :38 AIT TWO FOOT RESISTIVITY A30
 AT20.OHMM                                                 :39 AIT TWO FOOT RESISTIVITY A20
 AT10.OHMM                                                 :40 AIT TWO FOOT RESISTIVITY A10
~Ascii   DEPT         WTOC         WQUA         WPYR         WILL         WDOL         WCLC         WCAR         VXBW         VUWA         VUGA         VTOC         VQUA         VPYR         VILL         VDOL         VCLC          VCL         VCAR         TOCH           SW           SP         RPAH         RHOB         PIGN         PHIT          PEF         NPHI         KINT           KH           GR          GIP         GASH          DTT         DPHI         CALI         AT90         AT60         AT30         AT20         AT10																																						
# ...
	7418	0.04198	0.50477	0.0253	0.23304	0	0	0.1949	0.04789	0.01437	0.04412	0.06201	0.45015	0.02	0.19156	0	0	0.23945	0.16509	4.16006	0.22695	-47.063	71	2.53	0.0633	0.11119	3.174	0.154	0.00016	0.01164	120.496	33.50088	3.65459	80.7934	0.10526	7.735	121.943	221.77	171.058	104.142	50.601
	7417.5	0.04322	0.52285	0.02547	0.23074	0	0	0.17772	0.0471	0.01413	0.04945	0.06341	0.46316	0.02	0.1884	0	0	0.2355	0.14953	4.18167	0.20659	-47.4065	71.5	2.513	0.0684	0.1155	3.1225	0.1435	0.00018	0.01174	110.6795	33.71133	3.67931	81.70155	0.1152	7.723	101.0125	205.228	145.4055	107.7695	57.966
	7417	0.04447	0.54118	0.02565	0.22874	0	0	0.15997	0.04638	0.01391	0.05477	0.0648	0.47615	0.02	0.1855	0	0	0.23188	0.13369	4.2039	0.18932	-47.75	72	2.496	0.07349	0.11986	3.071	0.133	0.00018	0.01183	100.863	33.93974	3.7067	82.62437	0.12515	7.711	80.082	188.686	119.753	111.397	65.331
	7416.5	0.04894	0.57541	0.02583	0.23815	0	0	0.11167	0.04795	0.01439	0.05488	0.07083	0.50278	0.02	0.19181	0	0	0.23976	0.09268	4.22837	0.19451	-48.125	72.5	2.4795	0.07396	0.12191	2.9855	0.1405	0.00023	0.01194	106.162	34.17373	3.73414	83.74084	0.1348	7.723	79.1695	151.7455	114.58549	107.2665	77.861
	7416	0.05348	0.61016	0.02601	0.24771	0	0	0.06264	0.04953	0.01486	0.05499	0.07686	0.52944	0.02	0.19811	0	0	0.24764	0.05163	4.25512	0.19963	-48.5	73	2.463	0.07443	0.12396	2.9	0.148	0.00026	0.01207	111.461	34.41331	3.76163	84.85754	0.14444	7.735	78.257	114.805	109.418	103.136	90.391
	7415.5	0.05991	0.66662	0.02621	0.24726	0	0	0	0.04906	0.01472	0.05641	0.08544	0.57398	0.02	0.19624	0	0	0.2453	0	4.28507	0.19551	-49.125	73.5	2.435	0.07528	0.12434	2.8185	0.1515	0.00028	0.01221	115.1015	34.66472	3.78984	85.87589	0.16082	7.747	81.8485	106.72701	110.0545	104.5865	105.1175
	7415	0.06623	0.66176	0.02633	0.24569	0	0	0	0.04853	0.01456	0.05824	0.09402	0.56721	0.02	0.19411	0	0	0.24263	0	4.31819	0.19122	-49.75	74	2.407	0.07613	0.12466	2.737	0.155	0.00031	0.01236	118.742	34.92924	3.81896	86.66025	0.17719	7.759	85.44	98.649	110.691	106.037	119.844
	7414.5	0.06475	0.67821	0.0263	0.23074	0	0	0	0.04563	0.01369	0.06052	0.09203	0.58198	0.02	0.18251	0	0	0.22813	0	4.35057	0.17582	-50.219	74.5	2.412	0.07785	0.12348	2.759	0.1545	0.00041	0.01257	114.85049	35.19912	3.84922	86.16418	0.17427	7.735	105.927	116.813	138.98351	124.228	155.0665
	7414	0.06316	0.65652	0.02622	0.21546	0	0	0.03865	0.04274	0.01282	0.06304	0.09004	0.5651	0.02	0.17095	0	0	0.21368	0.0316	4.38214	0.16111	-50.688	75	2.417	0.07958	0.12231	2.781	0.154	0.00053	0.01283	110.959	35.4751	3.88074	85.5351	0.17135	7.711	126.414	134.97701	167.276	142.41901	190.289
	7413.5	0.05156	0.61546	0.02581	0.19983	0	0	0.10734	0.04025	0.01208	0.06049	0.07465	0.53801	0.02	0.16101	0	0	0.20126	0.08912	4.40792	0.15692	-51.0315	75.5	2.464	0.07695	0.11721	2.867	0.142	0.00039	0.01303	100.4455	35.72974	3.91099	82.96719	0.14386	7.711	135.0435	152.55951	167.68399	148.354	203.61551
	7413	0.04031	0.57564	0.02542	0.18468	0	0	0.17395	0.03777	0.01133	0.05793	0.05925	0.51092	0.02	0.15109	0	0	0.18886	0.14664	4.42808	0.15245	-51.375	76	2.511	0.07433	0.1121	2.953	0.13	0.00024	0.01315	89.932	35.96305	3.93995	80.39983	0.11637	7.711	143.673	170.142	168.092	154.289	216.942
	7412.5	0.0394	0.51666	0.02518	0.17427	0	0	0.24448	0.03598	0.0108	0.05504	0.05847	0.46296	0.02	0.14394	0	0	0.17992	0.20808	4.44778	0.15298	-51.625	76.5	2.524	0.07057	0.10655	3.115	0.134	0.0001	0.0132	91.5095	36.18652	3.96747	79.02934	0.10877	7.723	187.66351	215.6675	201.07401	171.213	237.58249
	7412	0.03851	0.45884	0.02495	0.16433	0	0	0.31337	0.03425	0.01028	0.05213	0.05769	0.41502	0.02	0.13701	0	0	0.17126	0.26923	4.46703	0.1538	-51.875	77	2.537	0.06681	0.10106	3.277	0.138	0.00005	0.01323	93.087	36.40006	3.99353	77.67149	0.10117	7.735	231.65401	261.19299	234.056	188.13699	258.22299
	7411.5	0.03951	0.48426	0.02503	0.17441	0	0	0.27678	0.03623	0.01087	0.05084	0.059	0.43655	0.02	0.14493	0	0	0.18116	0.237	4.48679	0.16396	-52	77.5	2.5355	0.06629	0.10252	3.2075	0.1405	0.00008	0.01327	98.7735	36.6107	4.01895	78.25459	0.10205	7.735	222.19299	250.935	234.565	193.2265	244.13651
	7411	0.04053	0.50981	0.02512	0.18456	0	0	0.23999	0.03821	0.01146	0.04954	0.06031	0.45805	0.02	0.15285	0	0	0.19106	0.20481	4.50705	0.17428	-52.125	78	2.534	0.06578	0.10399	3.138	0.143	0.00012	0.01333	104.46	36.81845	4.04372	78.83754	0.10292	7.735	212.73199	240.677	235.07401	198.31599	230.05
	7410.5	0.04933	0.53217	0.02541	0.18898	0	0	0.20411	0.03868	0.0116	0.05322	0.07257	0.4727	0.02	0.15472	0	0	0.1934	0.1722	4.53172	0.16786	-52.4375	78.5	2.4975	0.06913	0.10781	3.086	0.1515	0.00016	0.01341	109.38651	37.04826	4.07033	80.71918	0.12427	7.735	197.1795	225.123	218.5005	188.8535	222.181
	7410	0.05834	0.55511	0.0257	0.19353	0	0	0.16733	0.03915	0.01175	0.05688	0.08484	0.48738	0.02	0.15662	0	0	0.19577	0.13954	4.56089	0.16206	-52.75	79	2.461	0.07248	0.11163	3.034	0.16	0.0002	0.01351	114.313	37.30013	4.09877	82.60233	0.14561	7.735	181.627	209.569	201.927	179.39101	214.312
	7409.5	0.05711	0.56377	0.02573	0.20639	0	0	0.14701	0.04171	0.01251	0.05496	0.08295	0.49441	0.02	0.16683	0	0	0.20854	0.12245	4.58944	0.17466	-53.3125	79.5	2.4685	0.07164	0.11335	3.008	0.16	0.00022	0.01362	116.09	37.54443	4.12625	82.90947	0.14123	7.735	159.73599	181.494	171.79901	152.02451	174.81299
	7409	0.05588	0.57241	0.02576	0.21937	0	0	0.12658	0.04428	0.01328	0.05304	0.08107	0.50142	0.02	0.17712	0	0	0.2214	0.10531	4.61738	0.18763	-53.875	80	2.476	0.0708	0.11508	2.982	0.16	0.00024	0.01374	117.867	37.78115	4.15277	83.2207	0.13684	7.735	137.845	153.41901	141.67101	124.658	135.314
	7408.5	0.05583	0.57418	0.02573	0.2165	0	0	0.12776	0.04376	0.01313	0.05234	0.08111	0.50362	0.02	0.17503	0	0	0.21879	0.10643	4.6453	0.18741	-54.4375	80.5	2.4805	0.07005	0.1138	2.972	0.1525	0.00025	0.01387	121.2415	38.01567	4.17894	82.97266	0.13421	7.723	144.981	153.21451	144.31851	127.7735	132.77051
	7408	0.05579	0.57595	0.02569	0.21365	0	0	0.12892	0.04324	0.01297	0.05164	0.08115	0.50583	0.02	0.17295	0	0	0.21619	0.10754	4.67319	0.1872	-55	81	2.485	0.06929	0.11253	2.962	0.145	0.00025	0.01399	124.616	38.248	4.20476	82.72521	0.13158	7.711	152.117	153.00999	146.966	130.88901	130.22701
	7407.5	0.05782	0.59315	0.02574	0.20512	0	0	0.11817	0.04145	0.01243	0.05349	0.08397	0.5201	0.02	0.16579	0	0	0.20723	0.09842	4.7021	0.17692	-55.5	81.5	2.472	0.07028	0.11173	2.9225	0.143	0.00026	0.01412	120.8515	38.48849	4.2315	82.80399	0.13918	7.723	163.46051	165.19049	155.63901	139.5045	137.4465
	7407	0.05985	0.61041	0.02578	0.19659	0	0	0.10737	0.03966	0.0119	0.05533	0.08679	0.53437	0.02	0.15864	0	0	0.19829	0.08928	4.73203	0.16695	-56	82	2.459	0.07127	0.11093	2.883	0.141	0.00027	0.01426	117.087	38.73712	4.25917	82.88379	0.14678	7.735	174.804	177.371	164.312	148.12	144.666
	7406.5	0.06082	0.63359	0.02578	0.18909	0	0	0.09073	0.03814	0.01144	0.05565	0.08817	0.55461	0.02	0.15257	0	0	0.19071	0.07543	4.76243	0.16099	-56.219	82.5	2.4555	0.07107	0.10922	2.8195	0.1455	0.00029	0.0144	116.759	38.98788	4.28699	82.70736	0.14883	7.729	191.134	190.5965	179.745	166.164	162.95349
	7406	0.06178	0.65681	0.02578	0.18161	0	0	0.07401	0.03663	0.01099	0.05597	0.08956	0.57488	0.02	0.14652	0	0	0.18315	0.06153	4.79332	0.15503	-56.438	83	2.452	0.07088	0.10751	2.756	0.15	0.0003	0.01455	116.431	39.24076	4.31498	82.53245	0.15088	7.723	207.464	203.82201	195.17799	184.20799	181.241
	7405.5	0.05864	0.64602	0.02582	0.18736	0	0	0.08217	0.03774	0.01132	0.058	0.08489	0.56469	0.02	0.15096	0	0	0.1887	0.06822	4.82264	0.15404	-56.3755	83.5	2.456	0.0735	0.11124	2.781	0.1515	0.00035	0.01473	111.5375	39.4961	4.34398	82.79402	0.14854	7.729	195.83	194.916	185.39	175.2795	172.6465
	7405	0.05548	0.63515	0.02585	0.19313	0	0	0.09038	0.03885	0.01166	0.06003	0.08022	0.55447	0.02	0.1554	0	0	0.19425	0.07494	4.85038	0.15312	-56.313	84	2.46	0.07612	0.11497	2.806	0.153	0.00041	0.01494	106.644	39.75388	4.37399	83.05595	0.1462	7.735	184.196	186.00999	175.60201	166.351	164.052
	7404.5	0.05462	0.61897	0.02586	0.19216	0	0	0.10839	0.03863	0.01159	0.06213	0.07892	0.54004	0.02	0.15453	0	0	0.19317	0.08982	4.87769	0.1485	-56.0315	84.5	2.456	0.07805	0.11668	2.8525	0.1485	0.00046	0.01517	103.1375	40.01717	4.40506	83.17224	0.14854	7.735	181.2785	187.2585	179.13451	168.05249	164.3815
