~Version	Information								
 VERS.        2.00                                         :CWLS Log Ascii Standard - Version 2
 WRAP.        NO                                           :One line per depth step
~Well	Information	Block							
 #MNEM.UNIT	Data	Type	Information						
 #---------	---------	-------------------------------							
 STRT.F       7800.00000                                                                                     :START DEPTH
 STOP.F       6680.00000                                                                                     :STOP DEPTH
 STEP.F       -0.50000                                                                                       :INCREMENT
 NULL.        -999.25000                                                                                     :NULL DATA VALUE
 COMP.                                                                                                       :COMPANY
 WELL.        Dollie Thorell A4                                                                              :WELL
  FLD.        Wise County                                                                                    :FIELD
  LOC.                                                                                                       :LOCATION
 PROV.                                                                                                       :PROVINCE
 STAT.                                                                                                       :STATE
 CNTY.                                                                                                       :COUNTY
 CTRY.                                                                                                       :COUNTRY
 DATE.                                                                                                       :DATE
  UWI.        4249735151                                                                                     :UNIQUE WELL UWI
  LIC.                                                                                                       :LICENSE NUMBER
  API.        4249735151                                                                                     :API NUMBER
 SRVC.        SLB                                                                                            :SERVICE COMPANY
~Parameter	Information	Block						
#MNEM.UNIT    VALUE                                        :DESCRIPTION
#----.----    ---------------                              :-------------------
~Curve	Information	Block						
#MNEM.UNIT    VALUE                                        :DESCRIPTION
#----.----    ---------------                              :-------------------
 DEPT.F       00 001 00 00                                 :Depth Index
 WTOC.LBF/LBF                                              :1 WEIGHT PERCENT OF TOTAL ORGANIC CARBON
 WQUA.LBF/LBF                                              :2 WEIGHT PERCENT OF QUARTZ
 WPYR.LBF/LBF                                              :3 WEIGHT PERCENT OF PYRITE
 WILL.LBF/LBF                                              :4 WEIGHT PERCENT OF ILLITE
 WDOL.LBF/LBF                                              :5 WEIGHT PERCENT OF DOLOMITE
 WCLC.LBF/LBF                                              :6 WEIGHT PERCENT OF CALCITE
 WCAR.LBF/LBF                                              :7 WEIGHT PERCENT OF CARBONATE
 VXBW.V/V                                                  :8 VOLUME OF BOUND WATER IN FLUSHED ZONE
 VUWA.V/V                                                  :9 VOLUME OF WATER IN UNDISTURBED ZONE
 VUGA.V/V                                                  :10 VOLUME OF GAS IN UNDISTURBED ZONE
 VTOC.V/V                                                  :11 VOLUME OF TOTAL ORGANIC CARBON
 VQUA.V/V                                                  :12 VOLUME OF QUARTZ RELATIVE TO TOTAL VOLUME
 VPYR.V/V                                                  :13 VOLUME OF PYRITE RELATIVE TO TOTAL VOLUME
 VILL.V/V                                                  :14 VOLUME OF ILLITE (DRY) RELATIVE TO TOTAL VOLUME
 VDOL.V/V                                                  :15 VOLUME OF DOLOMITE RELATIVE TO TOTAL VOLUME
 VCLC.V/V                                                  :16 VOLUME OF CALCITE RELATIVE TO TOTAL VOLUME
  VCL.V/V                                                  :17 VOLUME OF CLAY TYPE MATERIAL RELATIVE TO TOTAL VOLUME
 VCAR.V/V                                                  :18 VOLUME FRACTION OF CARBONATE RELATIVE TO TOTAL VOLUME
 TOCH.OHMM                                                 :19 SUMMATION OF WEIGHT PERCENT TOC DECIMAL-FT
   SW.V/V                                                  :20 WATER SATURATION
   SP.MV                                                   :21 SPONTANEOUS POTENTIAL
 RPAH.OHMM                                                 :22 RESERVOIR HEIGHT (FT)
 RHOB.G/C3                                                 :23 BULK DENSITY
 PIGN.V/V                                                  :24 EFFECTIVE "POROSITY," "VISO," "VPAR," AND BOUND WATER REMOVED
 PHIT.V/V                                                  :25 TOTAL POROSITY_ INCLUDES ALL FORMS OF "POROSITY," INCLUDING THAT OCCUPIED BY BOUND "FLUIDS," AND IS INDEPENDENT OF ROCK AND FLUID MATERIALS AND OF ENVIRONMENTAL EFFECTS
  PEF.                                                     :26 PHOTOELECTRIC FACTOR
 NPHI.V/V                                                  :27 THERMAL NEUTRON POROSITY (ORIGINAL RATIO METHOD) IN SELECTED LITHOLOGY
 KINT.MD                                                   :28 INTRINSIC PERMEABILITY
   KH.OHMM                                                 :29 SUMMATION OF PERMEABILITY MD-FT
   GR.GAPI                                                 :30 GAMMA RAY
  GIP.                                                     :31 GAS IN PLACE BCF PER SQUARE MILE
 GASH.OHMM                                                 :32 SUMMATION OF GAS FILLED MATRIX POROSITY DECIMAL-FT
  DTT.US/F                                                 :33 THEORETICAL DT VALUE
 DPHI.V/V                                                  :34 DENSITY POROSITY
 CALI.IN                                                   :35 CALIPER
 AT90.OHMM                                                 :36 AIT TWO FOOT RESISTIVITY A90
 AT60.OHMM                                                 :37 AIT TWO FOOT RESISTIVITY A60
 AT30.OHMM                                                 :38 AIT TWO FOOT RESISTIVITY A30
 AT20.OHMM                                                 :39 AIT TWO FOOT RESISTIVITY A20
 AT10.OHMM                                                 :40 AIT TWO FOOT RESISTIVITY A10
~Ascii   DEPT         WTOC         WQUA         WPYR         WILL         WDOL         WCLC         WCAR         VXBW         VUWA         VUGA         VTOC         VQUA         VPYR         VILL         VDOL         VCLC          VCL         VCAR         TOCH           SW           SP         RPAH         RHOB         PIGN         PHIT          PEF         NPHI         KINT           KH           GR          GIP         GASH          DTT         DPHI         CALI         AT90         AT60         AT30         AT20         AT10																																						
# ...
	7291	0.05423	0.41072	0.02551	0.2275	0	0	0.28203	0.04637	0.01391	0.05068	0.07945	0.36327	0.02	0.18547	0	0	0.23184	0.23693	10.64142	0.20304	-36.375	189	2.489	0.06851	0.11488	3.431	0.146	0.00007	0.04616	151.06799	89.49444	10.00273	82.55439	0.12924	8	126.754	129.119	138.78	142.575	235.694
	7290.5	0.05597	0.4188	0.02558	0.23506	0	0	0.26459	0.04779	0.01434	0.04982	0.08179	0.36951	0.02	0.19117	0	0	0.23896	0.22174	10.6694	0.21083	-36.344	189.5	2.4835	0.06801	0.1158	3.415	0.1505	0.00008	0.0462	153.04849	89.72031	10.02764	83.03822	0.13246	7.988	114.28	117.56351	123.36549	125.929	210.1075
	7290	0.05771	0.42689	0.02564	0.24273	0	0	0.24703	0.04923	0.01477	0.04896	0.08413	0.37572	0.02	0.19692	0	0	0.24615	0.20651	10.69826	0.2188	-36.313	190	2.478	0.0675	0.11673	3.399	0.155	0.0001	0.04626	155.02901	89.94554	10.05212	83.52531	0.13567	7.976	101.806	106.008	107.951	109.283	184.521
	7289.5	0.05849	0.44613	0.02566	0.24042	0	0	0.2293	0.04871	0.01461	0.04905	0.08519	0.39228	0.02	0.19486	0	0	0.24357	0.1915	10.7275	0.21665	-36.188	190.5	2.4755	0.06745	0.11617	3.346	0.1415	0.00012	0.04632	149.42801	90.17196	10.07665	83.56425	0.13713	7.988	104.3055	107.482	109.804	112.709	184.5585
	7289	0.05928	0.46544	0.02569	0.2381	0	0	0.21149	0.0482	0.01446	0.04915	0.08625	0.40888	0.02	0.1928	0	0	0.241	0.17647	10.75714	0.21451	-36.063	191	2.473	0.06741	0.11561	3.293	0.128	0.00014	0.04639	143.827	90.39955	10.10122	83.60352	0.1386	8	106.805	108.956	111.657	116.135	184.59599
	7288.5	0.05508	0.45106	0.02557	0.22933	0	0	0.23895	0.04663	0.01399	0.04995	0.08051	0.39805	0.02	0.18654	0	0	0.23317	0.20029	10.78469	0.20581	-36.188	191.5	2.4865	0.06798	0.11461	3.3215	0.121	0.00011	0.04644	137.80499	90.62467	10.1262	82.76904	0.1307	8	124.9825	118.6835	128.205	130.42551	210.452
	7288	0.05093	0.43686	0.02546	0.22076	0	0	0.266	0.04509	0.01353	0.05075	0.07477	0.38726	0.02	0.18038	0	0	0.22547	0.22396	10.81015	0.19737	-36.313	192	2.5	0.06854	0.11364	3.35	0.114	0.00008	0.04648	131.783	90.84731	10.15158	81.94044	0.12281	8	143.16	128.411	144.75301	144.716	236.308
	7287.5	0.04656	0.38438	0.02529	0.22909	0	0	0.31468	0.04711	0.01413	0.04773	0.06881	0.343	0.02	0.18843	0	0	0.23554	0.26672	10.83343	0.21438	-36.2505	192.5	2.514	0.06592	0.11303	3.506	0.1155	0.00005	0.04651	131.37399	91.05542	10.17544	81.22398	0.11462	7.988	133.9635	127.4485	136.97299	138.4055	223.64301
	7287	0.0422	0.33515	0.0243	0.23712	0	0.01039	0.35084	0.04914	0.01474	0.04329	0.06286	0.30143	0.01937	0.19657	0	0.00914	0.24572	0.2997	10.85453	0.23863	-36.188	192.5	2.528	0.06178	0.11092	3.662	0.117	0.00002	0.04652	130.965	91.24462	10.19709	80.26324	0.10643	7.976	124.767	126.486	129.19299	132.095	210.978
	7286.5	0.03802	0.3363	0.02328	0.23361	0	0.02207	0.34673	0.04884	0.01465	0.03848	0.05712	0.30508	0.01871	0.19534	0	0.01958	0.24418	0.29876	10.87354	0.25899	-36.219	192.5	2.5415	0.05657	0.1054	3.6805	0.113	0.00002	0.04653	127.4335	91.41383	10.21633	78.78007	0.09854	7.976	126.332	131.8275	133.0085	135.991	212.3165
	7286	0.03391	0.33695	0.02227	0.23021	0	0.03461	0.34204	0.04852	0.01456	0.03391	0.05138	0.30821	0.01806	0.1941	0	0.03096	0.24262	0.29717	10.89049	0.28211	-36.25	192.5	2.555	0.0516	0.10013	3.699	0.109	0.00002	0.04654	123.902	91.5638	10.23328	77.33733	0.09064	7.976	127.897	137.16901	136.82401	139.88699	213.655
	7285.5	0.04337	0.3679	0.02511	0.22869	0	0	0.33493	0.04736	0.01421	0.0441	0.06456	0.33066	0.02	0.18945	0	0	0.23682	0.28593	10.91218	0.22905	-36.1565	193	2.524	0.06204	0.1094	3.57	0.112	0.00003	0.04656	128.63499	91.75692	10.25534	80.16428	0.10877	7.988	128.7695	138.75351	137.6895	138.79649	208.922
	7285	0.05301	0.40636	0.02548	0.22662	0	0	0.28852	0.04624	0.01387	0.05064	0.07775	0.35985	0.02	0.18498	0	0	0.23122	0.24268	10.93868	0.20254	-36.063	193.5	2.493	0.0685	0.11474	3.441	0.115	0.00006	0.04659	133.368	91.98176	10.28066	82.354	0.1269	8	129.642	140.338	138.55499	137.70599	204.189
	7284.5	0.05173	0.43295	0.0255	0.23002	0	0	0.2598	0.04691	0.01407	0.04979	0.07583	0.38316	0.02	0.18764	0	0	0.23455	0.21838	10.96455	0.20672	-36.0315	194	2.4975	0.06808	0.11499	3.366	0.115	0.00009	0.04663	130.8595	92.20232	10.30555	82.36349	0.12427	7.988	126.471	134.48801	134.9715	136.1615	199.61899
	7284	0.05046	0.45957	0.02551	0.23343	0	0	0.23103	0.04757	0.01427	0.04894	0.07392	0.40647	0.02	0.1903	0	0	0.23787	0.19408	10.98978	0.21095	-36	194.5	2.502	0.06766	0.11523	3.291	0.115	0.00012	0.04669	128.351	92.4186	10.33002	82.37314	0.12164	7.976	123.3	128.638	131.388	134.617	195.049
	7283.5	0.04848	0.45181	0.02547	0.23827	0	0	0.23597	0.04866	0.0146	0.04751	0.07115	0.40037	0.02	0.19462	0	0	0.24328	0.19861	11.01402	0.21923	-35.969	195	2.5085	0.06658	0.11524	3.316	0.118	0.00011	0.04675	133.50299	92.62807	10.35378	82.16116	0.11784	7.976	118.3365	119.7505	126.233	129.16701	184.8175
	7283	0.04651	0.44405	0.02542	0.24311	0	0	0.24092	0.04974	0.01492	0.04608	0.06839	0.39425	0.02	0.19895	0	0	0.24869	0.20317	11.03727	0.22779	-35.938	195.5	2.515	0.06551	0.11524	3.341	0.121	0.0001	0.0468	138.655	92.83074	10.37682	81.94952	0.11404	7.976	113.373	110.863	121.078	123.717	174.586
	7282.5	0.04645	0.4636	0.02546	0.25153	0	0	0.21296	0.05137	0.01541	0.04486	0.06818	0.41084	0.02	0.20546	0	0	0.25683	0.17926	11.0605	0.23745	-36.0005	196	2.5155	0.0649	0.11626	3.29	0.135	0.00013	0.04687	165.22	93.02945	10.39925	82.27635	0.11374	7.976	103.0275	103.5125	107.61	110.215	154.493
	7282	0.04639	0.48326	0.02551	0.26005	0	0	0.18479	0.05301	0.0159	0.04363	0.06796	0.42747	0.02	0.21203	0	0	0.26503	0.15525	11.08369	0.24736	-36.063	196.5	2.516	0.06429	0.11729	3.239	0.149	0.00016	0.04695	191.785	93.22418	10.42106	82.60633	0.11345	7.976	92.682	96.162	94.142	96.713	134.39999
	7281.5	0.03868	0.47922	0.02521	0.27081	0	0	0.18608	0.05585	0.01676	0.03509	0.05733	0.42891	0.02	0.22341	0	0	0.27927	0.15819	11.10303	0.29759	-36.688	197	2.541	0.05631	0.11216	3.2835	0.133	0.00011	0.047	180.151	93.38315	10.43861	80.91891	0.09883	7.976	87.843	91.3575	91.014	92.0865	125.6635
	7281	0.03114	0.47524	0.02492	0.28137	0	0	0.18733	0.05871	0.01761	0.02655	0.0467	0.43032	0.02	0.23484	0	0	0.29355	0.16111	11.1186	0.36445	-37.313	197.5	2.566	0.04833	0.10704	3.328	0.117	0.00005	0.04703	168.517	93.50632	10.45188	79.23344	0.08421	7.976	83.004	86.553	87.886	87.46	116.927
	7280.5	0.03209	0.43714	0.02489	0.27062	0	0	0.23526	0.05654	0.01696	0.02927	0.04819	0.39632	0.02	0.22615	0	0	0.28268	0.20259	11.13465	0.3377	-38.2505	198	2.5625	0.05022	0.10676	3.4255	0.119	0.00004	0.04705	160.2865	93.63922	10.46652	79.04496	0.08626	7.976	93.8335	98.1245	101.4565	101.2185	135.679
	7280	0.03304	0.39918	0.02486	0.25999	0	0	0.28293	0.05438	0.01632	0.03198	0.04968	0.36235	0.02	0.21753	0	0	0.27192	0.24394	11.15117	0.31302	-39.188	198.5	2.559	0.05212	0.1065	3.523	0.121	0.00003	0.04706	152.056	93.78181	10.48251	78.86118	0.0883	7.976	104.663	109.696	115.027	114.977	154.431
	7279.5	0.04347	0.4216	0.02525	0.25736	0	0	0.25233	0.05301	0.0159	0.03967	0.06435	0.37682	0.02	0.21202	0	0	0.26503	0.21421	11.1729	0.26685	-40.0005	199	2.5245	0.05959	0.1126	3.434	0.123	0.00008	0.0471	144.92801	93.96102	10.50234	81.2383	0.10848	7.964	97.96201	102.53951	107.9985	109.05949	148.96451
	7279	0.05423	0.44473	0.02565	0.2547	0	0	0.22069	0.05164	0.01549	0.04735	0.07902	0.39129	0.02	0.20656	0	0	0.2582	0.18443	11.20002	0.23101	-40.813	199.5	2.49	0.06706	0.1187	3.345	0.125	0.00013	0.04716	137.8	94.17683	10.52602	83.61819	0.12865	7.952	91.261	95.383	100.97	103.142	143.498
	7278.5	0.05154	0.47306	0.02562	0.24103	0	0	0.20875	0.04892	0.01468	0.04993	0.07518	0.41663	0.02	0.19567	0	0	0.24458	0.17462	11.22578	0.21272	-41.969	200	2.4925	0.06899	0.1179	3.261	0.119	0.00014	0.04723	124.22301	94.39725	10.55098	83.08692	0.12719	7.952	99.9775	104.4935	111.358	113.696	154.3795
	7278	0.04885	0.50133	0.0256	0.22744	0	0	0.19679	0.0462	0.01386	0.0525	0.07133	0.44196	0.02	0.18481	0	0	0.23102	0.16478	11.25021	0.19547	-43.125	200.5	2.495	0.07091	0.11712	3.177	0.113	0.00015	0.04731	110.646	94.6223	10.57723	82.55784	0.12573	7.952	108.694	113.604	121.746	124.25	165.261
	7277.5	0.0535	0.55207	0.02573	0.23365	0	0	0.13506	0.04723	0.01417	0.05051	0.07773	0.48427	0.02	0.18892	0	0	0.23615	0.11253	11.27696	0.20439	-44.6875	201	2.4865	0.06932	0.11655	3.0395	0.1205	0.00024	0.04743	120.38901	94.84669	10.60249	83.27281	0.1307	7.952	108.4265	113.0155	116.993	119.994	156.6185
