# LAS format log file from PETREL
# Project units are specified as depth units
#==================================================================
~Version information
VERS.   2.0:
WRAP.   NO:
#==================================================================
~Well
STRT .ft      0.0000000000 :
STOP .ft      11414.000000 :
STEP .ft     0.50000000 :
NULL .        -999.250000 :
COMP.           : COMPANY
WELL.  AMOCO_A-4_294   : WELL
FLD.            : FIELD
LOC.            : LOCATION
SRVC.           : SERVICE COMPANY
DATE.  Wednesday, February 25 2009 13:07:23   : DATE
PROV.           : PROVINCE
UWI.   177014010000   : UNIQUE WELL ID
API.            : API NUMBER
#==================================================================
~Curve
DEPT .ft                   : DEPTH
GR_run2 .gAPI             : GR_run2
GR_run1 .gAPI             : GR_run1
~Parameter
#==================================================================
~Ascii
# ...
 10100.000000 72.779998779  -999.250000
 10100.500000 73.720100403  -999.250000
 10101.000000 74.258102417  -999.250000
 10101.500000 74.401397705  -999.250000
 10102.000000 73.797203064  -999.250000
 10102.500000 73.098800659  -999.250000
 10103.000000 72.427696228  -999.250000
 10103.500000 72.311897278  -999.250000
 10104.000000 73.699203491  -999.250000
 10104.500000 75.088996887  -999.250000
 10105.000000 76.829101563  -999.250000
 10105.500000 75.581497192  -999.250000
 10106.000000 74.294799805  -999.250000
 10106.500000 72.806999207  -999.250000
 10107.000000 72.206497192  -999.250000
 10107.500000 73.785003662  -999.250000
 10108.000000 76.294799805  -999.250000
 10108.500000 78.711502075  -999.250000
 10109.000000 78.740997314  -999.250000
 10109.500000 77.147796631  -999.250000
 10110.000000 75.412498474  -999.250000
 10110.500000 73.285003662  -999.250000
 10111.000000 72.598800659  -999.250000
 10111.500000 72.657501221  -999.250000
 10112.000000 73.728599548  -999.250000
 10112.500000 75.829101563  -999.250000
 10113.000000 77.781402588  -999.250000
 10113.500000 77.726196289  -999.250000
 10114.000000 77.216400146  -999.250000
 10114.500000 77.091300964  -999.250000
 10115.000000 77.000396729  -999.250000
 10115.500000 77.111000061  -999.250000
 10116.000000 77.727401733  -999.250000
 10116.500000 79.319297791  -999.250000
 10117.000000 81.515502930  -999.250000
 10117.500000 81.706703186  -999.250000
 10118.000000 79.618400574  -999.250000
 10118.500000 76.525299072  -999.250000
 10119.000000 73.559402466  -999.250000
 10119.500000 71.142799377  -999.250000
 10120.000000 69.172203064  -999.250000
 10120.500000 68.839103699  -999.250000
 10121.000000 71.010498047  -999.250000
 10121.500000 78.275299072  -999.250000
 10122.000000 82.255699158  -999.250000
 10122.500000 82.658302307  -999.250000
 10123.000000 82.840202332  -999.250000
 10123.500000 83.689598083  -999.250000
 10124.000000 84.704200745  -999.250000
 10124.500000 86.059700012  -999.250000
 10125.000000 85.432296753  -999.250000
 10125.500000 81.177200317  -999.250000
 10126.000000 76.691902161  -999.250000
 10126.500000 74.642799377  -999.250000
 10127.000000 75.731101990  -999.250000
 10127.500000 77.674797058  -999.250000
 10128.000000 78.506202698  -999.250000
 10128.500000 78.046798706  -999.250000
 10129.000000 77.710296631  -999.250000
 10129.500000 78.542396545  -999.250000
 10130.000000 80.456703186  -999.250000
 10130.500000 82.525299072  -999.250000
 10131.000000 81.388099670  -999.250000
 10131.500000 78.319297791  -999.250000
 10132.000000 75.819297791  -999.250000
 10132.500000 72.838897705  -999.250000
 10133.000000 71.193496704  -999.250000
 10133.500000 71.917396545  -999.250000
 10134.000000 73.537498474  -999.250000
 10134.500000 75.162498474  -999.250000
 10135.000000 76.684600830  -999.250000
 10135.500000 78.205398560  -999.250000
 10136.000000 78.166297913  -999.250000
 10136.500000 77.064498901  -999.250000
 10137.000000 76.005599976  -999.250000
 10137.500000 75.308097839  -999.250000
 10138.000000 75.341903687  -999.250000
 10138.500000 75.467697144  -999.250000
 10139.000000 76.450401306  -999.250000
 10139.500000 77.433296204  -999.250000
 10140.000000 79.299797058  -999.250000
 10140.500000 78.961502075  -999.250000
 10141.000000 76.535003662  -999.250000
 10141.500000 75.030197144  -999.250000
 10142.000000 75.311996460  -999.250000
 10142.500000 77.598800659  -999.250000
 10143.000000 77.015403748  -999.250000
 10143.500000 74.525100708  -999.250000
 10144.000000 72.836402893  -999.250000
 10144.500000 72.802101135  -999.250000
 10145.000000 73.585197449  -999.250000
 10145.500000 73.299697876  -999.250000
 10146.000000 72.255599976  -999.250000
 10146.500000 71.277603149  -999.250000
 10147.000000 70.550903320  -999.250000
 10147.500000 71.245697021  -999.250000
 10148.000000 74.133102417  -999.250000
 10148.500000 77.314498901  -999.250000
 10149.000000 77.645401001  -999.250000
 10149.500000 76.544799805  -999.250000
 10150.000000 76.043601990  -999.250000
 10150.500000 75.863197327  -999.250000
 10151.000000 76.123901367  -999.250000
 10151.500000 76.613502502  -999.250000
 10152.000000 77.324203491  -999.250000
 10152.500000 79.466400146  -999.250000
 10153.000000 79.711502075  -999.250000
 10153.500000 77.711502075  -999.250000
 10154.000000 75.422203064  -999.250000
 10154.500000 74.133102417  -999.250000
 10155.000000 74.245697021  -999.250000
 10155.500000 74.115798950  -999.250000
 10156.000000 72.875602722  -999.250000
 10156.500000 71.456497192  -999.250000
 10157.000000 70.223602295  -999.250000
 10157.500000 69.440597534  -999.250000
 10158.000000 69.211097717  -999.250000
 10158.500000 69.159698486  -999.250000
 10159.000000 70.174697876  -999.250000
 10159.500000 71.481101990  -999.250000
 10160.000000 72.775100708  -999.250000
 10160.500000 74.061996460  -999.250000
 10161.000000 75.944297791  -999.250000
 10161.500000 79.486099243  -999.250000
 10162.000000 81.520401001  -999.250000
 10162.500000 81.976303101  -999.250000
 10163.000000 79.912498474  -999.250000
 10163.500000 77.598800659  -999.250000
 10164.000000 77.338996887  -999.250000
 10164.500000 79.613502502  -999.250000
 10165.000000 80.641700745  -999.250000
 10165.500000 79.520401001  -999.250000
 10166.000000 77.740997314  -999.250000
 10166.500000 75.804702759  -999.250000
 10167.000000 74.617103577  -999.250000
 10167.500000 75.340202332  -999.250000
 10168.000000 76.330299377  -999.250000
 10168.500000 76.628799438  -999.250000
 10169.000000 76.763496399  -999.250000
 10169.500000 76.424697876  -999.250000
 10170.000000 76.061401367  -999.250000
 10170.500000 74.956497192  -999.250000
 10171.000000 73.662498474  -999.250000
 10171.500000 71.986000061  -999.250000
 10172.000000 69.177101135  -999.250000
 10172.500000 67.302101135  -999.250000
 10173.000000 66.522003174  -999.250000
 10173.500000 68.162399292  -999.250000
 10174.000000 70.539802551  -999.250000
 10174.500000 72.660003662  -999.250000
 10175.000000 71.353599548  -999.250000
 10175.500000 69.856101990  -999.250000
 10176.000000 68.422096252  -999.250000
 10176.500000 67.120697021  -999.250000
 10177.000000 66.471199036  -999.250000
 10177.500000 65.958297729  -999.250000
 10178.000000 65.496902466  -999.250000
 10178.500000 64.657501221  -999.250000
 10179.000000 63.015300751  -999.250000
 10179.500000 60.855899811  -999.250000
 10180.000000 59.411399841  -999.250000
 10180.500000 60.635299683  -999.250000
 10181.000000 62.588798523  -999.250000
 10181.500000 64.750602722  -999.250000
 10182.000000 65.618202209  -999.250000
 10182.500000 66.539802551  -999.250000
 10183.000000 67.477302551  -999.250000
 10183.500000 68.628097534  -999.250000
 10184.000000 69.049697876  -999.250000
 10184.500000 67.483398438  -999.250000
 10185.000000 66.208900452  -999.250000
 10185.500000 65.905502319  -999.250000
 10186.000000 66.142700195  -999.250000
 10186.500000 68.598602295  -999.250000
 10187.000000 71.059402466  -999.250000
 10187.500000 73.535003662  -999.250000
 10188.000000 75.853599548  -999.250000
 10188.500000 75.260498047  -999.250000
 10189.000000 72.500602722  -999.250000
 10189.500000 70.365798950  -999.250000
 10190.000000 70.444198608  -999.250000
 10190.500000 72.265403748  -999.250000
 10191.000000 74.486000061  -999.250000
 10191.500000 76.254402161  -999.250000
 10192.000000 74.907600403  -999.250000
 10192.500000 73.618301392  -999.250000
 10193.000000 72.607299805  -999.250000
 10193.500000 71.901397705  -999.250000
 10194.000000 71.419197083  -999.250000
 10194.500000 70.775100708  -999.250000
 10195.000000 69.211402893  -999.250000
 10195.500000 67.724899292  -999.250000
 10196.000000 67.126800537  -999.250000
 10196.500000 67.422096252  -999.250000
 10197.000000 68.458999634  -999.250000
 10197.500000 69.552101135  -999.250000
 10198.000000 67.735801697  -999.250000
 10198.500000 65.510398865  -999.250000
 10199.000000 64.507896423  -999.250000
 10199.500000 63.672100067  -999.250000
