# LAS format log file from PETREL
# Project units are specified as depth units
#==================================================================
~Version information
VERS.   2.0:
WRAP.   NO:
#==================================================================
~Well
STRT .ft      0.0000000000 :
STOP .ft      11414.000000 :
STEP .ft     0.50000000 :
NULL .        -999.250000 :
COMP.           : COMPANY
WELL.  AMOCO_A-4_294   : WELL
FLD.            : FIELD
LOC.            : LOCATION
SRVC.           : SERVICE COMPANY
DATE.  Wednesday, February 25 2009 13:07:23   : DATE
PROV.           : PROVINCE
UWI.   177014010000   : UNIQUE WELL ID
API.            : API NUMBER
#==================================================================
~Curve
DEPT .ft                   : DEPTH
GR_run2 .gAPI             : GR_run2
GR_run1 .gAPI             : GR_run1
~Parameter
#==================================================================
~Ascii
# ...
 2500.0000000  -999.250000 77.519798279
 2500.5000000  -999.250000 71.832901001
 2501.0000000  -999.250000 65.102203369
 2501.5000000  -999.250000 56.359001160
 2502.0000000  -999.250000 50.086399078
 2502.5000000  -999.250000 46.694698334
 2503.0000000  -999.250000 44.229198456
 2503.5000000  -999.250000 42.008998871
 2504.0000000  -999.250000 40.070999146
 2504.5000000  -999.250000 38.470901489
 2505.0000000  -999.250000 37.827999115
 2505.5000000  -999.250000 38.187099457
 2506.0000000  -999.250000 38.569900513
 2506.5000000  -999.250000 38.682300568
 2507.0000000  -999.250000 38.596900940
 2507.5000000  -999.250000 38.863201141
 2508.0000000  -999.250000 39.311298370
 2508.5000000  -999.250000 39.593399048
 2509.0000000  -999.250000 39.492500305
 2509.5000000  -999.250000 39.407901764
 2510.0000000  -999.250000 39.380901337
 2510.5000000  -999.250000 39.457298279
 2511.0000000  -999.250000 39.755298615
 2511.5000000  -999.250000 40.503101349
 2512.0000000  -999.250000 41.536899567
 2512.5000000  -999.250000 42.441398621
 2513.0000000  -999.250000 43.228599548
 2513.5000000  -999.250000 43.711898804
 2514.0000000  -999.250000 43.733001709
 2514.5000000  -999.250000 43.125701904
 2515.0000000  -999.250000 42.552898407
 2515.5000000  -999.250000 43.023399353
 2516.0000000  -999.250000 43.407100677
 2516.5000000  -999.250000 43.537101746
 2517.0000000  -999.250000 42.896701813
 2517.5000000  -999.250000 41.505199432
 2518.0000000  -999.250000 41.439300537
 2518.5000000  -999.250000 41.901100159
 2519.0000000  -999.250000 42.182300568
 2519.5000000  -999.250000 42.286201477
 2520.0000000  -999.250000 42.558601379
 2520.5000000  -999.250000 42.895999908
 2521.0000000  -999.250000 43.778701782
 2521.5000000  -999.250000 44.873699188
 2522.0000000  -999.250000 45.930099487
 2522.5000000  -999.250000 48.454299927
 2523.0000000  -999.250000 51.834701538
 2523.5000000  -999.250000 54.215801239
 2524.0000000  -999.250000 55.905300140
 2524.5000000  -999.250000 57.515399933
 2525.0000000  -999.250000 58.997200012
 2525.5000000  -999.250000 59.099899292
 2526.0000000  -999.250000 57.352699280
 2526.5000000  -999.250000 54.107498169
 2527.0000000  -999.250000 50.757099152
 2527.5000000  -999.250000 48.575698853
 2528.0000000  -999.250000 47.266700745
 2528.5000000  -999.250000 46.500099182
 2529.0000000  -999.250000 45.354198456
 2529.5000000  -999.250000 45.324699402
 2530.0000000  -999.250000 45.295200348
 2530.5000000  -999.250000 45.409500122
 2531.0000000  -999.250000 45.709300995
 2531.5000000  -999.250000 45.461200714
 2532.0000000  -999.250000 45.417198181
 2532.5000000  -999.250000 46.014801025
 2533.0000000  -999.250000 46.420299530
 2533.5000000  -999.250000 46.304599762
 2534.0000000  -999.250000 44.757301331
 2534.5000000  -999.250000 42.552200317
 2535.0000000  -999.250000 41.661399841
 2535.5000000  -999.250000 41.110099792
 2536.0000000  -999.250000 40.198101044
 2536.5000000  -999.250000 38.923301697
 2537.0000000  -999.250000 37.742599487
 2537.5000000  -999.250000 36.917198181
 2538.0000000  -999.250000 36.288299561
 2538.5000000  -999.250000 36.083301544
 2539.0000000  -999.250000 36.708198547
 2539.5000000  -999.250000 38.425899506
 2540.0000000  -999.250000 40.493999481
 2540.5000000  -999.250000 41.818500519
 2541.0000000  -999.250000 42.033100128
 2541.5000000  -999.250000 41.284698486
 2542.0000000  -999.250000 40.428001404
 2542.5000000  -999.250000 40.476200104
 2543.0000000  -999.250000 41.276901245
 2543.5000000  -999.250000 41.584999084
 2544.0000000  -999.250000 41.191101074
 2544.5000000  -999.250000 40.567298889
 2545.0000000  -999.250000 39.966201782
 2545.5000000  -999.250000 39.608501434
 2546.0000000  -999.250000 39.892700195
 2546.5000000  -999.250000 41.073501587
 2547.0000000  -999.250000 42.469501495
 2547.5000000  -999.250000 43.019599915
 2548.0000000  -999.250000 42.375099182
 2548.5000000  -999.250000 40.681198120
 2549.0000000  -999.250000 39.538799286
 2549.5000000  -999.250000 39.029399872
 2550.0000000  -999.250000 40.162998199
 2550.5000000  -999.250000 41.220798492
 2551.0000000  -999.250000 41.336601257
 2551.5000000  -999.250000 40.666099548
 2552.0000000  -999.250000 39.819801331
 2552.5000000  -999.250000 39.363899231
 2553.0000000  -999.250000 39.558399200
 2553.5000000  -999.250000 39.790798187
 2554.0000000  -999.250000 39.522499084
 2554.5000000  -999.250000 39.288600922
 2555.0000000  -999.250000 40.687400818
 2555.5000000  -999.250000 44.359401703
 2556.0000000  -999.250000 48.653400421
 2556.5000000  -999.250000 51.187099457
 2557.0000000  -999.250000 52.404201508
 2557.5000000  -999.250000 53.087501526
 2558.0000000  -999.250000 53.561500549
 2558.5000000  -999.250000 53.833400726
 2559.0000000  -999.250000 52.108798981
 2559.5000000  -999.250000 49.128898621
 2560.0000000  -999.250000 45.796100616
 2560.5000000  -999.250000 41.867599487
 2561.0000000  -999.250000 40.127300262
 2561.5000000  -999.250000 39.580001831
 2562.0000000  -999.250000 39.879199982
 2562.5000000  -999.250000 40.488998413
 2563.0000000  -999.250000 39.914199829
 2563.5000000  -999.250000 39.416099548
 2564.0000000  -999.250000 39.272499084
 2564.5000000  -999.250000 39.951499939
 2565.0000000  -999.250000 40.560100555
 2565.5000000  -999.250000 39.350200653
 2566.0000000  -999.250000 37.564800262
 2566.5000000  -999.250000 36.718799591
 2567.0000000  -999.250000 37.053100586
 2567.5000000  -999.250000 36.511001587
 2568.0000000  -999.250000 35.556198120
 2568.5000000  -999.250000 34.788299561
 2569.0000000  -999.250000 34.364601135
 2569.5000000  -999.250000 34.509201050
 2570.0000000  -999.250000 34.464500427
 2570.5000000  -999.250000 33.768299103
 2571.0000000  -999.250000 32.684501648
 2571.5000000  -999.250000 32.062801361
 2572.0000000  -999.250000 31.954999924
 2572.5000000  -999.250000 32.166099548
 2573.0000000  -999.250000 32.645401001
 2573.5000000  -999.250000 33.388801575
 2574.0000000  -999.250000 33.767200470
 2574.5000000  -999.250000 33.038700104
 2575.0000000  -999.250000 32.377899170
 2575.5000000  -999.250000 31.862600327
 2576.0000000  -999.250000 31.400100708
 2576.5000000  -999.250000 31.096599579
 2577.0000000  -999.250000 31.533800125
 2577.5000000  -999.250000 32.196098328
 2578.0000000  -999.250000 32.283100128
 2578.5000000  -999.250000 31.927999496
 2579.0000000  -999.250000 31.195199966
 2579.5000000  -999.250000 30.291599274
 2580.0000000  -999.250000 29.671600342
 2580.5000000  -999.250000 30.117799759
 2581.0000000  -999.250000 30.493400574
 2581.5000000  -999.250000 30.817399979
 2582.0000000  -999.250000 30.797199249
 2582.5000000  -999.250000 30.537500381
 2583.0000000  -999.250000 30.134199142
 2583.5000000  -999.250000 29.698299408
 2584.0000000  -999.250000 29.452999115
 2584.5000000  -999.250000 30.705200195
 2585.0000000  -999.250000 31.980499268
 2585.5000000  -999.250000 32.677898407
 2586.0000000  -999.250000 32.620800018
 2586.5000000  -999.250000 32.104999542
 2587.0000000  -999.250000 30.705200195
 2587.5000000  -999.250000 29.963600159
 2588.0000000  -999.250000 30.577600479
 2588.5000000  -999.250000 31.445800781
 2589.0000000  -999.250000 32.248401642
 2589.5000000  -999.250000 33.178501129
 2590.0000000  -999.250000 34.068698883
 2590.5000000  -999.250000 34.796600342
 2591.0000000  -999.250000 35.262298584
 2591.5000000  -999.250000 35.839599609
 2592.0000000  -999.250000 36.986301422
 2592.5000000  -999.250000 37.879600525
 2593.0000000  -999.250000 38.109298706
 2593.5000000  -999.250000 36.464698792
 2594.0000000  -999.250000 34.562400818
 2594.5000000  -999.250000 33.236099243
 2595.0000000  -999.250000 32.937900543
 2595.5000000  -999.250000 33.129798889
 2596.0000000  -999.250000 33.673801422
 2596.5000000  -999.250000 34.910900116
 2597.0000000  -999.250000 36.446601868
 2597.5000000  -999.250000 37.493198395
 2598.0000000  -999.250000 37.850498199
 2598.5000000  -999.250000 36.853900909
 2599.0000000  -999.250000 35.392799377
 2599.5000000  -999.250000 34.496700287
