# LAS format log file from PETREL
# Project units are specified as depth units
#==================================================================
~Version information
VERS.   2.0:
WRAP.   NO:
#==================================================================
~Well
STRT .ft      0.0000000000 :
STOP .ft      11414.000000 :
STEP .ft     0.50000000 :
NULL .        -999.250000 :
COMP.           : COMPANY
WELL.  AMOCO_A-4_294   : WELL
FLD.            : FIELD
LOC.            : LOCATION
SRVC.           : SERVICE COMPANY
DATE.  Wednesday, February 25 2009 13:07:23   : DATE
PROV.           : PROVINCE
UWI.   177014010000   : UNIQUE WELL ID
API.            : API NUMBER
#==================================================================
~Curve
DEPT .ft                   : DEPTH
GR_run2 .gAPI             : GR_run2
GR_run1 .gAPI             : GR_run1
~Parameter
#==================================================================
~Ascii
# ...
 1400.0000000  -999.250000 87.447799683
 1400.5000000  -999.250000 85.833602905
 1401.0000000  -999.250000 84.199203491
 1401.5000000  -999.250000 82.562400818
 1402.0000000  -999.250000 81.982200623
 1402.5000000  -999.250000 82.282203674
 1403.0000000  -999.250000 82.224403381
 1403.5000000  -999.250000 81.396499634
 1404.0000000  -999.250000 80.256797791
 1404.5000000  -999.250000 79.307502747
 1405.0000000  -999.250000 78.980796814
 1405.5000000  -999.250000 79.583999634
 1406.0000000  -999.250000 79.973396301
 1406.5000000  -999.250000 79.927001953
 1407.0000000  -999.250000 79.257698059
 1407.5000000  -999.250000 78.368499756
 1408.0000000  -999.250000 77.684402466
 1408.5000000  -999.250000 77.344100952
 1409.0000000  -999.250000 77.395500183
 1409.5000000  -999.250000 78.005500793
 1410.0000000  -999.250000 78.660896301
 1410.5000000  -999.250000 79.355201721
 1411.0000000  -999.250000 80.202301025
 1411.5000000  -999.250000 80.150001526
 1412.0000000  -999.250000 79.648300171
 1412.5000000  -999.250000 80.246498108
 1413.0000000  -999.250000 82.664199829
 1413.5000000  -999.250000 84.701499939
 1414.0000000  -999.250000 85.133201599
 1414.5000000  -999.250000 83.176399231
 1415.0000000  -999.250000 80.762496948
 1415.5000000  -999.250000 78.244102478
 1416.0000000  -999.250000 74.966697693
 1416.5000000  -999.250000 71.476699829
 1417.0000000  -999.250000 69.480201721
 1417.5000000  -999.250000 69.425399780
 1418.0000000  -999.250000 71.951202393
 1418.5000000  -999.250000 76.033798218
 1419.0000000  -999.250000 80.277198792
 1419.5000000  -999.250000 83.134300232
 1420.0000000  -999.250000 84.522598267
 1420.5000000  -999.250000 85.240097046
 1421.0000000  -999.250000 85.957603455
 1421.5000000  -999.250000 86.449203491
 1422.0000000  -999.250000 86.308296204
 1422.5000000  -999.250000 85.439903259
 1423.0000000  -999.250000 84.642601013
 1423.5000000  -999.250000 84.006202698
 1424.0000000  -999.250000 83.613601685
 1424.5000000  -999.250000 83.294601440
 1425.0000000  -999.250000 82.593803406
 1425.5000000  -999.250000 81.836898804
 1426.0000000  -999.250000 74.586997986
 1426.5000000  -999.250000 70.175796509
 1427.0000000  -999.250000 68.545196533
 1427.5000000  -999.250000 70.828697205
 1428.0000000  -999.250000 75.070899963
 1428.5000000  -999.250000 79.916496277
 1429.0000000  -999.250000 85.213302612
 1429.5000000  -999.250000 88.104202271
 1430.0000000  -999.250000 90.435897827
 1430.5000000  -999.250000 90.034896851
 1431.0000000  -999.250000 85.889503479
 1431.5000000  -999.250000 78.018402100
 1432.0000000  -999.250000 73.180496216
 1432.5000000  -999.250000 71.393096924
 1433.0000000  -999.250000 71.220596313
 1433.5000000  -999.250000 71.874603271
 1434.0000000  -999.250000 72.256797791
 1434.5000000  -999.250000 72.088500977
 1435.0000000  -999.250000 70.195198059
 1435.5000000  -999.250000 67.505401611
 1436.0000000  -999.250000 65.660202026
 1436.5000000  -999.250000 65.200103760
 1437.0000000  -999.250000 66.634300232
 1437.5000000  -999.250000 68.236000061
 1438.0000000  -999.250000 69.358802795
 1438.5000000  -999.250000 70.370597839
 1439.0000000  -999.250000 71.167396545
 1439.5000000  -999.250000 71.882598877
 1440.0000000  -999.250000 72.569602966
 1440.5000000  -999.250000 73.063598633
 1441.0000000  -999.250000 72.945602417
 1441.5000000  -999.250000 72.338897705
 1442.0000000  -999.250000 71.366699219
 1442.5000000  -999.250000 69.821899414
 1443.0000000  -999.250000 68.354103088
 1443.5000000  -999.250000 68.764801025
 1444.0000000  -999.250000 71.146697998
 1444.5000000  -999.250000 73.266601563
 1445.0000000  -999.250000 76.133697510
 1445.5000000  -999.250000 78.301902771
 1446.0000000  -999.250000 80.321899414
 1446.5000000  -999.250000 82.776603699
 1447.0000000  -999.250000 84.890899658
 1447.5000000  -999.250000 86.552902222
 1448.0000000  -999.250000 87.486099243
 1448.5000000  -999.250000 85.726097107
 1449.0000000  -999.250000 83.497596741
 1449.5000000  -999.250000 81.837196350
 1450.0000000  -999.250000 80.907699585
 1450.5000000  -999.250000 82.085700989
 1451.0000000  -999.250000 83.146499634
 1451.5000000  -999.250000 83.482200623
 1452.0000000  -999.250000 82.085296631
 1452.5000000  -999.250000 79.301101685
 1453.0000000  -999.250000 76.986198425
 1453.5000000  -999.250000 75.211402893
 1454.0000000  -999.250000 73.179199219
 1454.5000000  -999.250000 71.246696472
 1455.0000000  -999.250000 70.058799744
 1455.5000000  -999.250000 71.460296631
 1456.0000000  -999.250000 74.654899597
 1456.5000000  -999.250000 78.402496338
 1457.0000000  -999.250000 82.180900574
 1457.5000000  -999.250000 84.484901428
 1458.0000000  -999.250000 87.109397888
 1458.5000000  -999.250000 89.627700806
 1459.0000000  -999.250000 91.170402527
 1459.5000000  -999.250000 91.668296814
 1460.0000000  -999.250000 91.046798706
 1460.5000000  -999.250000 89.237396240
 1461.0000000  -999.250000 87.103103638
 1461.5000000  -999.250000 85.128402710
 1462.0000000  -999.250000 83.978897095
 1462.5000000  -999.250000 84.345703125
 1463.0000000  -999.250000 84.644798279
 1463.5000000  -999.250000 83.217903137
 1464.0000000  -999.250000 79.267898560
 1464.5000000  -999.250000 73.063598633
 1465.0000000  -999.250000 70.461196899
 1465.5000000  -999.250000 69.757102966
 1466.0000000  -999.250000 69.611198425
 1466.5000000  -999.250000 69.867103577
 1467.0000000  -999.250000 71.491203308
 1467.5000000  -999.250000 74.630996704
 1468.0000000  -999.250000 77.767700195
 1468.5000000  -999.250000 79.465797424
 1469.0000000  -999.250000 80.359397888
 1469.5000000  -999.250000 81.415603638
 1470.0000000  -999.250000 83.148101807
 1470.5000000  -999.250000 85.209800720
 1471.0000000  -999.250000 85.895797729
 1471.5000000  -999.250000 84.529800415
 1472.0000000  -999.250000 82.780197144
 1472.5000000  -999.250000 80.751098633
 1473.0000000  -999.250000 79.397102356
 1473.5000000  -999.250000 79.457603455
 1474.0000000  -999.250000 80.167098999
 1474.5000000  -999.250000 80.709999084
 1475.0000000  -999.250000 81.285598755
 1475.5000000  -999.250000 81.957000732
 1476.0000000  -999.250000 82.638099670
 1476.5000000  -999.250000 82.813102722
 1477.0000000  -999.250000 82.152198792
 1477.5000000  -999.250000 81.672996521
 1478.0000000  -999.250000 82.536102295
 1478.5000000  -999.250000 83.186401367
 1479.0000000  -999.250000 80.788803101
 1479.5000000  -999.250000 77.434700012
 1480.0000000  -999.250000 74.988296509
 1480.5000000  -999.250000 74.302200317
 1481.0000000  -999.250000 76.040603638
 1481.5000000  -999.250000 78.664596558
 1482.0000000  -999.250000 80.212196350
 1482.5000000  -999.250000 80.721702576
 1483.0000000  -999.250000 80.646697998
 1483.5000000  -999.250000 80.602096558
 1484.0000000  -999.250000 80.451896667
 1484.5000000  -999.250000 78.692901611
 1485.0000000  -999.250000 73.619102478
 1485.5000000  -999.250000 67.776901245
 1486.0000000  -999.250000 65.616798401
 1486.5000000  -999.250000 66.343299866
 1487.0000000  -999.250000 69.953201294
 1487.5000000  -999.250000 73.594001770
 1488.0000000  -999.250000 76.150001526
 1488.5000000  -999.250000 77.861701965
 1489.0000000  -999.250000 79.012100220
 1489.5000000  -999.250000 79.924697876
 1490.0000000  -999.250000 81.060798645
 1490.5000000  -999.250000 81.507003784
 1491.0000000  -999.250000 82.098899841
 1491.5000000  -999.250000 83.442901611
 1492.0000000  -999.250000 85.411903381
 1492.5000000  -999.250000 87.197402954
 1493.0000000  -999.250000 86.681999207
 1493.5000000  -999.250000 85.131202698
 1494.0000000  -999.250000 83.721900940
 1494.5000000  -999.250000 82.732398987
 1495.0000000  -999.250000 81.572898865
 1495.5000000  -999.250000 80.560302734
 1496.0000000  -999.250000 80.349197388
 1496.5000000  -999.250000 79.880401611
 1497.0000000  -999.250000 76.867103577
 1497.5000000  -999.250000 72.745597839
 1498.0000000  -999.250000 71.233497620
 1498.5000000  -999.250000 71.408203125
 1499.0000000  -999.250000 72.275001526
 1499.5000000  -999.250000 72.518997192
