# LAS format log file from PETREL
# Project units are specified as depth units
#==================================================================
~Version information
VERS.   2.0:
WRAP.   NO:
#==================================================================
~Well
STRT .ft      0.0000000000 :
STOP .ft      11414.000000 :
STEP .ft     0.50000000 :
NULL .        -999.250000 :
COMP.           : COMPANY
WELL.  AMOCO_A-4_294   : WELL
FLD.            : FIELD
LOC.            : LOCATION
SRVC.           : SERVICE COMPANY
DATE.  Wednesday, February 25 2009 13:07:23   : DATE
PROV.           : PROVINCE
UWI.   177014010000   : UNIQUE WELL ID
API.            : API NUMBER
#==================================================================
~Curve
DEPT .ft                   : DEPTH
GR_run2 .gAPI             : GR_run2
GR_run1 .gAPI             : GR_run1
~Parameter
#==================================================================
~Ascii
# ...
 3700.0000000  -999.250000 97.712898254
 3700.5000000  -999.250000 91.263099670
 3701.0000000  -999.250000 79.639801025
 3701.5000000  -999.250000 69.798500061
 3702.0000000  -999.250000 63.263500214
 3702.5000000  -999.250000 57.519401550
 3703.0000000  -999.250000 52.268398285
 3703.5000000  -999.250000 45.440601349
 3704.0000000  -999.250000 42.808200836
 3704.5000000  -999.250000 43.268100739
 3705.0000000  -999.250000 46.854698181
 3705.5000000  -999.250000 51.777801514
 3706.0000000  -999.250000 59.066200256
 3706.5000000  -999.250000 70.198997498
 3707.0000000  -999.250000 80.753501892
 3707.5000000  -999.250000 81.034400940
 3708.0000000  -999.250000 79.339401245
 3708.5000000  -999.250000 76.708900452
 3709.0000000  -999.250000 74.813003540
 3709.5000000  -999.250000 75.607696533
 3710.0000000  -999.250000 79.311897278
 3710.5000000  -999.250000 83.779502869
 3711.0000000  -999.250000 88.144500732
 3711.5000000  -999.250000 90.628501892
 3712.0000000  -999.250000 91.233001709
 3712.5000000  -999.250000 88.990501404
 3713.0000000  -999.250000 86.044601440
 3713.5000000  -999.250000 84.598297119
 3714.0000000  -999.250000 85.716697693
 3714.5000000  -999.250000 89.010498047
 3715.0000000  -999.250000 93.375503540
 3715.5000000  -999.250000 96.686798096
 3716.0000000  -999.250000 97.511497498
 3716.5000000  -999.250000 96.014801025
 3717.0000000  -999.250000 93.901100159
 3717.5000000  -999.250000 92.255500793
 3718.0000000  -999.250000 91.259902954
 3718.5000000  -999.250000 91.734901428
 3719.0000000  -999.250000 92.198600769
 3719.5000000  -999.250000 91.842796326
 3720.0000000  -999.250000 91.272697449
 3720.5000000  -999.250000 90.657699585
 3721.0000000  -999.250000 90.560897827
 3721.5000000  -999.250000 90.647697449
 3722.0000000  -999.250000 91.310302734
 3722.5000000  -999.250000 92.428703308
 3723.0000000  -999.250000 93.770896912
 3723.5000000  -999.250000 93.698402405
 3724.0000000  -999.250000 92.978103638
 3724.5000000  -999.250000 93.411697388
 3725.0000000  -999.250000 95.576797485
 3725.5000000  -999.250000 96.772499084
 3726.0000000  -999.250000 96.984001160
 3726.5000000  -999.250000 96.349502563
 3727.0000000  -999.250000 95.806999207
 3727.5000000  -999.250000 95.372100830
 3728.0000000  -999.250000 95.498497009
 3728.5000000  -999.250000 96.101097107
 3729.0000000  -999.250000 96.406700134
 3729.5000000  -999.250000 96.760902405
 3730.0000000  -999.250000 97.420799255
 3730.5000000  -999.250000 98.425003052
 3731.0000000  -999.250000 99.851898193
 3731.5000000  -999.250000 100.39360046
 3732.0000000  -999.250000 100.14759827
 3732.5000000  -999.250000 99.700599670
 3733.0000000  -999.250000 99.179901123
 3733.5000000  -999.250000 98.659301758
 3734.0000000  -999.250000 98.271697998
 3734.5000000  -999.250000 99.242202759
 3735.0000000  -999.250000 100.98169708
 3735.5000000  -999.250000 101.41580200
 3736.0000000  -999.250000 100.57309723
 3736.5000000  -999.250000 99.436798096
 3737.0000000  -999.250000 99.941802979
 3737.5000000  -999.250000 101.47090149
 3738.0000000  -999.250000 102.56009674
 3738.5000000  -999.250000 101.32460022
 3739.0000000  -999.250000 98.569000244
 3739.5000000  -999.250000 96.493202209
 3740.0000000  -999.250000 96.089797974
 3740.5000000  -999.250000 95.425300598
 3741.0000000  -999.250000 94.524902344
 3741.5000000  -999.250000 93.790397644
 3742.0000000  -999.250000 94.155403137
 3742.5000000  -999.250000 94.806503296
 3743.0000000  -999.250000 95.538002014
 3743.5000000  -999.250000 96.257003784
 3744.0000000  -999.250000 96.942398071
 3744.5000000  -999.250000 97.254898071
 3745.0000000  -999.250000 96.893302917
 3745.5000000  -999.250000 96.627098083
 3746.0000000  -999.250000 97.172401428
 3746.5000000  -999.250000 98.549003601
 3747.0000000  -999.250000 99.503799438
 3747.5000000  -999.250000 99.858497620
 3748.0000000  -999.250000 100.15139771
 3748.5000000  -999.250000 100.22989655
 3749.0000000  -999.250000 99.765899658
 3749.5000000  -999.250000 99.194000244
 3750.0000000  -999.250000 99.487396240
 3750.5000000  -999.250000 100.83280182
 3751.0000000  -999.250000 101.81690216
 3751.5000000  -999.250000 101.62429810
 3752.0000000  -999.250000 100.82839966
 3752.5000000  -999.250000 100.05290222
 3753.0000000  -999.250000 100.73829651
 3753.5000000  -999.250000 101.53260040
 3754.0000000  -999.250000 101.93769836
 3754.5000000  -999.250000 101.77760315
 3755.0000000  -999.250000 101.12300110
 3755.5000000  -999.250000 99.190902710
 3756.0000000  -999.250000 96.296401978
 3756.5000000  -999.250000 94.607498169
 3757.0000000  -999.250000 96.599098206
 3757.5000000  -999.250000 101.39720154
 3758.0000000  -999.250000 108.78520203
 3758.5000000  -999.250000 111.70429993
 3759.0000000  -999.250000 110.14009857
 3759.5000000  -999.250000 105.80729675
 3760.0000000  -999.250000 100.69380188
 3760.5000000  -999.250000 96.759399414
 3761.0000000  -999.250000 96.759399414
 3761.5000000  -999.250000 97.789901733
 3762.0000000  -999.250000 98.329597473
 3762.5000000  -999.250000 97.597801208
 3763.0000000  -999.250000 96.445198059
 3763.5000000  -999.250000 95.632400513
 3764.0000000  -999.250000 95.105003357
 3764.5000000  -999.250000 94.861602783
 3765.0000000  -999.250000 94.828598022
 3765.5000000  -999.250000 94.925498962
 3766.0000000  -999.250000 95.197898865
 3766.5000000  -999.250000 96.030998230
 3767.0000000  -999.250000 97.284896851
 3767.5000000  -999.250000 97.964500427
 3768.0000000  -999.250000 97.351898193
 3768.5000000  -999.250000 96.917396545
 3769.0000000  -999.250000 96.384902954
 3769.5000000  -999.250000 95.312103271
 3770.0000000  -999.250000 93.473098755
 3770.5000000  -999.250000 92.071502686
 3771.0000000  -999.250000 93.130203247
 3771.5000000  -999.250000 94.259002686
 3772.0000000  -999.250000 95.261398315
 3772.5000000  -999.250000 97.460197449
 3773.0000000  -999.250000 101.75009918
 3773.5000000  -999.250000 106.49299622
 3774.0000000  -999.250000 108.80809784
 3774.5000000  -999.250000 109.07089996
 3775.0000000  -999.250000 108.42459869
 3775.5000000  -999.250000 107.53980255
 3776.0000000  -999.250000 106.09629822
 3776.5000000  -999.250000 103.65720367
 3777.0000000  -999.250000 100.55370331
 3777.5000000  -999.250000 96.396499634
 3778.0000000  -999.250000 92.639602661
 3778.5000000  -999.250000 88.647598267
 3779.0000000  -999.250000 86.069602966
 3779.5000000  -999.250000 85.747703552
 3780.0000000  -999.250000 85.892898560
 3780.5000000  -999.250000 85.413597107
 3781.0000000  -999.250000 85.224098206
 3781.5000000  -999.250000 85.313697815
 3782.0000000  -999.250000 85.882202148
 3782.5000000  -999.250000 86.108596802
 3783.0000000  -999.250000 86.101196289
 3783.5000000  -999.250000 85.611602783
 3784.0000000  -999.250000 85.140403748
 3784.5000000  -999.250000 84.809700012
 3785.0000000  -999.250000 84.940200806
 3785.5000000  -999.250000 86.176597595
 3786.0000000  -999.250000 88.137001038
 3786.5000000  -999.250000 90.714996338
 3787.0000000  -999.250000 92.996299744
 3787.5000000  -999.250000 94.347198486
 3788.0000000  -999.250000 93.369903564
 3788.5000000  -999.250000 93.117797852
 3789.0000000  -999.250000 93.146102905
 3789.5000000  -999.250000 92.570198059
 3790.0000000  -999.250000 91.513900757
 3790.5000000  -999.250000 90.468399048
 3791.0000000  -999.250000 89.918296814
 3791.5000000  -999.250000 90.340797424
 3792.0000000  -999.250000 90.450202942
 3792.5000000  -999.250000 90.309799194
 3793.0000000  -999.250000 90.185501099
 3793.5000000  -999.250000 90.934600830
 3794.0000000  -999.250000 91.642196655
 3794.5000000  -999.250000 91.932502747
 3795.0000000  -999.250000 92.094596863
 3795.5000000  -999.250000 92.460098267
 3796.0000000  -999.250000 93.328498840
 3796.5000000  -999.250000 93.702102661
 3797.0000000  -999.250000 92.564598083
 3797.5000000  -999.250000 89.681297302
 3798.0000000  -999.250000 88.728797913
 3798.5000000  -999.250000 89.492301941
 3799.0000000  -999.250000 90.719398499
 3799.5000000  -999.250000 92.006500244
