# LAS format log file from PETREL
# Project units are specified as depth units
#==================================================================
~Version information
VERS.   2.0:
WRAP.   NO:
#==================================================================
~Well
STRT .ft      0.0000000000 :
STOP .ft      11414.000000 :
STEP .ft     0.50000000 :
NULL .        -999.250000 :
COMP.           : COMPANY
WELL.  AMOCO_A-4_294   : WELL
FLD.            : FIELD
LOC.            : LOCATION
SRVC.           : SERVICE COMPANY
DATE.  Wednesday, February 25 2009 13:07:23   : DATE
PROV.           : PROVINCE
UWI.   177014010000   : UNIQUE WELL ID
API.            : API NUMBER
#==================================================================
~Curve
DEPT .ft                   : DEPTH
GR_run2 .gAPI             : GR_run2
GR_run1 .gAPI             : GR_run1
~Parameter
#==================================================================
~Ascii
# ...
 9300.0000000 98.493698120  -999.250000
 9300.5000000 99.462997437  -999.250000
 9301.0000000 99.664299011  -999.250000
 9301.5000000 99.780296326  -999.250000
 9302.0000000 100.16410065  -999.250000
 9302.5000000 100.71299744  -999.250000
 9303.0000000 101.32820129  -999.250000
 9303.5000000 101.55249786  -999.250000
 9304.0000000 102.83689880  -999.250000
 9304.5000000 104.42019653  -999.250000
 9305.0000000 106.32959747  -999.250000
 9305.5000000 106.69969940  -999.250000
 9306.0000000 105.43009949  -999.250000
 9306.5000000 103.82460022  -999.250000
 9307.0000000 102.23880005  -999.250000
 9307.5000000 100.90049744  -999.250000
 9308.0000000 100.00740051  -999.250000
 9308.5000000 100.12609863  -999.250000
 9309.0000000 101.01820374  -999.250000
 9309.5000000 101.90550232  -999.250000
 9310.0000000 102.41280365  -999.250000
 9310.5000000 101.63829803  -999.250000
 9311.0000000 97.677497864  -999.250000
 9311.5000000 93.986198425  -999.250000
 9312.0000000 93.476402283  -999.250000
 9312.5000000 95.594100952  -999.250000
 9313.0000000 98.912803650  -999.250000
 9313.5000000 102.25599670  -999.250000
 9314.0000000 104.81970215  -999.250000
 9314.5000000 105.60659790  -999.250000
 9315.0000000 104.56359863  -999.250000
 9315.5000000 105.23400116  -999.250000
 9316.0000000 107.15799713  -999.250000
 9316.5000000 110.11389923  -999.250000
 9317.0000000 114.49629974  -999.250000
 9317.5000000 114.63349915  -999.250000
 9318.0000000 109.72669983  -999.250000
 9318.5000000 104.10890198  -999.250000
 9319.0000000 100.98139954  -999.250000
 9319.5000000 104.61879730  -999.250000
 9320.0000000 106.84420013  -999.250000
 9320.5000000 104.26570129  -999.250000
 9321.0000000 101.33439636  -999.250000
 9321.5000000 101.26090240  -999.250000
 9322.0000000 104.03540039  -999.250000
 9322.5000000 103.45449829  -999.250000
 9323.0000000 100.07209778  -999.250000
 9323.5000000 97.824600220  -999.250000
 9324.0000000 95.584396362  -999.250000
 9324.5000000 95.350799561  -999.250000
 9325.0000000 97.304901123  -999.250000
 9325.5000000 99.013298035  -999.250000
 9326.0000000 99.926300049  -999.250000
 9326.5000000 98.165298462  -999.250000
 9327.0000000 96.459396362  -999.250000
 9327.5000000 96.105102539  -999.250000
 9328.0000000 95.793800354  -999.250000
 9328.5000000 97.241203308  -999.250000
 9329.0000000 99.020599365  -999.250000
 9329.5000000 100.36190033  -999.250000
 9330.0000000 100.68759918  -999.250000
 9330.5000000 100.67849731  -999.250000
 9331.0000000 99.917701721  -999.250000
 9331.5000000 97.344100952  -999.250000
 9332.0000000 95.407798767  -999.250000
 9332.5000000 93.841697693  -999.250000
 9333.0000000 94.753402710  -999.250000
 9333.5000000 98.412803650  -999.250000
 9334.0000000 102.28050232  -999.250000
 9334.5000000 103.86129761  -999.250000
 9335.0000000 102.08190155  -999.250000
 9335.5000000 100.37110138  -999.250000
 9336.0000000 99.167701721  -999.250000
 9336.5000000 97.545196533  -999.250000
 9337.0000000 95.981300354  -999.250000
 9337.5000000 94.694602966  -999.250000
 9338.0000000 93.449501038  -999.250000
 9338.5000000 95.569602966  -999.250000
 9339.0000000 97.557403564  -999.250000
 9339.5000000 96.860099792  -999.250000
 9340.0000000 96.317703247  -999.250000
 9340.5000000 95.779197693  -999.250000
 9341.0000000 95.919403076  -999.250000
 9341.5000000 96.244903564  -999.250000
 9342.0000000 98.077003479  -999.250000
 9342.5000000 100.02549744  -999.250000
 9343.0000000 100.97660065  -999.250000
 9343.5000000 98.922599792  -999.250000
 9344.0000000 96.731399536  -999.250000
 9344.5000000 96.588600159  -999.250000
 9345.0000000 96.510696411  -999.250000
 9345.5000000 99.618698120  -999.250000
 9346.0000000 101.74620056  -999.250000
 9346.5000000 100.50109863  -999.250000
 9347.0000000 98.564697266  -999.250000
 9347.5000000 98.039703369  -999.250000
 9348.0000000 96.702003479  -999.250000
 9348.5000000 94.510696411  -999.250000
 9349.0000000 91.359298706  -999.250000
 9349.5000000 92.226402283  -999.250000
 9350.0000000 94.263198853  -999.250000
 9350.5000000 95.547401428  -999.250000
 9351.0000000 95.507400513  -999.250000
 9351.5000000 95.152297974  -999.250000
 9352.0000000 95.092903137  -999.250000
 9352.5000000 95.314498901  -999.250000
 9353.0000000 93.559799194  -999.250000
 9353.5000000 91.696998596  -999.250000
 9354.0000000 90.341598511  -999.250000
 9354.5000000 91.804801941  -999.250000
 9355.0000000 94.209396362  -999.250000
 9355.5000000 95.307998657  -999.250000
 9356.0000000 94.851402283  -999.250000
 9356.5000000 94.290199280  -999.250000
 9357.0000000 95.831901550  -999.250000
 9357.5000000 97.466697693  -999.250000
 9358.0000000 99.057403564  -999.250000
 9358.5000000 97.643203735  -999.250000
 9359.0000000 95.633300781  -999.250000
 9359.5000000 93.765602112  -999.250000
 9360.0000000 91.167602539  -999.250000
 9360.5000000 90.285301208  -999.250000
 9361.0000000 92.074501038  -999.250000
 9361.5000000 96.265701294  -999.250000
 9362.0000000 99.839202881  -999.250000
 9362.5000000 100.74279785  -999.250000
 9363.0000000 101.16649628  -999.250000
 9363.5000000 101.81849670  -999.250000
 9364.0000000 103.87609863  -999.250000
 9364.5000000 104.17099762  -999.250000
 9365.0000000 104.08000183  -999.250000
 9365.5000000 104.92759705  -999.250000
 9366.0000000 107.17269897  -999.250000
 9366.5000000 109.57039642  -999.250000
 9367.0000000 108.85900116  -999.250000
 9367.5000000 106.89820099  -999.250000
 9368.0000000 104.51570129  -999.250000
 9368.5000000 102.06970215  -999.250000
 9369.0000000 101.22899628  -999.250000
 9369.5000000 103.27559662  -999.250000
 9370.0000000 104.70339966  -999.250000
 9370.5000000 105.30750275  -999.250000
 9371.0000000 103.86879730  -999.250000
 9371.5000000 100.69709778  -999.250000
 9372.0000000 97.324600220  -999.250000
 9372.5000000 96.445198059  -999.250000
 9373.0000000 97.377197266  -999.250000
 9373.5000000 98.353996277  -999.250000
 9374.0000000 98.097801208  -999.250000
 9374.5000000 94.701896667  -999.250000
 9375.0000000 93.673103333  -999.250000
 9375.5000000 94.544998169  -999.250000
 9376.0000000 96.621101379  -999.250000
 9376.5000000 99.005996704  -999.250000
 9377.0000000 99.465698242  -999.250000
 9377.5000000 99.454002380  -999.250000
 9378.0000000 99.426101685  -999.250000
 9378.5000000 99.871101379  -999.250000
 9379.0000000 100.66280365  -999.250000
 9379.5000000 102.27059937  -999.250000
 9380.0000000 104.44709778  -999.250000
 9380.5000000 107.10410309  -999.250000
 9381.0000000 110.58950043  -999.250000
 9381.5000000 110.32469940  -999.250000
 9382.0000000 106.61389923  -999.250000
 9382.5000000 102.11879730  -999.250000
 9383.0000000 97.510902405  -999.250000
 9383.5000000 96.121101379  -999.250000
 9384.0000000 97.375999451  -999.250000
 9384.5000000 97.541900635  -999.250000
 9385.0000000 97.679801941  -999.250000
 9385.5000000 98.858901978  -999.250000
 9386.0000000 101.00109863  -999.250000
 9386.5000000 99.934799194  -999.250000
 9387.0000000 98.189697266  -999.250000
 9387.5000000 97.175003052  -999.250000
 9388.0000000 96.804901123  -999.250000
 9388.5000000 100.45690155  -999.250000
 9389.0000000 102.45320129  -999.250000
 9389.5000000 101.46060181  -999.250000
 9390.0000000 99.510902405  -999.250000
 9390.5000000 97.275497437  -999.250000
 9391.0000000 95.206901550  -999.250000
 9391.5000000 95.133300781  -999.250000
 9392.0000000 95.090896606  -999.250000
 9392.5000000 94.510696411  -999.250000
 9393.0000000 93.336799622  -999.250000
 9393.5000000 92.917602539  -999.250000
 9394.0000000 95.442100525  -999.250000
 9394.5000000 101.58940125  -999.250000
 9395.0000000 102.81240082  -999.250000
 9395.5000000 102.53299713  -999.250000
 9396.0000000 100.97409821  -999.250000
 9396.5000000 99.172599792  -999.250000
 9397.0000000 95.427497864  -999.250000
 9397.5000000 93.054801941  -999.250000
 9398.0000000 90.687103271  -999.250000
 9398.5000000 88.226303101  -999.250000
 9399.0000000 87.153701782  -999.250000
 9399.5000000 90.255897522  -999.250000
