# LAS format log file from PETREL
# Project units are specified as depth units
#==================================================================
~Version information
VERS.   2.0:
WRAP.   NO:
#==================================================================
~Well
STRT .ft      0.0000000000 :
STOP .ft      11414.000000 :
STEP .ft     0.50000000 :
NULL .        -999.250000 :
COMP.           : COMPANY
WELL.  AMOCO_A-4_294   : WELL
FLD.            : FIELD
LOC.            : LOCATION
SRVC.           : SERVICE COMPANY
DATE.  Wednesday, February 25 2009 13:07:23   : DATE
PROV.           : PROVINCE
UWI.   177014010000   : UNIQUE WELL ID
API.            : API NUMBER
#==================================================================
~Curve
DEPT .ft                   : DEPTH
GR_run2 .gAPI             : GR_run2
GR_run1 .gAPI             : GR_run1
~Parameter
#==================================================================
~Ascii
# ...
 9700.0000000 88.005699158  -999.250000
 9700.5000000 83.422401428  -999.250000
 9701.0000000 79.673698425  -999.250000
 9701.5000000 80.267898560  -999.250000
 9702.0000000 82.353797913  -999.250000
 9702.5000000 85.618499756  -999.250000
 9703.0000000 89.500900269  -999.250000
 9703.5000000 92.478897095  -999.250000
 9704.0000000 91.809700012  -999.250000
 9704.5000000 89.309700012  -999.250000
 9705.0000000 86.895797729  -999.250000
 9705.5000000 86.782699585  -999.250000
 9706.0000000 86.047401428  -999.250000
 9706.5000000 84.699302673  -999.250000
 9707.0000000 83.150299072  -999.250000
 9707.5000000 83.774002075  -999.250000
 9708.0000000 84.615997314  -999.250000
 9708.5000000 84.819900513  -999.250000
 9709.0000000 85.264297485  -999.250000
 9709.5000000 86.366096497  -999.250000
 9710.0000000 88.157699585  -999.250000
 9710.5000000 88.334197998  -999.250000
 9711.0000000 84.049797058  -999.250000
 9711.5000000 81.030197144  -999.250000
 9712.0000000 80.000701904  -999.250000
 9712.5000000 81.162597656  -999.250000
 9713.0000000 83.608596802  -999.250000
 9713.5000000 85.861099243  -999.250000
 9714.0000000 85.415000916  -999.250000
 9714.5000000 84.486099243  -999.250000
 9715.0000000 83.373397827  -999.250000
 9715.5000000 83.598899841  -999.250000
 9716.0000000 84.733596802  -999.250000
 9716.5000000 84.996002197  -999.250000
 9717.0000000 83.586502075  -999.250000
 9717.5000000 84.515502930  -999.250000
 9718.0000000 85.922401428  -999.250000
 9718.5000000 87.902801514  -999.250000
 9719.0000000 91.196998596  -999.250000
 9719.5000000 87.182296753  -999.250000
 9720.0000000 87.446899414  -999.250000
 9720.5000000 89.672500610  -999.250000
 9721.0000000 92.368499756  -999.250000
 9721.5000000 93.858802795  -999.250000
 9722.0000000 93.237396240  -999.250000
 9722.5000000 92.317100525  -999.250000
 9723.0000000 91.966697693  -999.250000
 9723.5000000 93.669998169  -999.250000
 9724.0000000 96.035301208  -999.250000
 9724.5000000 98.422599792  -999.250000
 9725.0000000 100.29759979  -999.250000
 9725.5000000 100.42600250  -999.250000
 9726.0000000 100.45449829  -999.250000
 9726.5000000 99.050003052  -999.250000
 9727.0000000 96.545196533  -999.250000
 9727.5000000 95.094100952  -999.250000
 9728.0000000 94.732498169  -999.250000
 9728.5000000 96.260696411  -999.250000
 9729.0000000 98.569702148  -999.250000
 9729.5000000 97.373497009  -999.250000
 9730.0000000 95.547599792  -999.250000
 9730.5000000 95.562301636  -999.250000
 9731.0000000 97.598999023  -999.250000
 9731.5000000 100.18740082  -999.250000
 9732.0000000 102.99620056  -999.250000
 9732.5000000 104.79029846  -999.250000
 9733.0000000 99.520599365  -999.250000
 9733.5000000 93.491096497  -999.250000
 9734.0000000 92.692100525  -999.250000
 9734.5000000 93.168800354  -999.250000
 9735.0000000 93.764396667  -999.250000
 9735.5000000 94.000000000  -999.250000
 9736.0000000 94.150802612  -999.250000
 9736.5000000 94.276702881  -999.250000
 9737.0000000 94.837997437  -999.250000
 9737.5000000 94.713600159  -999.250000
 9738.0000000 95.108802795  -999.250000
 9738.5000000 97.062301636  -999.250000
 9739.0000000 99.057403564  -999.250000
 9739.5000000 96.687301636  -999.250000
 9740.0000000 91.094001770  -999.250000
 9740.5000000 88.840301514  -999.250000
 9741.0000000 88.297500610  -999.250000
 9741.5000000 89.129501343  -999.250000
 9742.0000000 90.283897400  -999.250000
 9742.5000000 87.589103699  -999.250000
 9743.0000000 82.574302673  -999.250000
 9743.5000000 80.157600403  -999.250000
 9744.0000000 77.302200317  -999.250000
 9744.5000000 76.874496460  -999.250000
 9745.0000000 77.447998047  -999.250000
 9745.5000000 78.941902161  -999.250000
 9746.0000000 81.182098389  -999.250000
 9746.5000000 84.824302673  -999.250000
 9747.0000000 88.407699585  -999.250000
 9747.5000000 91.397903442  -999.250000
 9748.0000000 91.991096497  -999.250000
 9748.5000000 90.035202026  -999.250000
 9749.0000000 85.069503784  -999.250000
 9749.5000000 83.716598511  -999.250000
 9750.0000000 83.520103455  -999.250000
 9750.5000000 84.113502502  -999.250000
 9751.0000000 85.339103699  -999.250000
 9751.5000000 86.564598083  -999.250000
 9752.0000000 88.466598511  -999.250000
 9752.5000000 88.123397827  -999.250000
 9753.0000000 85.770500183  -999.250000
 9753.5000000 83.373397827  -999.250000
 9754.0000000 82.831703186  -999.250000
 9754.5000000 83.832901001  -999.250000
 9755.0000000 84.611099243  -999.250000
 9755.5000000 85.119796753  -999.250000
 9756.0000000 84.564598083  -999.250000
 9756.5000000 83.157699585  -999.250000
 9757.0000000 81.196899414  -999.250000
 9757.5000000 78.794898987  -999.250000
 9758.0000000 75.708999634  -999.250000
 9758.5000000 73.740798950  -999.250000
 9759.0000000 76.084098816  -999.250000
 9759.5000000 78.412498474  -999.250000
 9760.0000000 80.584098816  -999.250000
 9760.5000000 82.745796204  -999.250000
 9761.0000000 84.357398987  -999.250000
 9761.5000000 85.098899841  -999.250000
 9762.0000000 86.285202026  -999.250000
 9762.5000000 86.275398254  -999.250000
 9763.0000000 82.726303101  -999.250000
 9763.5000000 78.907600403  -999.250000
 9764.0000000 76.892799377  -999.250000
 9764.5000000 74.934600830  -999.250000
 9765.0000000 75.022102356  -999.250000
 9765.5000000 78.206703186  -999.250000
 9766.0000000 82.544898987  -999.250000
 9766.5000000 85.547401428  -999.250000
 9767.0000000 85.603797913  -999.250000
 9767.5000000 84.319503784  -999.250000
 9768.0000000 80.736099243  -999.250000
 9768.5000000 78.177200317  -999.250000
 9769.0000000 74.897697449  -999.250000
 9769.5000000 73.299697876  -999.250000
 9770.0000000 75.564498901  -999.250000
 9770.5000000 78.000701904  -999.250000
 9771.0000000 79.981201172  -999.250000
 9771.5000000 81.694503784  -999.250000
 9772.0000000 84.304702759  -999.250000
 9772.5000000 87.155296326  -999.250000
 9773.0000000 87.195098877  -999.250000
 9773.5000000 85.954200745  -999.250000
 9774.0000000 85.253501892  -999.250000
 9774.5000000 85.087303162  -999.250000
 9775.0000000 87.393096924  -999.250000
 9775.5000000 90.094001770  -999.250000
 9776.0000000 92.547500610  -999.250000
 9776.5000000 93.723999023  -999.250000
 9777.0000000 93.705902100  -999.250000
 9777.5000000 93.461402893  -999.250000
 9778.0000000 93.546302795  -999.250000
 9778.5000000 94.396896362  -999.250000
 9779.0000000 95.228897095  -999.250000
 9779.5000000 96.038902283  -999.250000
 9780.0000000 96.601402283  -999.250000
 9780.5000000 96.775497437  -999.250000
 9781.0000000 96.015701294  -999.250000
 9781.5000000 93.461799622  -999.250000
 9782.0000000 90.589103699  -999.250000
 9782.5000000 88.223899841  -999.250000
 9783.0000000 87.559700012  -999.250000
 9783.5000000 91.402801514  -999.250000
 9784.0000000 98.814697266  -999.250000
 9784.5000000 101.02799988  -999.250000
 9785.0000000 101.15550232  -999.250000
 9785.5000000 99.710601807  -999.250000
 9786.0000000 98.987503052  -999.250000
 9786.5000000 101.24120331  -999.250000
 9787.0000000 105.04029846  -999.250000
 9787.5000000 106.83110046  -999.250000
 9788.0000000 105.67269897  -999.250000
 9788.5000000 103.26090240  -999.250000
 9789.0000000 100.50109863  -999.250000
 9789.5000000 97.383300781  -999.250000
 9790.0000000 94.481300354  -999.250000
 9790.5000000 91.991096497  -999.250000
 9791.0000000 93.393096924  -999.250000
 9791.5000000 95.162696838  -999.250000
 9792.0000000 96.824600220  -999.250000
 9792.5000000 97.303703308  -999.250000
 9793.0000000 96.981399536  -999.250000
 9793.5000000 95.927497864  -999.250000
 9794.0000000 93.939697266  -999.250000
 9794.5000000 91.353897095  -999.250000
 9795.0000000 90.167602539  -999.250000
 9795.5000000 93.893096924  -999.250000
 9796.0000000 96.672599792  -999.250000
 9796.5000000 99.353996277  -999.250000
 9797.0000000 101.82460022  -999.250000
 9797.5000000 103.32209778  -999.250000
 9798.0000000 103.99870300  -999.250000
 9798.5000000 101.86380005  -999.250000
 9799.0000000 98.079498291  -999.250000
 9799.5000000 94.883300781  -999.250000
