# LAS format log file from PETREL
# Project units are specified as depth units
#==================================================================
~Version information
VERS.   2.0:
WRAP.   NO:
#==================================================================
~Well
STRT .ft      100.00000000 :
STOP .ft      12173.000000 :
STEP .ft     0.50000000 :
NULL .        -999.250000 :
COMP.           : COMPANY
WELL.  AMOCO_4_293   : WELL
FLD.            : FIELD
LOC.            : LOCATION
SRVC.           : SERVICE COMPANY
DATE.  Wednesday, February 25 2009 13:05:38   : DATE
PROV.           : PROVINCE
UWI.   177014024400   : UNIQUE WELL ID
API.            : API NUMBER
#==================================================================
~Curve
DEPT .ft                   : DEPTH
GR_run2 .gAPI             : GR_run2
GR_run1 .gAPI             : GR_run1
~Parameter
#==================================================================
~Ascii
# ...
 5900.0000000  -999.250000 81.241798401
 5900.5000000  -999.250000 80.180702209
 5901.0000000  -999.250000 81.350700378
 5901.5000000  -999.250000 87.505699158
 5902.0000000  -999.250000 89.567901611
 5902.5000000  -999.250000 89.267601013
 5903.0000000  -999.250000 86.608497620
 5903.5000000  -999.250000 81.859703064
 5904.0000000  -999.250000 78.176101685
 5904.5000000  -999.250000 76.061500549
 5905.0000000  -999.250000 77.045402527
 5905.5000000  -999.250000 79.776603699
 5906.0000000  -999.250000 81.657302856
 5906.5000000  -999.250000 81.193397522
 5907.0000000  -999.250000 79.224197388
 5907.5000000  -999.250000 77.404800415
 5908.0000000  -999.250000 74.820602417
 5908.5000000  -999.250000 71.611801147
 5909.0000000  -999.250000 69.187599182
 5909.5000000  -999.250000 68.360496521
 5910.0000000  -999.250000 71.821800232
 5910.5000000  -999.250000 77.472999573
 5911.0000000  -999.250000 81.031997681
 5911.5000000  -999.250000 80.600303650
 5912.0000000  -999.250000 78.580200195
 5912.5000000  -999.250000 76.397300720
 5913.0000000  -999.250000 74.551597595
 5913.5000000  -999.250000 75.117103577
 5914.0000000  -999.250000 79.965499878
 5914.5000000  -999.250000 84.863800049
 5915.0000000  -999.250000 85.602996826
 5915.5000000  -999.250000 82.074798584
 5916.0000000  -999.250000 79.346298218
 5916.5000000  -999.250000 78.114501953
 5917.0000000  -999.250000 77.539901733
 5917.5000000  -999.250000 77.418502808
 5918.0000000  -999.250000 77.617897034
 5918.5000000  -999.250000 78.669403076
 5919.0000000  -999.250000 80.609596252
 5919.5000000  -999.250000 82.129997253
 5920.0000000  -999.250000 83.481101990
 5920.5000000  -999.250000 86.472000122
 5921.0000000  -999.250000 90.423202515
 5921.5000000  -999.250000 94.374397278
 5922.0000000  -999.250000 98.325599670
 5922.5000000  -999.250000 102.27149963
 5923.0000000  -999.250000 104.21959686
 5923.5000000  -999.250000 104.00180054
 5924.0000000  -999.250000 101.66539764
 5924.5000000  -999.250000 97.554199219
 5925.0000000  -999.250000 94.390098572
 5925.5000000  -999.250000 91.943603516
 5926.0000000  -999.250000 91.172203064
 5926.5000000  -999.250000 91.479598999
 5927.0000000  -999.250000 91.428703308
 5927.5000000  -999.250000 87.343101501
 5928.0000000  -999.250000 82.851402283
 5928.5000000  -999.250000 81.592201233
 5929.0000000  -999.250000 85.443603516
 5929.5000000  -999.250000 89.255699158
 5930.0000000  -999.250000 90.086997986
 5930.5000000  -999.250000 90.427902222
 5931.0000000  -999.250000 90.606597900
 5931.5000000  -999.250000 90.391098022
 5932.0000000  -999.250000 90.278602600
 5932.5000000  -999.250000 92.102302551
 5933.0000000  -999.250000 95.363502502
 5933.5000000  -999.250000 96.510696411
 5934.0000000  -999.250000 96.987503052
 5934.5000000  -999.250000 97.402702332
 5935.0000000  -999.250000 97.674598694
 5935.5000000  -999.250000 97.467697144
 5936.0000000  -999.250000 93.109901428
 5936.5000000  -999.250000 86.849899292
 5937.0000000  -999.250000 80.589797974
 5937.5000000  -999.250000 80.527000427
 5938.0000000  -999.250000 86.849899292
 5938.5000000  -999.250000 95.329299927
 5939.0000000  -999.250000 103.03500366
 5939.5000000  -999.250000 103.30400085
 5940.0000000  -999.250000 98.299301147
 5940.5000000  -999.250000 89.683296204
 5941.0000000  -999.250000 81.067398071
 5941.5000000  -999.250000 72.451400757
 5942.0000000  -999.250000 67.238296509
 5942.5000000  -999.250000 67.781402588
 5943.0000000  -999.250000 77.530799866
 5943.5000000  -999.250000 87.064903259
 5944.0000000  -999.250000 88.397796631
 5944.5000000  -999.250000 85.448898315
 5945.0000000  -999.250000 79.015701294
 5945.5000000  -999.250000 74.728797913
 5946.0000000  -999.250000 71.247200012
 5946.5000000  -999.250000 69.898902893
 5947.0000000  -999.250000 71.226196289
 5947.5000000  -999.250000 74.070198059
 5948.0000000  -999.250000 76.725303650
 5948.5000000  -999.250000 78.681198120
 5949.0000000  -999.250000 79.204597473
 5949.5000000  -999.250000 72.451400757
 5950.0000000  -999.250000 67.925697327
 5950.5000000  -999.250000 65.480499268
 5951.0000000  -999.250000 67.881103516
 5951.5000000  -999.250000 72.692703247
 5952.0000000  -999.250000 77.504501343
 5952.5000000  -999.250000 82.316299438
 5953.0000000  -999.250000 87.133201599
 5953.5000000  -999.250000 91.944900513
 5954.0000000  -999.250000 94.630203247
 5954.5000000  -999.250000 94.180297852
 5955.0000000  -999.250000 91.302101135
 5955.5000000  -999.250000 88.468597412
 5956.0000000  -999.250000 85.795196533
 5956.5000000  -999.250000 82.426399231
 5957.0000000  -999.250000 78.685203552
 5957.5000000  -999.250000 73.797401428
 5958.0000000  -999.250000 71.454498291
 5958.5000000  -999.250000 71.000198364
 5959.0000000  -999.250000 71.513801575
 5959.5000000  -999.250000 70.570297241
 5960.0000000  -999.250000 68.282501221
 5960.5000000  -999.250000 67.433700562
 5961.0000000  -999.250000 68.387496948
 5961.5000000  -999.250000 69.779296875
 5962.0000000  -999.250000 70.253799438
 5962.5000000  -999.250000 68.854400635
 5963.0000000  -999.250000 67.846900940
 5963.5000000  -999.250000 69.486701965
 5964.0000000  -999.250000 74.817901611
 5964.5000000  -999.250000 81.560699463
 5965.0000000  -999.250000 87.020401001
 5965.5000000  -999.250000 87.917701721
 5966.0000000  -999.250000 84.997596741
 5966.5000000  -999.250000 81.062103271
 5967.0000000  -999.250000 77.832496643
 5967.5000000  -999.250000 76.643898010
 5968.0000000  -999.250000 79.535202026
 5968.5000000  -999.250000 83.448402405
 5969.0000000  -999.250000 84.098098755
 5969.5000000  -999.250000 83.061401367
 5970.0000000  -999.250000 82.512603760
 5970.5000000  -999.250000 82.779701233
 5971.0000000  -999.250000 82.527496338
 5971.5000000  -999.250000 82.233596802
 5972.0000000  -999.250000 85.674400330
 5972.5000000  -999.250000 92.564102173
 5973.0000000  -999.250000 97.291900635
 5973.5000000  -999.250000 96.302696228
 5974.0000000  -999.250000 93.550498962
 5974.5000000  -999.250000 90.124099731
 5975.0000000  -999.250000 84.619796753
 5975.5000000  -999.250000 79.162597656
 5976.0000000  -999.250000 75.810897827
 5976.5000000  -999.250000 77.118896484
 5977.0000000  -999.250000 83.402496338
 5977.5000000  -999.250000 83.801101685
 5978.0000000  -999.250000 80.747299194
 5978.5000000  -999.250000 77.336502075
 5979.0000000  -999.250000 79.666397095
 5979.5000000  -999.250000 83.722503662
 5980.0000000  -999.250000 85.202301025
 5980.5000000  -999.250000 85.426101685
 5981.0000000  -999.250000 85.260597229
 5981.5000000  -999.250000 83.858901978
 5982.0000000  -999.250000 80.589797974
 5982.5000000  -999.250000 77.352302551
 5983.0000000  -999.250000 75.512603760
 5983.5000000  -999.250000 74.873802185
 5984.0000000  -999.250000 78.286399841
 5984.5000000  -999.250000 84.150100708
 5985.0000000  -999.250000 87.042701721
 5985.5000000  -999.250000 88.683700562
 5986.0000000  -999.250000 89.765998840
 5986.5000000  -999.250000 90.325897217
 5987.0000000  -999.250000 89.415802002
 5987.5000000  -999.250000 82.006599426
 5988.0000000  -999.250000 77.125396729
 5988.5000000  -999.250000 77.058502197
 5989.0000000  -999.250000 78.813697815
 5989.5000000  -999.250000 80.662002563
 5990.0000000  -999.250000 81.194801331
 5990.5000000  -999.250000 80.744598389
 5991.0000000  -999.250000 78.819000244
 5991.5000000  -999.250000 76.890602112
 5992.0000000  -999.250000 75.898200989
 5992.5000000  -999.250000 76.911598206
 5993.0000000  -999.250000 79.928703308
 5993.5000000  -999.250000 84.260398865
 5994.0000000  -999.250000 85.320899963
 5994.5000000  -999.250000 84.111503601
 5995.0000000  -999.250000 84.127197266
 5995.5000000  -999.250000 84.867103577
 5996.0000000  -999.250000 84.840202332
 5996.5000000  -999.250000 80.238296509
 5997.0000000  -999.250000 76.998199463
 5997.5000000  -999.250000 76.704299927
 5998.0000000  -999.250000 78.876701355
 5998.5000000  -999.250000 81.222198486
 5999.0000000  -999.250000 81.009597778
 5999.5000000  -999.250000 78.341400146
