# LAS format log file from PETREL
# Project units are specified as depth units
#==================================================================
~Version information
VERS.   2.0:
WRAP.   NO:
#==================================================================
~Well
STRT .ft      100.00000000 :
STOP .ft      12173.000000 :
STEP .ft     0.50000000 :
NULL .        -999.250000 :
COMP.           : COMPANY
WELL.  AMOCO_4_293   : WELL
FLD.            : FIELD
LOC.            : LOCATION
SRVC.           : SERVICE COMPANY
DATE.  Wednesday, February 25 2009 13:05:38   : DATE
PROV.           : PROVINCE
UWI.   177014024400   : UNIQUE WELL ID
API.            : API NUMBER
#==================================================================
~Curve
DEPT .ft                   : DEPTH
GR_run2 .gAPI             : GR_run2
GR_run1 .gAPI             : GR_run1
~Parameter
#==================================================================
~Ascii
# ...
 11900.000000 94.767501831  -999.250000
 11900.500000 93.359001160  -999.250000
 11901.000000 91.895500183  -999.250000
 11901.500000 90.955200195  -999.250000
 11902.000000 90.231300354  -999.250000
 11902.500000 89.178298950  -999.250000
 11903.000000 87.300399780  -999.250000
 11903.500000 83.282302856  -999.250000
 11904.000000 80.087799072  -999.250000
 11904.500000 77.354896545  -999.250000
 11905.000000 75.760101318  -999.250000
 11905.500000 77.926597595  -999.250000
 11906.000000 80.449699402  -999.250000
 11906.500000 80.921798706  -999.250000
 11907.000000 78.220298767  -999.250000
 11907.500000 74.863197327  -999.250000
 11908.000000 73.050903320  -999.250000
 11908.500000 75.542503357  -999.250000
 11909.000000 77.179100037  -999.250000
 11909.500000 78.658302307  -999.250000
 11910.000000 79.972396851  -999.250000
 11910.500000 81.470001221  -999.250000
 11911.000000 83.660003662  -999.250000
 11911.500000 87.232200623  -999.250000
 11912.000000 89.110099792  -999.250000
 11912.500000 89.961196899  -999.250000
 11913.000000 88.535797119  -999.250000
 11913.500000 86.691902161  -999.250000
 11914.000000 86.812500000  -999.250000
 11914.500000 88.362701416  -999.250000
 11915.000000 89.399902344  -999.250000
 11915.500000 89.903396606  -999.250000
 11916.000000 89.924598694  -999.250000
 11916.500000 89.036598206  -999.250000
 11917.000000 85.170700073  -999.250000
 11917.500000 80.722396851  -999.250000
 11918.000000 76.253303528  -999.250000
 11918.500000 70.567100525  -999.250000
 11919.000000 66.013900757  -999.250000
 11919.500000 61.492298126  -999.250000
 11920.000000 61.431900024  -999.250000
 11920.500000 62.174198151  -999.250000
 11921.000000 63.448898315  -999.250000
 11921.500000 67.545700073  -999.250000
 11922.000000 74.218002319  -999.250000
 11922.500000 81.855499268  -999.250000
 11923.000000 90.678596497  -999.250000
 11923.500000 93.532096863  -999.250000
 11924.000000 92.404296875  -999.250000
 11924.500000 92.133499146  -999.250000
 11925.000000 92.284301758  -999.250000
 11925.500000 92.387603760  -999.250000
 11926.000000 92.218101501  -999.250000
 11926.500000 91.592498779  -999.250000
 11927.000000 90.852897644  -999.250000
 11927.500000 90.461196899  -999.250000
 11928.000000 90.243202209  -999.250000
 11928.500000 88.559303284  -999.250000
 11929.000000 85.511703491  -999.250000
 11929.500000 82.269897461  -999.250000
 11930.000000 81.195899963  -999.250000
 11930.500000 81.547401428  -999.250000
 11931.000000 82.516502380  -999.250000
 11931.500000 85.800201416  -999.250000
 11932.000000 91.381500244  -999.250000
 11932.500000 95.761497498  -999.250000
 11933.000000 96.999397278  -999.250000
 11933.500000 97.029502869  -999.250000
 11934.000000 95.688003540  -999.250000
 11934.500000 92.441001892  -999.250000
 11935.000000 86.586997986  -999.250000
 11935.500000 78.377700806  -999.250000
 11936.000000 76.806999207  -999.250000
 11936.500000 78.655799866  -999.250000
 11937.000000 84.614601135  -999.250000
 11937.500000 91.622703552  -999.250000
 11938.000000 98.452400208  -999.250000
 11938.500000 100.60050201  -999.250000
 11939.000000 97.371803284  -999.250000
 11939.500000 89.870697021  -999.250000
 11940.000000 85.228401184  -999.250000
 11940.500000 87.190200806  -999.250000
 11941.000000 90.218902588  -999.250000
 11941.500000 89.647796631  -999.250000
 11942.000000 85.957496643  -999.250000
 11942.500000 82.721099854  -999.250000
 11943.000000 80.483802795  -999.250000
 11943.500000 82.610801697  -999.250000
 11944.000000 85.920799255  -999.250000
 11944.500000 89.052398682  -999.250000
 11945.000000 87.935096741  -999.250000
 11945.500000 85.968002319  -999.250000
 11946.000000 84.202903748  -999.250000
 11946.500000 86.240798950  -999.250000
 11947.000000 88.220901489  -999.250000
 11947.500000 88.409797668  -999.250000
 11948.000000 86.162101746  -999.250000
 11948.500000 84.376701355  -999.250000
 11949.000000 84.251502991  -999.250000
 11949.500000 84.753700256  -999.250000
 11950.000000 85.335899353  -999.250000
 11950.500000 86.217201233  -999.250000
 11951.000000 86.948997498  -999.250000
 11951.500000 86.385002136  -999.250000
 11952.000000 84.921501160  -999.250000
 11952.500000 83.661300659  -999.250000
 11953.000000 83.308502197  -999.250000
 11953.500000 86.613296509  -999.250000
 11954.000000 88.446502686  -999.250000
 11954.500000 87.396102905  -999.250000
 11955.000000 87.147003174  -999.250000
 11955.500000 87.763298035  -999.250000
 11956.000000 88.693099976  -999.250000
 11956.500000 88.742897034  -999.250000
 11957.000000 86.209396362  -999.250000
 11957.500000 83.250900269  -999.250000
 11958.000000 82.420799255  -999.250000
 11958.500000 82.656700134  -999.250000
 11959.000000 83.151100159  -999.250000
 11959.500000 84.236900330  -999.250000
 11960.000000 85.716201782  -999.250000
 11960.500000 87.429000854  -999.250000
 11961.000000 88.158096313  -999.250000
 11961.500000 89.288497925  -999.250000
 11962.000000 91.711898804  -999.250000
 11962.500000 93.654098511  -999.250000
 11963.000000 92.294197083  -999.250000
 11963.500000 86.608001709  -999.250000
 11964.000000 83.701896667  -999.250000
 11964.500000 81.884399414  -999.250000
 11965.000000 82.421997070  -999.250000
 11965.500000 88.045303345  -999.250000
 11966.000000 93.563598633  -999.250000
 11966.500000 96.775100708  -999.250000
 11967.000000 95.184402466  -999.250000
 11967.500000 93.259399414  -999.250000
 11968.000000 92.405296326  -999.250000
 11968.500000 92.246597290  -999.250000
 11969.000000 91.488998413  -999.250000
 11969.500000 90.319198608  -999.250000
 11970.000000 88.559303284  -999.250000
 11970.500000 86.825698853  -999.250000
 11971.000000 86.031600952  -999.250000
 11971.500000 86.042098999  -999.250000
 11972.000000 86.275901794  -999.250000
 11972.500000 86.327400208  -999.250000
 11973.000000 85.648101807  -999.250000
 11973.500000 83.313697815  -999.250000
 11974.000000 81.551300049  -999.250000
 11974.500000 82.820701599  -999.250000
 11975.000000 86.786399841  -999.250000
 11975.500000 91.391998291  -999.250000
 11976.000000 93.209503174  -999.250000
 11976.500000 91.843002319  -999.250000
 11977.000000 88.963302612  -999.250000
 11977.500000 86.980499268  -999.250000
 11978.000000 86.419197083  -999.250000
 11978.500000 90.426803589  -999.250000
 11979.000000 92.312500000  -999.250000
 11979.500000 94.240196228  -999.250000
 11980.000000 97.634201050  -999.250000
 11980.500000 99.626502991  -999.250000
 11981.000000 97.948898315  -999.250000
 11981.500000 92.052902222  -999.250000
 11982.000000 85.459197998  -999.250000
 11982.500000 85.674301147  -999.250000
 11983.000000 88.800697327  -999.250000
 11983.500000 92.294197083  -999.250000
 11984.000000 96.013298035  -999.250000
 11984.500000 96.611198425  -999.250000
 11985.000000 95.215896606  -999.250000
 11985.500000 93.115097046  -999.250000
 11986.000000 92.443603516  -999.250000
 11986.500000 93.374801636  -999.250000
 11987.000000 93.533897400  -999.250000
 11987.500000 92.978797913  -999.250000
 11988.000000 92.528198242  -999.250000
 11988.500000 92.420196533  -999.250000
 11989.000000 94.560203552  -999.250000
 11989.500000 99.425498962  -999.250000
 11990.000000 98.583602905  -999.250000
 11990.500000 93.018096924  -999.250000
 11991.000000 88.430801392  -999.250000
 11991.500000 89.301498413  -999.250000
 11992.000000 90.510597229  -999.250000
 11992.500000 89.285896301  -999.250000
 11993.000000 87.502296448  -999.250000
 11993.500000 86.193603516  -999.250000
 11994.000000 85.679603577  -999.250000
 11994.500000 88.349502563  -999.250000
 11995.000000 91.764396667  -999.250000
 11995.500000 92.705902100  -999.250000
 11996.000000 91.793197632  -999.250000
 11996.500000 90.489700317  -999.250000
 11997.000000 90.717903137  -999.250000
 11997.500000 92.283699036  -999.250000
 11998.000000 95.325996399  -999.250000
 11998.500000 99.291702271  -999.250000
 11999.000000 100.66870117  -999.250000
 11999.500000 98.609901428  -999.250000
