# LAS format log file from PETREL
# Project units are specified as depth units
#==================================================================
~Version information
VERS.   2.0:
WRAP.   NO:
#==================================================================
~Well
STRT .ft      100.00000000 :
STOP .ft      12173.000000 :
STEP .ft     0.50000000 :
NULL .        -999.250000 :
COMP.           : COMPANY
WELL.  AMOCO_4_293   : WELL
FLD.            : FIELD
LOC.            : LOCATION
SRVC.           : SERVICE COMPANY
DATE.  Wednesday, February 25 2009 13:05:38   : DATE
PROV.           : PROVINCE
UWI.   177014024400   : UNIQUE WELL ID
API.            : API NUMBER
#==================================================================
~Curve
DEPT .ft                   : DEPTH
GR_run2 .gAPI             : GR_run2
GR_run1 .gAPI             : GR_run1
~Parameter
#==================================================================
~Ascii
# ...
 10900.000000 90.935897827  -999.250000
 10900.500000 86.776199341  -999.250000
 10901.000000 84.423202515  -999.250000
 10901.500000 83.366203308  -999.250000
 10902.000000 83.169898987  -999.250000
 10902.500000 82.939498901  -999.250000
 10903.000000 82.123802185  -999.250000
 10903.500000 83.288696289  -999.250000
 10904.000000 87.143798828  -999.250000
 10904.500000 90.949096680  -999.250000
 10905.000000 90.869003296  -999.250000
 10905.500000 89.762100220  -999.250000
 10906.000000 87.506202698  -999.250000
 10906.500000 83.278198242  -999.250000
 10907.000000 81.258796692  -999.250000
 10907.500000 81.106399536  -999.250000
 10908.000000 82.600700378  -999.250000
 10908.500000 84.586097717  -999.250000
 10909.000000 86.763099670  -999.250000
 10909.500000 88.732696533  -999.250000
 10910.000000 90.439598083  -999.250000
 10910.500000 91.041000366  -999.250000
 10911.000000 90.074600220  -999.250000
 10911.500000 88.674797058  -999.250000
 10912.000000 87.519401550  -999.250000
 10912.500000 86.059303284  -999.250000
 10913.000000 84.533599854  -999.250000
 10913.500000 84.100196838  -999.250000
 10914.000000 84.744903564  -999.250000
 10914.500000 85.354103088  -999.250000
 10915.000000 85.691703796  -999.250000
 10915.500000 84.265602112  -999.250000
 10916.000000 83.150901794  -999.250000
 10916.500000 82.091300964  -999.250000
 10917.000000 80.465698242  -999.250000
 10917.500000 79.231399536  -999.250000
 10918.000000 78.727996826  -999.250000
 10918.500000 79.407302856  -999.250000
 10919.000000 82.984100342  -999.250000
 10919.500000 88.273101807  -999.250000
 10920.000000 90.151397705  -999.250000
 10920.500000 86.576698303  -999.250000
 10921.000000 78.824302673  -999.250000
 10921.500000 74.370498657  -999.250000
 10922.000000 72.485000610  -999.250000
 10922.500000 72.960296631  -999.250000
 10923.000000 75.368400574  -999.250000
 10923.500000 79.370597839  -999.250000
 10924.000000 82.211997986  -999.250000
 10924.500000 82.290901184  -999.250000
 10925.000000 80.901603699  -999.250000
 10925.500000 79.817001343  -999.250000
 10926.000000 79.614898682  -999.250000
 10926.500000 80.331802368  -999.250000
 10927.000000 81.170799255  -999.250000
 10927.500000 82.432601929  -999.250000
 10928.000000 84.118698120  -999.250000
 10928.500000 85.849197388  -999.250000
 10929.000000 86.929801941  -999.250000
 10929.500000 86.591102600  -999.250000
 10930.000000 84.859100342  -999.250000
 10930.500000 82.080703735  -999.250000
 10931.000000 83.708999634  -999.250000
 10931.500000 85.893798828  -999.250000
 10932.000000 85.828102112  -999.250000
 10932.500000 85.732299805  -999.250000
 10933.000000 86.813003540  -999.250000
 10933.500000 89.415397644  -999.250000
 10934.000000 88.863899231  -999.250000
 10934.500000 87.466903687  -999.250000
 10935.000000 86.151199341  -999.250000
 10935.500000 84.869598389  -999.250000
 10936.000000 83.909797668  -999.250000
 10936.500000 83.757400513  -999.250000
 10937.000000 83.985198975  -999.250000
 10937.500000 83.849098206  -999.250000
 10938.000000 83.209999084  -999.250000
 10938.500000 81.098602295  -999.250000
 10939.000000 79.239303589  -999.250000
 10939.500000 78.436401367  -999.250000
 10940.000000 78.279403687  -999.250000
 10940.500000 78.559196472  -999.250000
 10941.000000 78.306999207  -999.250000
 10941.500000 76.841697693  -999.250000
 10942.000000 76.119499207  -999.250000
 10942.500000 76.430702209  -999.250000
 10943.000000 76.614501953  -999.250000
 10943.500000 75.943000793  -999.250000
 10944.000000 76.003997803  -999.250000
 10944.500000 76.623802185  -999.250000
 10945.000000 78.309700012  -999.250000
 10945.500000 80.221397400  -999.250000
 10946.000000 81.541702271  -999.250000
 10946.500000 80.925300598  -999.250000
 10947.000000 79.546501160  -999.250000
 10947.500000 78.144302368  -999.250000
 10948.000000 78.212501526  -999.250000
 10948.500000 79.509201050  -999.250000
 10949.000000 79.592498779  -999.250000
 10949.500000 79.241897583  -999.250000
 10950.000000 79.312500000  -999.250000
 10950.500000 79.541000366  -999.250000
 10951.000000 79.558097839  -999.250000
 10951.500000 79.295196533  -999.250000
 10952.000000 79.137199402  -999.250000
 10952.500000 79.794700623  -999.250000
 10953.000000 81.132698059  -999.250000
 10953.500000 82.708396912  -999.250000
 10954.000000 84.281402588  -999.250000
 10954.500000 85.754600525  -999.250000
 10955.000000 86.445297241  -999.250000
 10955.500000 81.860099792  -999.250000
 10956.000000 78.997703552  -999.250000
 10956.500000 78.401603699  -999.250000
 10957.000000 79.725097656  -999.250000
 10957.500000 79.423103333  -999.250000
 10958.000000 77.889503479  -999.250000
 10958.500000 77.248802185  -999.250000
 10959.000000 78.304397583  -999.250000
 10959.500000 78.955703735  -999.250000
 10960.000000 77.222503662  -999.250000
 10960.500000 73.603797913  -999.250000
 10961.000000 69.738197327  -999.250000
 10961.500000 64.475502014  -999.250000
 10962.000000 59.412399292  -999.250000
 10962.500000 59.191799164  -999.250000
 10963.000000 63.792701721  -999.250000
 10963.500000 71.313697815  -999.250000
 10964.000000 78.590698242  -999.250000
 10964.500000 78.577499390  -999.250000
 10965.000000 76.660499573  -999.250000
 10965.500000 71.324203491  -999.250000
 10966.000000 63.508998871  -999.250000
 10966.500000 58.782100677  -999.250000
 10967.000000 57.710601807  -999.250000
 10967.500000 62.437599182  -999.250000
 10968.000000 67.316902161  -999.250000
 10968.500000 71.019699097  -999.250000
 10969.000000 73.104698181  -999.250000
 10969.500000 75.442001343  -999.250000
 10970.000000 78.530296326  -999.250000
 10970.500000 84.059402466  -999.250000
 10971.000000 83.103599548  -999.250000
 10971.500000 82.504203796  -999.250000
 10972.000000 82.313598633  -999.250000
 10972.500000 82.209701538  -999.250000
 10973.000000 82.253402710  -999.250000
 10973.500000 82.799003601  -999.250000
 10974.000000 84.155403137  -999.250000
 10974.500000 87.049301147  -999.250000
 10975.000000 88.580299377  -999.250000
 10975.500000 86.660598755  -999.250000
 10976.000000 84.297096252  -999.250000
 10976.500000 81.949501038  -999.250000
 10977.000000 80.825401306  -999.250000
 10977.500000 78.897903442  -999.250000
 10978.000000 75.326400757  -999.250000
 10978.500000 73.343803406  -999.250000
 10979.000000 74.638397217  -999.250000
 10979.500000 75.950202942  -999.250000
 10980.000000 74.793296814  -999.250000
 10980.500000 73.345100403  -999.250000
 10981.000000 72.873703003  -999.250000
 10981.500000 73.716697693  -999.250000
 10982.000000 75.344802856  -999.250000
 10982.500000 76.828598022  -999.250000
 10983.000000 78.160003662  -999.250000
 10983.500000 78.709701538  -999.250000
 10984.000000 79.013397217  -999.250000
 10984.500000 79.935203552  -999.250000
 10985.000000 80.970001221  -999.250000
 10985.500000 80.993499756  -999.250000
 10986.000000 78.456802368  -999.250000
 10986.500000 74.974502563  -999.250000
 10987.000000 71.991302490  -999.250000
 10987.500000 73.104698181  -999.250000
 10988.000000 76.523902893  -999.250000
 10988.500000 78.861198425  -999.250000
 10989.000000 78.714103699  -999.250000
 10989.500000 77.085899353  -999.250000
 10990.000000 75.229202271  -999.250000
 10990.500000 73.945098877  -999.250000
 10991.000000 74.152603149  -999.250000
 10991.500000 77.390502930  -999.250000
 10992.000000 79.452003479  -999.250000
 10992.500000 80.074501038  -999.250000
 10993.000000 79.315399170  -999.250000
 10993.500000 77.884300232  -999.250000
 10994.000000 77.046501160  -999.250000
 10994.500000 78.924201965  -999.250000
 10995.000000 79.884002686  -999.250000
 10995.500000 78.438400269  -999.250000
 10996.000000 76.952003479  -999.250000
 10996.500000 75.880500793  -999.250000
 10997.000000 75.157096863  -999.250000
 10997.500000 75.077598572  -999.250000
 10998.000000 76.227203369  -999.250000
 10998.500000 78.152099609  -999.250000
 10999.000000 81.250900269  -999.250000
 10999.500000 84.643798828  -999.250000
