# LAS format log file from PETREL
# Project units are specified as depth units
#==================================================================
~Version information
VERS.   2.0:
WRAP.   NO:
#==================================================================
~Well
STRT .ft      0.0000000000 :
STOP .ft      11414.000000 :
STEP .ft     0.50000000 :
NULL .        -999.250000 :
COMP.           : COMPANY
WELL.  AMOCO_A-4_294   : WELL
FLD.            : FIELD
LOC.            : LOCATION
SRVC.           : SERVICE COMPANY
DATE.  Wednesday, February 25 2009 13:07:23   : DATE
PROV.           : PROVINCE
UWI.   177014010000   : UNIQUE WELL ID
API.            : API NUMBER
#==================================================================
~Curve
DEPT .ft                   : DEPTH
GR_run2 .gAPI             : GR_run2
GR_run1 .gAPI             : GR_run1
~Parameter
#==================================================================
~Ascii
# ...
 300.00000000  -999.250000 54.834201813
 300.50000000  -999.250000 54.886501312
 301.00000000  -999.250000 55.045799255
 301.50000000  -999.250000 54.984600067
 302.00000000  -999.250000 54.694801331
 302.50000000  -999.250000 54.465801239
 303.00000000  -999.250000 54.290401459
 303.50000000  -999.250000 53.893001556
 304.00000000  -999.250000 52.578800201
 304.50000000  -999.250000 50.914901733
 305.00000000  -999.250000 49.623100281
 305.50000000  -999.250000 48.408401489
 306.00000000  -999.250000 47.258701324
 306.50000000  -999.250000 46.207199097
 307.00000000  -999.250000 45.607398987
 307.50000000  -999.250000 45.750999451
 308.00000000  -999.250000 45.641899109
 308.50000000  -999.250000 44.722698212
 309.00000000  -999.250000 44.110801697
 309.50000000  -999.250000 43.931800842
 310.00000000  -999.250000 44.270698547
 310.50000000  -999.250000 45.632701874
 311.00000000  -999.250000 46.983001709
 311.50000000  -999.250000 47.809200287
 312.00000000  -999.250000 48.238098145
 312.50000000  -999.250000 48.508998871
 313.00000000  -999.250000 49.458999634
 313.50000000  -999.250000 51.320499420
 314.00000000  -999.250000 52.788799286
 314.50000000  -999.250000 53.384201050
 315.00000000  -999.250000 53.546100616
 315.50000000  -999.250000 53.483200073
 316.00000000  -999.250000 53.348899841
 316.50000000  -999.250000 53.447101593
 317.00000000  -999.250000 54.769199371
 317.50000000  -999.250000 56.589000702
 318.00000000  -999.250000 58.408401489
 318.50000000  -999.250000 59.613998413
 319.00000000  -999.250000 59.066001892
 319.50000000  -999.250000 57.824001312
 320.00000000  -999.250000 56.642601013
 320.50000000  -999.250000 55.694599152
 321.00000000  -999.250000 54.863399506
 321.50000000  -999.250000 54.416500092
 322.00000000  -999.250000 54.449298859
 322.50000000  -999.250000 54.640300751
 323.00000000  -999.250000 54.820201874
 323.50000000  -999.250000 54.826000214
 324.00000000  -999.250000 54.384498596
 324.50000000  -999.250000 53.304298401
 325.00000000  -999.250000 52.231800079
 325.50000000  -999.250000 51.346599579
 326.00000000  -999.250000 51.442501068
 326.50000000  -999.250000 52.252700806
 327.00000000  -999.250000 52.981700897
 327.50000000  -999.250000 53.924499512
 328.00000000  -999.250000 55.639598846
 328.50000000  -999.250000 57.800598145
 329.00000000  -999.250000 59.845001221
 329.50000000  -999.250000 59.632301331
 330.00000000  -999.250000 59.077400208
 330.50000000  -999.250000 58.708698273
 331.00000000  -999.250000 58.978298187
 331.50000000  -999.250000 60.682899475
 332.00000000  -999.250000 61.569698334
 332.50000000  -999.250000 61.677898407
 333.00000000  -999.250000 60.899398804
 333.50000000  -999.250000 60.163501740
 334.00000000  -999.250000 59.745399475
 334.50000000  -999.250000 59.530899048
 335.00000000  -999.250000 59.395401001
 335.50000000  -999.250000 59.436901093
 336.00000000  -999.250000 59.632301331
 336.50000000  -999.250000 60.081298828
 337.00000000  -999.250000 60.791698456
 337.50000000  -999.250000 61.700500488
 338.00000000  -999.250000 62.441101074
 338.50000000  -999.250000 62.811798096
 339.00000000  -999.250000 62.336898804
 339.50000000  -999.250000 61.599098206
 340.00000000  -999.250000 60.832599640
 340.50000000  -999.250000 60.752899170
 341.00000000  -999.250000 61.300498962
 341.50000000  -999.250000 60.362400055
 342.00000000  -999.250000 58.163600922
 342.50000000  -999.250000 54.549098969
 343.00000000  -999.250000 51.080898285
 343.50000000  -999.250000 49.082199097
 344.00000000  -999.250000 48.223201752
 344.50000000  -999.250000 48.008701324
 345.00000000  -999.250000 48.103801727
 345.50000000  -999.250000 48.311199188
 346.00000000  -999.250000 48.667499542
 346.50000000  -999.250000 49.108798981
 347.00000000  -999.250000 49.282199860
 347.50000000  -999.250000 47.583900452
 348.00000000  -999.250000 44.748401642
 348.50000000  -999.250000 41.626800537
 349.00000000  -999.250000 39.159099579
 349.50000000  -999.250000 37.354099274
 350.00000000  -999.250000 35.898101807
 350.50000000  -999.250000 35.955898285
 351.00000000  -999.250000 36.457298279
 351.50000000  -999.250000 36.987701416
 352.00000000  -999.250000 37.484199524
 352.50000000  -999.250000 37.920700073
 353.00000000  -999.250000 38.518398285
 353.50000000  -999.250000 39.489700317
 354.00000000  -999.250000 40.962100983
 354.50000000  -999.250000 43.114898682
 355.00000000  -999.250000 45.357200623
 355.50000000  -999.250000 46.901199341
 356.00000000  -999.250000 48.357601166
 356.50000000  -999.250000 50.383399963
 357.00000000  -999.250000 51.783100128
 357.50000000  -999.250000 52.827701569
 358.00000000  -999.250000 53.068599701
 358.50000000  -999.250000 52.950901031
 359.00000000  -999.250000 52.984100342
 359.50000000  -999.250000 53.121299744
 360.00000000  -999.250000 53.509601593
 360.50000000  -999.250000 54.439601898
 361.00000000  -999.250000 55.464801788
 361.50000000  -999.250000 55.842800140
 362.00000000  -999.250000 55.491500854
 362.50000000  -999.250000 55.044101715
 363.00000000  -999.250000 54.722698212
 363.50000000  -999.250000 55.112400055
 364.00000000  -999.250000 55.359401703
 364.50000000  -999.250000 54.942100525
 365.00000000  -999.250000 54.416999817
 365.50000000  -999.250000 54.338901520
 366.00000000  -999.250000 54.304901123
 366.50000000  -999.250000 54.078998566
 367.00000000  -999.250000 53.689800262
 367.50000000  -999.250000 53.077400208
 368.00000000  -999.250000 52.186798096
 368.50000000  -999.250000 51.049900055
 369.00000000  -999.250000 49.679100037
 369.50000000  -999.250000 48.271900177
 370.00000000  -999.250000 47.411098480
 370.50000000  -999.250000 47.125400543
 371.00000000  -999.250000 47.194801331
 371.50000000  -999.250000 47.970199585
 372.00000000  -999.250000 49.620300293
 372.50000000  -999.250000 52.033599854
 373.00000000  -999.250000 53.973400116
 373.50000000  -999.250000 55.220298767
 374.00000000  -999.250000 55.610500336
 374.50000000  -999.250000 54.538799286
 375.00000000  -999.250000 53.421298981
 375.50000000  -999.250000 52.392601013
 376.00000000  -999.250000 51.896800995
 376.50000000  -999.250000 52.416801453
 377.00000000  -999.250000 52.603401184
 377.50000000  -999.250000 51.997798920
 378.00000000  -999.250000 51.261798859
 378.50000000  -999.250000 50.589199066
 379.00000000  -999.250000 50.203399658
 379.50000000  -999.250000 50.872100830
 380.00000000  -999.250000 52.229900360
 380.50000000  -999.250000 54.321498871
 381.00000000  -999.250000 56.340599060
 381.50000000  -999.250000 57.397598267
 382.00000000  -999.250000 56.901699066
 382.50000000  -999.250000 55.569499969
 383.00000000  -999.250000 54.387599945
 383.50000000  -999.250000 53.782501221
 384.00000000  -999.250000 53.102401733
 384.50000000  -999.250000 52.483299255
 385.00000000  -999.250000 53.429199219
 385.50000000  -999.250000 55.001800537
 386.00000000  -999.250000 56.681098938
 386.50000000  -999.250000 56.788200378
 387.00000000  -999.250000 56.681499481
 387.50000000  -999.250000 56.640899658
 388.00000000  -999.250000 56.448898315
 388.50000000  -999.250000 56.073398590
 389.00000000  -999.250000 55.779499054
 389.50000000  -999.250000 55.630401611
 390.00000000  -999.250000 55.556598663
 390.50000000  -999.250000 55.575298309
 391.00000000  -999.250000 55.756099701
 391.50000000  -999.250000 56.174098969
 392.00000000  -999.250000 56.764499664
 392.50000000  -999.250000 57.383499146
 393.00000000  -999.250000 57.411899567
 393.50000000  -999.250000 56.573200226
 394.00000000  -999.250000 54.668498993
 394.50000000  -999.250000 52.299400330
 395.00000000  -999.250000 51.493999481
 395.50000000  -999.250000 52.662700653
 396.00000000  -999.250000 54.264099121
 396.50000000  -999.250000 55.157798767
 397.00000000  -999.250000 55.913898468
 397.50000000  -999.250000 56.597198486
 398.00000000  -999.250000 57.254199982
 398.50000000  -999.250000 58.131999969
 399.00000000  -999.250000 59.226200104
 399.50000000  -999.250000 60.283000946
