# LAS format log file from PETREL
# Project units are specified as depth units
#==================================================================
~Version information
VERS.   2.0:
WRAP.   NO:
#==================================================================
~Well
STRT .ft      100.00000000 :
STOP .ft      12173.000000 :
STEP .ft     0.50000000 :
NULL .        -999.250000 :
COMP.           : COMPANY
WELL.  AMOCO_4_293   : WELL
FLD.            : FIELD
LOC.            : LOCATION
SRVC.           : SERVICE COMPANY
DATE.  Wednesday, February 25 2009 13:05:38   : DATE
PROV.           : PROVINCE
UWI.   177014024400   : UNIQUE WELL ID
API.            : API NUMBER
#==================================================================
~Curve
DEPT .ft                   : DEPTH
GR_run2 .gAPI             : GR_run2
GR_run1 .gAPI             : GR_run1
~Parameter
#==================================================================
~Ascii
# ...
 9900.0000000 82.514602661  -999.250000
 9900.5000000 76.326698303  -999.250000
 9901.0000000 69.514503479  -999.250000
 9901.5000000 66.179298401  -999.250000
 9902.0000000 63.732498169  -999.250000
 9902.5000000 60.284400940  -999.250000
 9903.0000000 55.312000275  -999.250000
 9903.5000000 50.943901062  -999.250000
 9904.0000000 49.631198883  -999.250000
 9904.5000000 49.567401886  -999.250000
 9905.0000000 50.381500244  -999.250000
 9905.5000000 52.778400421  -999.250000
 9906.0000000 57.393398285  -999.250000
 9906.5000000 64.836303711  -999.250000
 9907.0000000 70.923202515  -999.250000
 9907.5000000 73.966598511  -999.250000
 9908.0000000 71.690597534  -999.250000
 9908.5000000 56.752101898  -999.250000
 9909.0000000 48.510299683  -999.250000
 9909.5000000 43.075199127  -999.250000
 9910.0000000 42.865001678  -999.250000
 9910.5000000 46.150100708  -999.250000
 9911.0000000 50.208099365  -999.250000
 9911.5000000 50.555301666  -999.250000
 9912.0000000 50.388698578  -999.250000
 9912.5000000 50.177200317  -999.250000
 9913.0000000 49.625900269  -999.250000
 9913.5000000 47.648200989  -999.250000
 9914.0000000 42.807098389  -999.250000
 9914.5000000 41.096199036  -999.250000
 9915.0000000 43.458900452  -999.250000
 9915.5000000 49.277599335  -999.250000
 9916.0000000 55.396099091  -999.250000
 9916.5000000 60.237098694  -999.250000
 9917.0000000 61.200000763  -999.250000
 9917.5000000 58.429000854  -999.250000
 9918.0000000 55.359298706  -999.250000
 9918.5000000 52.841400146  -999.250000
 9919.0000000 51.330299377  -999.250000
 9919.5000000 53.514301300  -999.250000
 9920.0000000 57.414501190  -999.250000
 9920.5000000 59.724601746  -999.250000
 9921.0000000 58.271198273  -999.250000
 9921.5000000 54.549701691  -999.250000
 9922.0000000 52.368400574  -999.250000
 9922.5000000 52.051700592  -999.250000
 9923.0000000 53.062301636  -999.250000
 9923.5000000 52.497200012  -999.250000
 9924.0000000 51.567401886  -999.250000
 9924.5000000 51.476799011  -999.250000
 9925.0000000 55.795501709  -999.250000
 9925.5000000 62.113601685  -999.250000
 9926.0000000 69.136001587  -999.250000
 9926.5000000 73.417396545  -999.250000
 9927.0000000 73.903602600  -999.250000
 9927.5000000 69.419898987  -999.250000
 9928.0000000 58.013698578  -999.250000
 9928.5000000 50.738998413  -999.250000
 9929.0000000 49.698200226  -999.250000
 9929.5000000 58.192401886  -999.250000
 9930.0000000 66.549896240  -999.250000
 9930.5000000 73.824699402  -999.250000
 9931.0000000 77.838500977  -999.250000
 9931.5000000 77.088897705  -999.250000
 9932.0000000 75.291099548  -999.250000
 9932.5000000 74.014396667  -999.250000
 9933.0000000 73.902297974  -999.250000
 9933.5000000 73.535499573  -999.250000
 9934.0000000 68.578903198  -999.250000
 9934.5000000 62.418498993  -999.250000
 9935.0000000 58.134601593  -999.250000
 9935.5000000 55.695598602  -999.250000
 9936.0000000 53.498500824  -999.250000
 9936.5000000 51.122600555  -999.250000
 9937.0000000 51.209400177  -999.250000
 9937.5000000 54.192298889  -999.250000
 9938.0000000 58.187099457  -999.250000
 9938.5000000 61.924400330  -999.250000
 9939.0000000 66.302902222  -999.250000
 9939.5000000 70.592002869  -999.250000
 9940.0000000 73.956100464  -999.250000
 9940.5000000 77.719596863  -999.250000
 9941.0000000 80.868202209  -999.250000
 9941.5000000 81.393798828  -999.250000
 9942.0000000 80.301803589  -999.250000
 9942.5000000 80.218803406  -999.250000
 9943.0000000 80.458099365  -999.250000
 9943.5000000 81.094100952  -999.250000
 9944.0000000 82.313598633  -999.250000
 9944.5000000 84.742103577  -999.250000
 9945.0000000 86.820899963  -999.250000
 9945.5000000 85.898399353  -999.250000
 9946.0000000 82.402999878  -999.250000
 9946.5000000 80.827400208  -999.250000
 9947.0000000 80.096801758  -999.250000
 9947.5000000 80.054702759  -999.250000
 9948.0000000 80.805099487  -999.250000
 9948.5000000 82.382003784  -999.250000
 9949.0000000 85.230796814  -999.250000
 9949.5000000 89.593597412  -999.250000
 9950.0000000 91.483299255  -999.250000
 9950.5000000 92.225700378  -999.250000
 9951.0000000 91.785499573  -999.250000
 9951.5000000 90.014198303  -999.250000
 9952.0000000 86.529197693  -999.250000
 9952.5000000 82.055999756  -999.250000
 9953.0000000 77.320098877  -999.250000
 9953.5000000 75.743202209  -999.250000
 9954.0000000 76.234703064  -999.250000
 9954.5000000 80.158599854  -999.250000
 9955.0000000 84.308296204  -999.250000
 9955.5000000 85.813003540  -999.250000
 9956.0000000 85.848503113  -999.250000
 9956.5000000 84.055999756  -999.250000
 9957.0000000 80.752403259  -999.250000
 9957.5000000 77.372703552  -999.250000
 9958.0000000 74.705101013  -999.250000
 9958.5000000 74.874603271  -999.250000
 9959.0000000 78.665802002  -999.250000
 9959.5000000 81.929901123  -999.250000
 9960.0000000 83.504898071  -999.250000
 9960.5000000 83.667098999  -999.250000
 9961.0000000 84.179603577  -999.250000
 9961.5000000 85.556800842  -999.250000
 9962.0000000 87.969398499  -999.250000
 9962.5000000 88.526603699  -999.250000
 9963.0000000 85.735496521  -999.250000
 9963.5000000 80.904899597  -999.250000
 9964.0000000 77.670997620  -999.250000
 9964.5000000 80.931198120  -999.250000
 9965.0000000 86.292602539  -999.250000
 9965.5000000 91.112701416  -999.250000
 9966.0000000 93.420196533  -999.250000
 9966.5000000 93.983001709  -999.250000
 9967.0000000 93.935997009  -999.250000
 9967.5000000 92.768402100  -999.250000
 9968.0000000 90.324203491  -999.250000
 9968.5000000 89.716697693  -999.250000
 9969.0000000 89.765098572  -999.250000
 9969.5000000 90.150802612  -999.250000
 9970.0000000 90.719802856  -999.250000
 9970.5000000 91.499000549  -999.250000
 9971.0000000 92.673797607  -999.250000
 9971.5000000 93.987899780  -999.250000
 9972.0000000 95.378196716  -999.250000
 9972.5000000 95.967300415  -999.250000
 9973.0000000 94.161399841  -999.250000
 9973.5000000 88.826202393  -999.250000
 9974.0000000 84.978500366  -999.250000
 9974.5000000 83.903396606  -999.250000
 9975.0000000 84.065902710  -999.250000
 9975.5000000 84.028396606  -999.250000
 9976.0000000 81.866798401  -999.250000
 9976.5000000 80.845802307  -999.250000
 9977.0000000 79.246597290  -999.250000
 9977.5000000 78.280799866  -999.250000
 9978.0000000 77.557998657  -999.250000
 9978.5000000 76.505401611  -999.250000
 9979.0000000 75.080902100  -999.250000
 9979.5000000 75.017799377  -999.250000
 9980.0000000 77.956199646  -999.250000
 9980.5000000 81.170402527  -999.250000
 9981.0000000 81.737998962  -999.250000
 9981.5000000 80.113899231  -999.250000
 9982.0000000 78.581703186  -999.250000
 9982.5000000 79.380599976  -999.250000
 9983.0000000 80.402999878  -999.250000
 9983.5000000 82.639503479  -999.250000
 9984.0000000 84.823501587  -999.250000
 9984.5000000 85.656600952  -999.250000
 9985.0000000 84.263702393  -999.250000
 9985.5000000 80.537002563  -999.250000
 9986.0000000 76.920700073  -999.250000
 9986.5000000 75.674598694  -999.250000
 9987.0000000 77.582901001  -999.250000
 9987.5000000 79.737998962  -999.250000
 9988.0000000 80.437103271  -999.250000
 9988.5000000 78.465896606  -999.250000
 9989.0000000 76.116500854  -999.250000
 9989.5000000 75.512001038  -999.250000
 9990.0000000 76.915397644  -999.250000
 9990.5000000 77.398902893  -999.250000
 9991.0000000 77.591201782  -999.250000
 9991.5000000 77.725502014  -999.250000
 9992.0000000 76.715698242  -999.250000
 9992.5000000 74.931198120  -999.250000
 9993.0000000 73.842399597  -999.250000
 9993.5000000 76.221603394  -999.250000
 9994.0000000 80.489601135  -999.250000
 9994.5000000 86.460800171  -999.250000
 9995.0000000 90.361099243  -999.250000
 9995.5000000 89.898399353  -999.250000
 9996.0000000 88.074600220  -999.250000
 9996.5000000 85.740699768  -999.250000
 9997.0000000 84.489700317  -999.250000
 9997.5000000 85.371498108  -999.250000
 9998.0000000 85.901496887  -999.250000
 9998.5000000 85.759498596  -999.250000
 9999.0000000 85.926002502  -999.250000
 9999.5000000 86.240097046  -999.250000
