# LAS format log file from PETREL
# Project units are specified as depth units
#==================================================================
~Version information
VERS.   2.0:
WRAP.   NO:
#==================================================================
~Well
STRT .ft      0.0000000000 :
STOP .ft      11414.000000 :
STEP .ft     0.50000000 :
NULL .        -999.250000 :
COMP.           : COMPANY
WELL.  AMOCO_A-4_294   : WELL
FLD.            : FIELD
LOC.            : LOCATION
SRVC.           : SERVICE COMPANY
DATE.  Wednesday, February 25 2009 13:07:23   : DATE
PROV.           : PROVINCE
UWI.   177014010000   : UNIQUE WELL ID
API.            : API NUMBER
#==================================================================
~Curve
DEPT .ft                   : DEPTH
GR_run2 .gAPI             : GR_run2
GR_run1 .gAPI             : GR_run1
~Parameter
#==================================================================
~Ascii
# ...
 2200.0000000  -999.250000 42.825599670
 2200.5000000  -999.250000 41.411998749
 2201.0000000  -999.250000 40.283100128
 2201.5000000  -999.250000 39.726100922
 2202.0000000  -999.250000 39.695598602
 2202.5000000  -999.250000 39.453899384
 2203.0000000  -999.250000 38.928699493
 2203.5000000  -999.250000 38.490100861
 2204.0000000  -999.250000 38.704200745
 2204.5000000  -999.250000 39.294700623
 2205.0000000  -999.250000 39.613899231
 2205.5000000  -999.250000 39.539398193
 2206.0000000  -999.250000 39.440101624
 2206.5000000  -999.250000 39.943401337
 2207.0000000  -999.250000 40.917098999
 2207.5000000  -999.250000 41.147098541
 2208.0000000  -999.250000 40.003398895
 2208.5000000  -999.250000 38.007301331
 2209.0000000  -999.250000 35.894001007
 2209.5000000  -999.250000 33.741401672
 2210.0000000  -999.250000 32.110000610
 2210.5000000  -999.250000 30.775899887
 2211.0000000  -999.250000 30.286100388
 2211.5000000  -999.250000 30.952100754
 2212.0000000  -999.250000 31.831899643
 2212.5000000  -999.250000 32.605998993
 2213.0000000  -999.250000 33.007801056
 2213.5000000  -999.250000 32.993499756
 2214.0000000  -999.250000 32.631500244
 2214.5000000  -999.250000 32.269500732
 2215.0000000  -999.250000 31.143899918
 2215.5000000  -999.250000 30.037500381
 2216.0000000  -999.250000 29.876100540
 2216.5000000  -999.250000 30.583499908
 2217.0000000  -999.250000 31.064699173
 2217.5000000  -999.250000 31.228900909
 2218.0000000  -999.250000 31.038099289
 2218.5000000  -999.250000 30.506900787
 2219.0000000  -999.250000 29.597000122
 2219.5000000  -999.250000 28.380500793
 2220.0000000  -999.250000 28.079399109
 2220.5000000  -999.250000 28.554500580
 2221.0000000  -999.250000 29.693399429
 2221.5000000  -999.250000 31.195800781
 2222.0000000  -999.250000 32.486499786
 2222.5000000  -999.250000 33.026401520
 2223.0000000  -999.250000 32.844699860
 2223.5000000  -999.250000 32.183601379
 2224.0000000  -999.250000 32.018901825
 2224.5000000  -999.250000 32.543399811
 2225.0000000  -999.250000 33.675701141
 2225.5000000  -999.250000 34.981399536
 2226.0000000  -999.250000 35.873699188
 2226.5000000  -999.250000 36.070598602
 2227.0000000  -999.250000 36.125198364
 2227.5000000  -999.250000 35.895801544
 2228.0000000  -999.250000 35.452598572
 2228.5000000  -999.250000 34.288898468
 2229.0000000  -999.250000 32.754600525
 2229.5000000  -999.250000 31.457399368
 2230.0000000  -999.250000 31.031099319
 2230.5000000  -999.250000 31.253499985
 2231.0000000  -999.250000 31.319700241
 2231.5000000  -999.250000 31.214899063
 2232.0000000  -999.250000 31.388500214
 2232.5000000  -999.250000 31.435899734
 2233.0000000  -999.250000 31.348800659
 2233.5000000  -999.250000 31.117799759
 2234.0000000  -999.250000 31.491199493
 2234.5000000  -999.250000 33.110698700
 2235.0000000  -999.250000 34.637500763
 2235.5000000  -999.250000 35.667499542
 2236.0000000  -999.250000 36.663101196
 2236.5000000  -999.250000 37.821998596
 2237.0000000  -999.250000 38.794399261
 2237.5000000  -999.250000 39.155399323
 2238.0000000  -999.250000 38.280101776
 2238.5000000  -999.250000 36.182498932
 2239.0000000  -999.250000 34.564498901
 2239.5000000  -999.250000 35.046798706
 2240.0000000  -999.250000 35.512298584
 2240.5000000  -999.250000 35.278499603
 2241.0000000  -999.250000 34.788600922
 2241.5000000  -999.250000 34.976398468
 2242.0000000  -999.250000 36.478500366
 2242.5000000  -999.250000 39.009101868
 2243.0000000  -999.250000 41.345699310
 2243.5000000  -999.250000 42.260398865
 2244.0000000  -999.250000 40.873798370
 2244.5000000  -999.250000 37.945301056
 2245.0000000  -999.250000 34.552398682
 2245.5000000  -999.250000 32.716999054
 2246.0000000  -999.250000 31.350999832
 2246.5000000  -999.250000 30.387399673
 2247.0000000  -999.250000 30.957700729
 2247.5000000  -999.250000 31.459400177
 2248.0000000  -999.250000 31.133899689
 2248.5000000  -999.250000 28.562599182
 2249.0000000  -999.250000 26.698499680
 2249.5000000  -999.250000 25.088399887
 2250.0000000  -999.250000 23.654800415
 2250.5000000  -999.250000 22.951599121
 2251.0000000  -999.250000 23.640699387
 2251.5000000  -999.250000 24.272899628
 2252.0000000  -999.250000 24.747800827
 2252.5000000  -999.250000 25.283899307
 2253.0000000  -999.250000 25.887800217
 2253.5000000  -999.250000 26.479799271
 2254.0000000  -999.250000 27.066099167
 2254.5000000  -999.250000 28.053899765
 2255.0000000  -999.250000 29.680200577
 2255.5000000  -999.250000 31.342300415
 2256.0000000  -999.250000 32.521800995
 2256.5000000  -999.250000 33.005100250
 2257.0000000  -999.250000 32.922599792
 2257.5000000  -999.250000 32.998699188
 2258.0000000  -999.250000 33.616901398
 2258.5000000  -999.250000 34.294300079
 2259.0000000  -999.250000 34.988899231
 2259.5000000  -999.250000 35.511798859
 2260.0000000  -999.250000 35.165000916
 2260.5000000  -999.250000 35.012100220
 2261.0000000  -999.250000 35.021900177
 2261.5000000  -999.250000 35.503200531
 2262.0000000  -999.250000 35.825401306
 2262.5000000  -999.250000 35.877101898
 2263.0000000  -999.250000 35.616001129
 2263.5000000  -999.250000 34.593399048
 2264.0000000  -999.250000 33.197601318
 2264.5000000  -999.250000 32.001201630
 2265.0000000  -999.250000 31.287799835
 2265.5000000  -999.250000 31.189199448
 2266.0000000  -999.250000 30.706800461
 2266.5000000  -999.250000 30.156400681
 2267.0000000  -999.250000 30.321699142
 2267.5000000  -999.250000 32.366600037
 2268.0000000  -999.250000 33.914699554
 2268.5000000  -999.250000 34.165401459
 2269.0000000  -999.250000 33.556198120
 2269.5000000  -999.250000 34.179401398
 2270.0000000  -999.250000 35.065601349
 2270.5000000  -999.250000 35.933200836
 2271.0000000  -999.250000 37.540401459
 2271.5000000  -999.250000 39.882701874
 2272.0000000  -999.250000 46.514499664
 2272.5000000  -999.250000 57.192501068
 2273.0000000  -999.250000 69.327301025
 2273.5000000  -999.250000 77.538597107
 2274.0000000  -999.250000 78.639999390
 2274.5000000  -999.250000 78.208900452
 2275.0000000  -999.250000 78.815696716
 2275.5000000  -999.250000 80.219596863
 2276.0000000  -999.250000 81.166397095
 2276.5000000  -999.250000 81.694900513
 2277.0000000  -999.250000 81.803596497
 2277.5000000  -999.250000 81.808799744
 2278.0000000  -999.250000 83.168601990
 2278.5000000  -999.250000 89.050003052
 2279.0000000  -999.250000 92.635696411
 2279.5000000  -999.250000 95.214500427
 2280.0000000  -999.250000 94.235801697
 2280.5000000  -999.250000 92.439796448
 2281.0000000  -999.250000 90.909797668
 2281.5000000  -999.250000 89.927902222
 2282.0000000  -999.250000 89.719200134
 2282.5000000  -999.250000 89.391601563
 2283.0000000  -999.250000 89.010101318
 2283.5000000  -999.250000 88.584999084
 2284.0000000  -999.250000 88.010002136
 2284.5000000  -999.250000 86.745399475
 2285.0000000  -999.250000 84.169197083
 2285.5000000  -999.250000 80.203002930
 2286.0000000  -999.250000 75.833999634
 2286.5000000  -999.250000 73.466102600
 2287.0000000  -999.250000 71.844703674
 2287.5000000  -999.250000 71.641998291
 2288.0000000  -999.250000 71.713996887
 2288.5000000  -999.250000 71.341697693
 2289.0000000  -999.250000 71.219398499
 2289.5000000  -999.250000 72.002403259
 2290.0000000  -999.250000 74.041702271
 2290.5000000  -999.250000 76.056198120
 2291.0000000  -999.250000 75.551101685
 2291.5000000  -999.250000 73.029296875
 2292.0000000  -999.250000 71.154502869
 2292.5000000  -999.250000 70.668296814
 2293.0000000  -999.250000 71.111900330
 2293.5000000  -999.250000 70.828598022
 2294.0000000  -999.250000 68.286003113
 2294.5000000  -999.250000 63.670398712
 2295.0000000  -999.250000 59.266300201
 2295.5000000  -999.250000 56.454399109
 2296.0000000  -999.250000 55.924098969
 2296.5000000  -999.250000 57.011699677
 2297.0000000  -999.250000 58.316398621
 2297.5000000  -999.250000 59.006000519
 2298.0000000  -999.250000 58.840999603
 2298.5000000  -999.250000 57.814498901
 2299.0000000  -999.250000 56.745700836
 2299.5000000  -999.250000 55.666599274
