# LAS format log file from PETREL
# Project units are specified as depth units
#==================================================================
~Version information
VERS.   2.0:
WRAP.   NO:
#==================================================================
~Well
STRT .ft      100.00000000 :
STOP .ft      12173.000000 :
STEP .ft     0.50000000 :
NULL .        -999.250000 :
COMP.           : COMPANY
WELL.  AMOCO_4_293   : WELL
FLD.            : FIELD
LOC.            : LOCATION
SRVC.           : SERVICE COMPANY
DATE.  Wednesday, February 25 2009 13:05:38   : DATE
PROV.           : PROVINCE
UWI.   177014024400   : UNIQUE WELL ID
API.            : API NUMBER
#==================================================================
~Curve
DEPT .ft                   : DEPTH
GR_run2 .gAPI             : GR_run2
GR_run1 .gAPI             : GR_run1
~Parameter
#==================================================================
~Ascii
# ...
 11400.000000 70.834602356  -999.250000
 11400.500000 69.177001953  -999.250000
 11401.000000 69.685798645  -999.250000
 11401.500000 73.745796204  -999.250000
 11402.000000 76.672897339  -999.250000
 11402.500000 78.375701904  -999.250000
 11403.000000 78.392303467  -999.250000
 11403.500000 78.405296326  -999.250000
 11404.000000 78.262901306  -999.250000
 11404.500000 76.641502380  -999.250000
 11405.000000 74.328102112  -999.250000
 11405.500000 72.371597290  -999.250000
 11406.000000 70.226097107  -999.250000
 11406.500000 68.580299377  -999.250000
 11407.000000 70.451698303  -999.250000
 11407.500000 74.154998779  -999.250000
 11408.000000 78.466903687  -999.250000
 11408.500000 80.071998596  -999.250000
 11409.000000 79.033401489  -999.250000
 11409.500000 76.515502930  -999.250000
 11410.000000 73.908401489  -999.250000
 11410.500000 71.917800903  -999.250000
 11411.000000 70.496200562  -999.250000
 11411.500000 70.782096863  -999.250000
 11412.000000 72.075202942  -999.250000
 11412.500000 71.979499817  -999.250000
 11413.000000 72.781997681  -999.250000
 11413.500000 73.570198059  -999.250000
 11414.000000 74.084800720  -999.250000
 11414.500000 75.130699158  -999.250000
 11415.000000 76.347702026  -999.250000
 11415.500000 76.300399780  -999.250000
 11416.000000 74.742599487  -999.250000
 11416.500000 73.593803406  -999.250000
 11417.000000 75.261802673  -999.250000
 11417.500000 77.144996643  -999.250000
 11418.000000 80.040496826  -999.250000
 11418.500000 83.476402283  -999.250000
 11419.000000 85.196899414  -999.250000
 11419.500000 83.555099487  -999.250000
 11420.000000 80.753898621  -999.250000
 11420.500000 77.921401978  -999.250000
 11421.000000 77.291900635  -999.250000
 11421.500000 82.254203796  -999.250000
 11422.000000 83.818603516  -999.250000
 11422.500000 82.825897217  -999.250000
 11423.000000 80.932296753  -999.250000
 11423.500000 78.981002808  -999.250000
 11424.000000 78.605796814  -999.250000
 11424.500000 78.985603333  -999.250000
 11425.000000 77.076797485  -999.250000
 11425.500000 74.241600037  -999.250000
 11426.000000 73.126197815  -999.250000
 11426.500000 74.427902222  -999.250000
 11427.000000 76.295196533  -999.250000
 11427.500000 77.381103516  -999.250000
 11428.000000 77.221099854  -999.250000
 11428.500000 76.676101685  -999.250000
 11429.000000 76.200202942  -999.250000
 11429.500000 76.384399414  -999.250000
 11430.000000 82.317100525  -999.250000
 11430.500000 87.887901306  -999.250000
 11431.000000 89.867996216  -999.250000
 11431.500000 88.601303101  -999.250000
 11432.000000 86.896499634  -999.250000
 11432.500000 86.906997681  -999.250000
 11433.000000 88.302200317  -999.250000
 11433.500000 88.727203369  -999.250000
 11434.000000 84.667098999  -999.250000
 11434.500000 80.418197632  -999.250000
 11435.000000 78.175796509  -999.250000
 11435.500000 78.233398438  -999.250000
 11436.000000 79.544799805  -999.250000
 11436.500000 81.333602905  -999.250000
 11437.000000 83.326896667  -999.250000
 11437.500000 84.015403748  -999.250000
 11438.000000 80.649002075  -999.250000
 11438.500000 75.067703247  -999.250000
 11439.000000 70.115997314  -999.250000
 11439.500000 61.282501221  -999.250000
 11440.000000 56.855201721  -999.250000
 11440.500000 52.847698212  -999.250000
 11441.000000 49.639999390  -999.250000
 11441.500000 50.030799866  -999.250000
 11442.000000 53.959701538  -999.250000
 11442.500000 59.478000641  -999.250000
 11443.000000 79.421600342  -999.250000
 11443.500000 82.886199951  -999.250000
 11444.000000 83.378402710  -999.250000
 11444.500000 82.846900940  -999.250000
 11445.000000 81.428001404  -999.250000
 11445.500000 79.279899597  -999.250000
 11446.000000 77.404701233  -999.250000
 11446.500000 77.921401978  -999.250000
 11447.000000 81.907997131  -999.250000
 11447.500000 86.219802856  -999.250000
 11448.000000 86.366699219  -999.250000
 11448.500000 83.534103394  -999.250000
 11449.000000 76.358200073  -999.250000
 11449.500000 70.220802307  -999.250000
 11450.000000 65.772598267  -999.250000
 11450.500000 65.248001099  -999.250000
 11451.000000 70.346801758  -999.250000
 11451.500000 76.672897339  -999.250000
 11452.000000 79.535598755  -999.250000
 11452.500000 80.148696899  -999.250000
 11453.000000 81.060798645  -999.250000
 11453.500000 82.319702148  -999.250000
 11454.000000 81.997200012  -999.250000
 11454.500000 77.858398438  -999.250000
 11455.000000 73.368202209  -999.250000
 11455.500000 69.872100830  -999.250000
 11456.000000 71.369598389  -999.250000
 11456.500000 76.085403442  -999.250000
 11457.000000 80.444503784  -999.250000
 11457.500000 83.090797424  -999.250000
 11458.000000 82.694801331  -999.250000
 11458.500000 81.995796204  -999.250000
 11459.000000 81.198501587  -999.250000
 11459.500000 80.273902893  -999.250000
 11460.000000 79.087196350  -999.250000
 11460.500000 78.978302002  -999.250000
 11461.000000 81.441200256  -999.250000
 11461.500000 85.390998840  -999.250000
 11462.000000 91.979400635  -999.250000
 11462.500000 95.488601685  -999.250000
 11463.000000 93.469100952  -999.250000
 11463.500000 89.666099548  -999.250000
 11464.000000 86.503097534  -999.250000
 11464.500000 84.528099060  -999.250000
 11465.000000 86.854499817  -999.250000
 11465.500000 89.288497925  -999.250000
 11466.000000 90.557899475  -999.250000
 11466.500000 88.868797302  -999.250000
 11467.000000 88.963302612  -999.250000
 11467.500000 93.374801636  -999.250000
 11468.000000 97.523902893  -999.250000
 11468.500000 100.25170135  -999.250000
 11469.000000 97.878097534  -999.250000
 11469.500000 96.675201416  -999.250000
 11470.000000 97.049201965  -999.250000
 11470.500000 97.337196350  -999.250000
 11471.000000 97.706298828  -999.250000
 11471.500000 98.044601440  -999.250000
 11472.000000 98.365798950  -999.250000
 11472.500000 98.737998962  -999.250000
 11473.000000 96.794799805  -999.250000
 11473.500000 93.883499146  -999.250000
 11474.000000 91.664703369  -999.250000
 11474.500000 93.117698669  -999.250000
 11475.000000 93.824600220  -999.250000
 11475.500000 93.684196472  -999.250000
 11476.000000 89.335700989  -999.250000
 11476.500000 87.018402100  -999.250000
 11477.000000 86.926597595  -999.250000
 11477.500000 87.636100769  -999.250000
 11478.000000 89.144203186  -999.250000
 11478.500000 90.597198486  -999.250000
 11479.000000 92.383300781  -999.250000
 11479.500000 92.485603333  -999.250000
 11480.000000 90.531600952  -999.250000
 11480.500000 88.066299438  -999.250000
 11481.000000 85.973297119  -999.250000
 11481.500000 84.746803284  -999.250000
 11482.000000 86.817703247  -999.250000
 11482.500000 89.980796814  -999.250000
 11483.000000 89.110099792  -999.250000
 11483.500000 87.890502930  -999.250000
 11484.000000 87.281997681  -999.250000
 11484.500000 88.693099976  -999.250000
 11485.000000 89.705398560  -999.250000
 11485.500000 89.817901611  -999.250000
 11486.000000 88.375701904  -999.250000
 11486.500000 85.705703735  -999.250000
 11487.000000 84.000999451  -999.250000
 11487.500000 85.160202026  -999.250000
 11488.000000 87.363296509  -999.250000
 11488.500000 90.264198303  -999.250000
 11489.000000 92.060798645  -999.250000
 11489.500000 91.651603699  -999.250000
 11490.000000 92.042396545  -999.250000
 11490.500000 92.919700623  -999.250000
 11491.000000 91.045799255  -999.250000
 11491.500000 86.608001709  -999.250000
 11492.000000 82.888900757  -999.250000
 11492.500000 81.068702698  -999.250000
 11493.000000 81.309898376  -999.250000
 11493.500000 83.938003540  -999.250000
 11494.000000 86.812500000  -999.250000
 11494.500000 90.224700928  -999.250000
 11495.000000 91.221397400  -999.250000
 11495.500000 90.185401917  -999.250000
 11496.000000 89.590301514  -999.250000
 11496.500000 91.549301147  -999.250000
 11497.000000 96.438102722  -999.250000
 11497.500000 101.00959778  -999.250000
 11498.000000 101.59059906  -999.250000
 11498.500000 99.428100586  -999.250000
 11499.000000 93.353797913  -999.250000
 11499.500000 88.889801025  -999.250000
