# LAS format log file from PETREL
# Project units are specified as depth units
#==================================================================
~Version information
VERS.   2.0:
WRAP.   NO:
#==================================================================
~Well
STRT .ft      100.00000000 :
STOP .ft      12173.000000 :
STEP .ft     0.50000000 :
NULL .        -999.250000 :
COMP.           : COMPANY
WELL.  AMOCO_4_293   : WELL
FLD.            : FIELD
LOC.            : LOCATION
SRVC.           : SERVICE COMPANY
DATE.  Wednesday, February 25 2009 13:05:38   : DATE
PROV.           : PROVINCE
UWI.   177014024400   : UNIQUE WELL ID
API.            : API NUMBER
#==================================================================
~Curve
DEPT .ft                   : DEPTH
GR_run2 .gAPI             : GR_run2
GR_run1 .gAPI             : GR_run1
~Parameter
#==================================================================
~Ascii
# ...
 5400.0000000  -999.250000 76.726600647
 5400.5000000  -999.250000 79.666397095
 5401.0000000  -999.250000 82.901199341
 5401.5000000  -999.250000 83.492401123
 5402.0000000  -999.250000 82.589103699
 5402.5000000  -999.250000 79.553596497
 5403.0000000  -999.250000 77.206802368
 5403.5000000  -999.250000 78.574996948
 5404.0000000  -999.250000 82.578598022
 5404.5000000  -999.250000 83.986198425
 5405.0000000  -999.250000 81.828201294
 5405.5000000  -999.250000 76.880096436
 5406.0000000  -999.250000 75.260597229
 5406.5000000  -999.250000 78.554000854
 5407.0000000  -999.250000 80.431198120
 5407.5000000  -999.250000 79.975997925
 5408.0000000  -999.250000 79.547599792
 5408.5000000  -999.250000 84.672203064
 5409.0000000  -999.250000 89.035301208
 5409.5000000  -999.250000 91.281097412
 5410.0000000  -999.250000 84.373199463
 5410.5000000  -999.250000 80.136497498
 5411.0000000  -999.250000 81.515998840
 5411.5000000  -999.250000 83.567703247
 5412.0000000  -999.250000 84.362503052
 5412.5000000  -999.250000 84.491203308
 5413.0000000  -999.250000 86.419601440
 5413.5000000  -999.250000 88.206298828
 5414.0000000  -999.250000 89.562599182
 5414.5000000  -999.250000 90.273101807
 5415.0000000  -999.250000 89.544296265
 5415.5000000  -999.250000 87.308998108
 5416.0000000  -999.250000 85.608901978
 5416.5000000  -999.250000 86.411697388
 5417.0000000  -999.250000 88.919197083
 5417.5000000  -999.250000 88.402297974
 5418.0000000  -999.250000 88.287200928
 5418.5000000  -999.250000 88.612297058
 5419.0000000  -999.250000 86.325103760
 5419.5000000  -999.250000 81.928001404
 5420.0000000  -999.250000 77.530799866
 5420.5000000  -999.250000 77.842903137
 5421.0000000  -999.250000 80.453498840
 5421.5000000  -999.250000 81.735702515
 5422.0000000  -999.250000 82.118797302
 5422.5000000  -999.250000 82.283401489
 5423.0000000  -999.250000 82.548698425
 5423.5000000  -999.250000 85.370101929
 5424.0000000  -999.250000 88.679801941
 5424.5000000  -999.250000 89.081802368
 5425.0000000  -999.250000 86.666099548
 5425.5000000  -999.250000 82.045997620
 5426.0000000  -999.250000 80.227203369
 5426.5000000  -999.250000 79.749000549
 5427.0000000  -999.250000 80.545303345
 5427.5000000  -999.250000 81.669601440
 5428.0000000  -999.250000 82.538002014
 5428.5000000  -999.250000 83.072097778
 5429.0000000  -999.250000 81.502899170
 5429.5000000  -999.250000 80.270500183
 5430.0000000  -999.250000 82.809402466
 5430.5000000  -999.250000 91.299598694
 5431.0000000  -999.250000 99.306800842
 5431.5000000  -999.250000 100.71829987
 5432.0000000  -999.250000 97.155403137
 5432.5000000  -999.250000 91.598602295
 5433.0000000  -999.250000 86.046997070
 5433.5000000  -999.250000 79.540397644
 5434.0000000  -999.250000 76.103500366
 5434.5000000  -999.250000 75.636497498
 5435.0000000  -999.250000 78.396499634
 5435.5000000  -999.250000 79.589996338
 5436.0000000  -999.250000 79.333099365
 5436.5000000  -999.250000 78.921501160
 5437.0000000  -999.250000 80.117698669
 5437.5000000  -999.250000 80.919403076
 5438.0000000  -999.250000 80.882698059
 5438.5000000  -999.250000 81.231300354
 5439.0000000  -999.250000 82.057098389
 5439.5000000  -999.250000 83.090202332
 5440.0000000  -999.250000 84.463600159
 5440.5000000  -999.250000 85.362297058
 5441.0000000  -999.250000 83.851097107
 5441.5000000  -999.250000 83.332298279
 5442.0000000  -999.250000 85.351799011
 5442.5000000  -999.250000 88.589401245
 5443.0000000  -999.250000 90.268402100
 5443.5000000  -999.250000 91.349403381
 5444.0000000  -999.250000 91.073898315
 5444.5000000  -999.250000 88.544700623
 5445.0000000  -999.250000 86.940299988
 5445.5000000  -999.250000 85.337303162
 5446.0000000  -999.250000 83.733001709
 5446.5000000  -999.250000 82.607398987
 5447.0000000  -999.250000 85.587898254
 5447.5000000  -999.250000 89.562599182
 5448.0000000  -999.250000 87.608001709
 5448.5000000  -999.250000 84.265602112
 5449.0000000  -999.250000 83.755203247
 5449.5000000  -999.250000 88.707397461
 5450.0000000  -999.250000 91.780998230
 5450.5000000  -999.250000 92.638099670
 5451.0000000  -999.250000 88.460800171
 5451.5000000  -999.250000 82.379203796
 5452.0000000  -999.250000 77.560897827
 5452.5000000  -999.250000 83.082298279
 5453.0000000  -999.250000 89.058998108
 5453.5000000  -999.250000 93.206901550
 5454.0000000  -999.250000 90.782699585
 5454.5000000  -999.250000 88.135398865
 5455.0000000  -999.250000 88.512001038
 5455.5000000  -999.250000 91.729698181
 5456.0000000  -999.250000 93.650901794
 5456.5000000  -999.250000 93.795898438
 5457.0000000  -999.250000 92.829101563
 5457.5000000  -999.250000 88.240402222
 5458.0000000  -999.250000 82.536598206
 5458.5000000  -999.250000 80.846099854
 5459.0000000  -999.250000 88.277099609
 5459.5000000  -999.250000 97.239402771
 5460.0000000  -999.250000 97.777198792
 5460.5000000  -999.250000 93.125602722
 5461.0000000  -999.250000 91.227401733
 5461.5000000  -999.250000 91.492301941
 5462.0000000  -999.250000 93.382698059
 5462.5000000  -999.250000 95.220497131
 5463.0000000  -999.250000 96.413002014
 5463.5000000  -999.250000 96.883796692
 5464.0000000  -999.250000 97.027297974
 5464.5000000  -999.250000 97.371902466
 5465.0000000  -999.250000 101.97239685
 5465.5000000  -999.250000 105.50650024
 5466.0000000  -999.250000 105.16799927
 5466.5000000  -999.250000 97.045303345
 5467.0000000  -999.250000 89.489303589
 5467.5000000  -999.250000 81.933197021
 5468.0000000  -999.250000 77.461196899
 5468.5000000  -999.250000 79.228302002
 5469.0000000  -999.250000 83.176803589
 5469.5000000  -999.250000 87.479499817
 5470.0000000  -999.250000 90.470497131
 5470.5000000  -999.250000 92.499099731
 5471.0000000  -999.250000 92.013198853
 5471.5000000  -999.250000 91.472297668
 5472.0000000  -999.250000 90.709197998
 5472.5000000  -999.250000 86.655799866
 5473.0000000  -999.250000 81.796798706
 5473.5000000  -999.250000 77.462501526
 5474.0000000  -999.250000 75.347900391
 5474.5000000  -999.250000 73.628097534
 5475.0000000  -999.250000 72.267700195
 5475.5000000  -999.250000 71.117301941
 5476.0000000  -999.250000 70.328903198
 5476.5000000  -999.250000 69.710700989
 5477.0000000  -999.250000 69.373001099
 5477.5000000  -999.250000 70.263298035
 5478.0000000  -999.250000 74.828399658
 5478.5000000  -999.250000 77.437599182
 5479.0000000  -999.250000 78.490997314
 5479.5000000  -999.250000 79.013801575
 5480.0000000  -999.250000 79.351600647
 5480.5000000  -999.250000 81.838699341
 5481.0000000  -999.250000 87.159400940
 5481.5000000  -999.250000 90.424598694
 5482.0000000  -999.250000 87.432296753
 5482.5000000  -999.250000 84.281402588
 5483.0000000  -999.250000 81.888496399
 5483.5000000  -999.250000 80.019302368
 5484.0000000  -999.250000 78.458297729
 5484.5000000  -999.250000 76.701698303
 5485.0000000  -999.250000 73.418197632
 5485.5000000  -999.250000 69.234901428
 5486.0000000  -999.250000 63.856399536
 5486.5000000  -999.250000 59.345199585
 5487.0000000  -999.250000 57.391799927
 5487.5000000  -999.250000 55.243099213
 5488.0000000  -999.250000 52.985500336
 5488.5000000  -999.250000 52.194900513
 5489.0000000  -999.250000 57.486301422
 5489.5000000  -999.250000 63.788200378
 5490.0000000  -999.250000 70.054702759
 5490.5000000  -999.250000 70.008201599
 5491.0000000  -999.250000 69.654899597
 5491.5000000  -999.250000 69.136497498
 5492.0000000  -999.250000 64.869102478
 5492.5000000  -999.250000 62.090801239
 5493.0000000  -999.250000 61.472900391
 5493.5000000  -999.250000 66.170402527
 5494.0000000  -999.250000 69.661102295
 5494.5000000  -999.250000 67.639602661
 5495.0000000  -999.250000 62.722999573
 5495.5000000  -999.250000 57.641101837
 5496.0000000  -999.250000 55.458301544
 5496.5000000  -999.250000 55.466701508
 5497.0000000  -999.250000 57.000900269
 5497.5000000  -999.250000 60.317199707
 5498.0000000  -999.250000 64.785202026
 5498.5000000  -999.250000 68.533096313
 5499.0000000  -999.250000 69.636199951
 5499.5000000  -999.250000 67.967697144
