# LAS format log file from PETREL
# Project units are specified as depth units
#==================================================================
~Version information
VERS.   2.0:
WRAP.   NO:
#==================================================================
~Well
STRT .ft      100.00000000 :
STOP .ft      12173.000000 :
STEP .ft     0.50000000 :
NULL .        -999.250000 :
COMP.           : COMPANY
WELL.  AMOCO_4_293   : WELL
FLD.            : FIELD
LOC.            : LOCATION
SRVC.           : SERVICE COMPANY
DATE.  Wednesday, February 25 2009 13:05:38   : DATE
PROV.           : PROVINCE
UWI.   177014024400   : UNIQUE WELL ID
API.            : API NUMBER
#==================================================================
~Curve
DEPT .ft                   : DEPTH
GR_run2 .gAPI             : GR_run2
GR_run1 .gAPI             : GR_run1
~Parameter
#==================================================================
~Ascii
# ...
 6900.0000000  -999.250000 65.416000366
 6900.5000000  -999.250000 67.321296692
 6901.0000000  -999.250000 67.606903076
 6901.5000000  -999.250000 64.442398071
 6902.0000000  -999.250000 60.105499268
 6902.5000000  -999.250000 55.768699646
 6903.0000000  -999.250000 56.460800171
 6903.5000000  -999.250000 58.110801697
 6904.0000000  -999.250000 58.710800171
 6904.5000000  -999.250000 55.721298218
 6905.0000000  -999.250000 53.262100220
 6905.5000000  -999.250000 54.087001801
 6906.0000000  -999.250000 54.761001587
 6906.5000000  -999.250000 52.960800171
 6907.0000000  -999.250000 49.742298126
 6907.5000000  -999.250000 46.392299652
 6908.0000000  -999.250000 46.034400940
 6908.5000000  -999.250000 49.947601318
 6909.0000000  -999.250000 54.368698120
 6909.5000000  -999.250000 54.010700226
 6910.0000000  -999.250000 49.531799316
 6910.5000000  -999.250000 41.463298798
 6911.0000000  -999.250000 38.213600159
 6911.5000000  -999.250000 38.923801422
 6912.0000000  -999.250000 41.621200562
 6912.5000000  -999.250000 48.126499176
 6913.0000000  -999.250000 54.642299652
 6913.5000000  -999.250000 61.158100128
 6914.0000000  -999.250000 65.431900024
 6914.5000000  -999.250000 67.939796448
 6915.0000000  -999.250000 69.597702026
 6915.5000000  -999.250000 69.431900024
 6916.0000000  -999.250000 65.379302979
 6916.5000000  -999.250000 61.813400269
 6917.0000000  -999.250000 59.421298981
 6917.5000000  -999.250000 57.905498505
 6918.0000000  -999.250000 56.854198456
 6918.5000000  -999.250000 56.077899933
 6919.0000000  -999.250000 55.323898315
 6919.5000000  -999.250000 54.620601654
 6920.0000000  -999.250000 54.164100647
 6920.5000000  -999.250000 53.871601105
 6921.0000000  -999.250000 54.306800842
 6921.5000000  -999.250000 56.818698883
 6922.0000000  -999.250000 60.152900696
 6922.5000000  -999.250000 62.456798553
 6923.0000000  -999.250000 62.808200836
 6923.5000000  -999.250000 61.512100220
 6924.0000000  -999.250000 60.589099884
 6924.5000000  -999.250000 60.345001221
 6925.0000000  -999.250000 61.796298981
 6925.5000000  -999.250000 62.784500122
 6926.0000000  -999.250000 63.317401886
 6926.5000000  -999.250000 60.889801025
 6927.0000000  -999.250000 57.231800079
 6927.5000000  -999.250000 55.366001129
 6928.0000000  -999.250000 54.246299744
 6928.5000000  -999.250000 52.747600555
 6929.0000000  -999.250000 50.734401703
 6929.5000000  -999.250000 50.317901611
 6930.0000000  -999.250000 51.179100037
 6930.5000000  -999.250000 52.048900604
 6931.0000000  -999.250000 53.097599030
 6931.5000000  -999.250000 55.552898407
 6932.0000000  -999.250000 61.342399597
 6932.5000000  -999.250000 63.726600647
 6933.0000000  -999.250000 64.129898071
 6933.5000000  -999.250000 63.284500122
 6934.0000000  -999.250000 61.987098694
 6934.5000000  -999.250000 60.960399628
 6935.0000000  -999.250000 60.877899170
 6935.5000000  -999.250000 62.810798645
 6936.0000000  -999.250000 66.937103271
 6936.5000000  -999.250000 70.618797302
 6937.0000000  -999.250000 72.255599976
 6937.5000000  -999.250000 73.183197021
 6938.0000000  -999.250000 73.919998169
 6938.5000000  -999.250000 75.739898682
 6939.0000000  -999.250000 78.371498108
 6939.5000000  -999.250000 80.645103455
 6940.0000000  -999.250000 81.804298401
 6940.5000000  -999.250000 81.512199402
 6941.0000000  -999.250000 80.825996399
 6941.5000000  -999.250000 80.629203796
 6942.0000000  -999.250000 81.608299255
 6942.5000000  -999.250000 83.236000061
 6943.0000000  -999.250000 82.700401306
 6943.5000000  -999.250000 79.200401306
 6944.0000000  -999.250000 75.310897827
 6944.5000000  -999.250000 75.130599976
 6945.0000000  -999.250000 76.488502502
 6945.5000000  -999.250000 76.516799927
 6946.0000000  -999.250000 74.358299255
 6946.5000000  -999.250000 72.258201599
 6947.0000000  -999.250000 71.721397400
 6947.5000000  -999.250000 74.484497070
 6948.0000000  -999.250000 77.847801208
 6948.5000000  -999.250000 80.660896301
 6949.0000000  -999.250000 81.708297729
 6949.5000000  -999.250000 81.805099487
 6950.0000000  -999.250000 82.371498108
 6950.5000000  -999.250000 83.989898682
 6951.0000000  -999.250000 85.477996826
 6951.5000000  -999.250000 86.533302307
 6952.0000000  -999.250000 86.495101929
 6952.5000000  -999.250000 86.155998230
 6953.0000000  -999.250000 86.594497681
 6953.5000000  -999.250000 88.150398254
 6954.0000000  -999.250000 89.710899353
 6954.5000000  -999.250000 88.582000732
 6955.0000000  -999.250000 87.611000061
 6955.5000000  -999.250000 88.538597107
 6956.0000000  -999.250000 89.403099060
 6956.5000000  -999.250000 89.250503540
 6957.0000000  -999.250000 88.577400208
 6957.5000000  -999.250000 89.721603394
 6958.0000000  -999.250000 95.474197388
 6958.5000000  -999.250000 100.88480377
 6959.0000000  -999.250000 103.33219910
 6959.5000000  -999.250000 103.28340149
 6960.0000000  -999.250000 101.00319672
 6960.5000000  -999.250000 96.884803772
 6961.0000000  -999.250000 91.116203308
 6961.5000000  -999.250000 85.342498779
 6962.0000000  -999.250000 80.324096680
 6962.5000000  -999.250000 79.545196533
 6963.0000000  -999.250000 82.213600159
 6963.5000000  -999.250000 83.841201782
 6964.0000000  -999.250000 84.434898376
 6964.5000000  -999.250000 84.258903503
 6965.0000000  -999.250000 83.192497253
 6965.5000000  -999.250000 82.062301636
 6966.0000000  -999.250000 81.369499207
 6966.5000000  -999.250000 80.718902588
 6967.0000000  -999.250000 78.747802734
 6967.5000000  -999.250000 74.752899170
 6968.0000000  -999.250000 73.661499023
 6968.5000000  -999.250000 72.901603699
 6969.0000000  -999.250000 70.589797974
 6969.5000000  -999.250000 67.352897644
 6970.0000000  -999.250000 66.642303467
 6970.5000000  -999.250000 71.242401123
 6971.0000000  -999.250000 75.279296875
 6971.5000000  -999.250000 76.566299438
 6972.0000000  -999.250000 76.385902405
 6972.5000000  -999.250000 76.281600952
 6973.0000000  -999.250000 76.496498108
 6973.5000000  -999.250000 76.695297241
 6974.0000000  -999.250000 76.322799683
 6974.5000000  -999.250000 75.352996826
 6975.0000000  -999.250000 75.076698303
 6975.5000000  -999.250000 77.852996826
 6976.0000000  -999.250000 80.908302307
 6976.5000000  -999.250000 82.554298401
 6977.0000000  -999.250000 82.664901733
 6977.5000000  -999.250000 81.739898682
 6978.0000000  -999.250000 81.368499756
 6978.5000000  -999.250000 83.126701355
 6979.0000000  -999.250000 85.055702209
 6979.5000000  -999.250000 84.780601501
 6980.0000000  -999.250000 82.753097534
 6980.5000000  -999.250000 80.029296875
 6981.0000000  -999.250000 78.334602356
 6981.5000000  -999.250000 76.000396729
 6982.0000000  -999.250000 73.787200928
 6982.5000000  -999.250000 71.902999878
 6983.0000000  -999.250000 70.568702698
 6983.5000000  -999.250000 70.598999023
 6984.0000000  -999.250000 71.750396729
 6984.5000000  -999.250000 73.376701355
 6985.0000000  -999.250000 75.044998169
 6985.5000000  -999.250000 77.679298401
 6986.0000000  -999.250000 79.453002930
 6986.5000000  -999.250000 79.476699829
 6987.0000000  -999.250000 77.731903076
 6987.5000000  -999.250000 74.147697449
 6988.0000000  -999.250000 70.741096497
 6988.5000000  -999.250000 69.655502319
 6989.0000000  -999.250000 68.529296875
 6989.5000000  -999.250000 66.803001404
 6990.0000000  -999.250000 66.446998596
 6990.5000000  -999.250000 67.868797302
 6991.0000000  -999.250000 71.102897644
 6991.5000000  -999.250000 72.830596924
 6992.0000000  -999.250000 72.930297852
 6992.5000000  -999.250000 73.214797974
 6993.0000000  -999.250000 75.521400452
 6993.5000000  -999.250000 78.626701355
 6994.0000000  -999.250000 80.479400635
 6994.5000000  -999.250000 80.320800781
 6995.0000000  -999.250000 79.598396301
 6995.5000000  -999.250000 79.372596741
 6996.0000000  -999.250000 79.253997803
 6996.5000000  -999.250000 78.150398254
 6997.0000000  -999.250000 76.431900024
 6997.5000000  -999.250000 74.795799255
 6998.0000000  -999.250000 78.379302979
 6998.5000000  -999.250000 82.629402161
 6999.0000000  -999.250000 83.481300354
 6999.5000000  -999.250000 82.455703735
