# LAS format log file from PETREL
# Project units are specified as depth units
#==================================================================
~Version information
VERS.   2.0:
WRAP.   NO:
#==================================================================
~Well
STRT .ft      0.0000000000 :
STOP .ft      11414.000000 :
STEP .ft     0.50000000 :
NULL .        -999.250000 :
COMP.           : COMPANY
WELL.  AMOCO_A-4_294   : WELL
FLD.            : FIELD
LOC.            : LOCATION
SRVC.           : SERVICE COMPANY
DATE.  Wednesday, February 25 2009 13:07:23   : DATE
PROV.           : PROVINCE
UWI.   177014010000   : UNIQUE WELL ID
API.            : API NUMBER
#==================================================================
~Curve
DEPT .ft                   : DEPTH
GR_run2 .gAPI             : GR_run2
GR_run1 .gAPI             : GR_run1
~Parameter
#==================================================================
~Ascii
# ...
 1000.0000000  -999.250000 59.096698761
 1000.5000000  -999.250000 57.495098114
 1001.0000000  -999.250000 56.545101166
 1001.5000000  -999.250000 58.094898224
 1002.0000000  -999.250000 58.830101013
 1002.5000000  -999.250000 59.506999969
 1003.0000000  -999.250000 60.726699829
 1003.5000000  -999.250000 63.053600311
 1004.0000000  -999.250000 67.560699463
 1004.5000000  -999.250000 71.772697449
 1005.0000000  -999.250000 75.289100647
 1005.5000000  -999.250000 76.505699158
 1006.0000000  -999.250000 77.616203308
 1006.5000000  -999.250000 80.352699280
 1007.0000000  -999.250000 83.269401550
 1007.5000000  -999.250000 84.834098816
 1008.0000000  -999.250000 85.691299438
 1008.5000000  -999.250000 85.576400757
 1009.0000000  -999.250000 81.644203186
 1009.5000000  -999.250000 78.391197205
 1010.0000000  -999.250000 75.287696838
 1010.5000000  -999.250000 72.388900757
 1011.0000000  -999.250000 71.353897095
 1011.5000000  -999.250000 72.333602905
 1012.0000000  -999.250000 73.964500427
 1012.5000000  -999.250000 76.472396851
 1013.0000000  -999.250000 78.598503113
 1013.5000000  -999.250000 80.148101807
 1014.0000000  -999.250000 80.808502197
 1014.5000000  -999.250000 79.309700012
 1015.0000000  -999.250000 77.704002380
 1015.5000000  -999.250000 77.205101013
 1016.0000000  -999.250000 77.129600525
 1016.5000000  -999.250000 76.910499573
 1017.0000000  -999.250000 76.324996948
 1017.5000000  -999.250000 75.689796448
 1018.0000000  -999.250000 74.365097046
 1018.5000000  -999.250000 72.440803528
 1019.0000000  -999.250000 69.385696411
 1019.5000000  -999.250000 65.434600830
 1020.0000000  -999.250000 62.627799988
 1020.5000000  -999.250000 61.919700623
 1021.0000000  -999.250000 62.340999603
 1021.5000000  -999.250000 61.844100952
 1022.0000000  -999.250000 60.782001495
 1022.5000000  -999.250000 59.822299957
 1023.0000000  -999.250000 59.253898621
 1023.5000000  -999.250000 60.086200714
 1024.0000000  -999.250000 61.980201721
 1024.5000000  -999.250000 63.396598816
 1025.0000000  -999.250000 64.307998657
 1025.5000000  -999.250000 64.985603333
 1026.0000000  -999.250000 65.669097900
 1026.5000000  -999.250000 66.115997314
 1027.0000000  -999.250000 66.115798950
 1027.5000000  -999.250000 65.542503357
 1028.0000000  -999.250000 65.139198303
 1028.5000000  -999.250000 64.870796204
 1029.0000000  -999.250000 64.432601929
 1029.5000000  -999.250000 64.070098877
 1030.0000000  -999.250000 64.389602661
 1030.5000000  -999.250000 66.470901489
 1031.0000000  -999.250000 68.591400146
 1031.5000000  -999.250000 69.680801392
 1032.0000000  -999.250000 68.921600342
 1032.5000000  -999.250000 67.562896729
 1033.0000000  -999.250000 66.175201416
 1033.5000000  -999.250000 68.017898560
 1034.0000000  -999.250000 69.305099487
 1034.5000000  -999.250000 69.990402222
 1035.0000000  -999.250000 70.046997070
 1035.5000000  -999.250000 69.936798096
 1036.0000000  -999.250000 70.384803772
 1036.5000000  -999.250000 71.516502380
 1037.0000000  -999.250000 73.281402588
 1037.5000000  -999.250000 74.854698181
 1038.0000000  -999.250000 75.940803528
 1038.5000000  -999.250000 76.266601563
 1039.0000000  -999.250000 74.829002380
 1039.5000000  -999.250000 72.974998474
 1040.0000000  -999.250000 70.905403137
 1040.5000000  -999.250000 68.544197083
 1041.0000000  -999.250000 66.056198120
 1041.5000000  -999.250000 65.896697998
 1042.0000000  -999.250000 66.687599182
 1042.5000000  -999.250000 65.970901489
 1043.0000000  -999.250000 63.897899628
 1043.5000000  -999.250000 62.609600067
 1044.0000000  -999.250000 61.795799255
 1044.5000000  -999.250000 60.390098572
 1045.0000000  -999.250000 58.057598114
 1045.5000000  -999.250000 56.154499054
 1046.0000000  -999.250000 54.685600281
 1046.5000000  -999.250000 55.566600800
 1047.0000000  -999.250000 56.497398376
 1047.5000000  -999.250000 57.175399780
 1048.0000000  -999.250000 57.385398865
 1048.5000000  -999.250000 56.903099060
 1049.0000000  -999.250000 56.227600098
 1049.5000000  -999.250000 55.707500458
 1050.0000000  -999.250000 55.812801361
 1050.5000000  -999.250000 56.184898376
 1051.0000000  -999.250000 56.375701904
 1051.5000000  -999.250000 56.333900452
 1052.0000000  -999.250000 56.614398956
 1052.5000000  -999.250000 57.359901428
 1053.0000000  -999.250000 58.805400848
 1053.5000000  -999.250000 61.093700409
 1054.0000000  -999.250000 64.106597900
 1054.5000000  -999.250000 67.544898987
 1055.0000000  -999.250000 69.925903320
 1055.5000000  -999.250000 71.428298950
 1056.0000000  -999.250000 71.785896301
 1056.5000000  -999.250000 71.856002808
 1057.0000000  -999.250000 71.614601135
 1057.5000000  -999.250000 70.824699402
 1058.0000000  -999.250000 69.137802124
 1058.5000000  -999.250000 66.960403442
 1059.0000000  -999.250000 63.895401001
 1059.5000000  -999.250000 60.568901062
 1060.0000000  -999.250000 58.945301056
 1060.5000000  -999.250000 59.770801544
 1061.0000000  -999.250000 60.121601105
 1061.5000000  -999.250000 59.864700317
 1062.0000000  -999.250000 59.210300446
 1062.5000000  -999.250000 58.603500366
 1063.0000000  -999.250000 58.565101624
 1063.5000000  -999.250000 59.011398315
 1064.0000000  -999.250000 59.837799072
 1064.5000000  -999.250000 61.171600342
 1065.0000000  -999.250000 62.931999207
 1065.5000000  -999.250000 65.483497620
 1066.0000000  -999.250000 67.399696350
 1066.5000000  -999.250000 67.648902893
 1067.0000000  -999.250000 67.489303589
 1067.5000000  -999.250000 67.311401367
 1068.0000000  -999.250000 66.649398804
 1068.5000000  -999.250000 65.373901367
 1069.0000000  -999.250000 64.325798035
 1069.5000000  -999.250000 64.128402710
 1070.0000000  -999.250000 65.016098022
 1070.5000000  -999.250000 66.103401184
 1071.0000000  -999.250000 66.825302124
 1071.5000000  -999.250000 66.450996399
 1072.0000000  -999.250000 65.547897339
 1072.5000000  -999.250000 65.108596802
 1073.0000000  -999.250000 65.050903320
 1073.5000000  -999.250000 64.550498962
 1074.0000000  -999.250000 63.514598846
 1074.5000000  -999.250000 62.721298218
 1075.0000000  -999.250000 62.346698761
 1075.5000000  -999.250000 62.097400665
 1076.0000000  -999.250000 61.583999634
 1076.5000000  -999.250000 60.876201630
 1077.0000000  -999.250000 60.229099274
 1077.5000000  -999.250000 60.945701599
 1078.0000000  -999.250000 61.960800171
 1078.5000000  -999.250000 62.907001495
 1079.0000000  -999.250000 63.409900665
 1079.5000000  -999.250000 63.591098785
 1080.0000000  -999.250000 63.504501343
 1080.5000000  -999.250000 63.924999237
 1081.0000000  -999.250000 64.415901184
 1081.5000000  -999.250000 63.550098419
 1082.0000000  -999.250000 61.389701843
 1082.5000000  -999.250000 58.548999786
 1083.0000000  -999.250000 57.252300262
 1083.5000000  -999.250000 57.296100616
 1084.0000000  -999.250000 59.854999542
 1084.5000000  -999.250000 66.013397217
 1085.0000000  -999.250000 70.981399536
 1085.5000000  -999.250000 75.393302917
 1086.0000000  -999.250000 77.270500183
 1086.5000000  -999.250000 77.982498169
 1087.0000000  -999.250000 78.138099670
 1087.5000000  -999.250000 77.213096619
 1088.0000000  -999.250000 75.466903687
 1088.5000000  -999.250000 72.279296875
 1089.0000000  -999.250000 68.962196350
 1089.5000000  -999.250000 66.024696350
 1090.0000000  -999.250000 64.517303467
 1090.5000000  -999.250000 63.661201477
 1091.0000000  -999.250000 62.518398285
 1091.5000000  -999.250000 60.036598206
 1092.0000000  -999.250000 56.569900513
 1092.5000000  -999.250000 54.474300385
 1093.0000000  -999.250000 53.614498138
 1093.5000000  -999.250000 55.784999847
 1094.0000000  -999.250000 59.692798615
 1094.5000000  -999.250000 66.023399353
 1095.0000000  -999.250000 70.942497253
 1095.5000000  -999.250000 76.960098267
 1096.0000000  -999.250000 82.986000061
 1096.5000000  -999.250000 82.589103699
 1097.0000000  -999.250000 78.794097900
 1097.5000000  -999.250000 68.224403381
 1098.0000000  -999.250000 59.866600037
 1098.5000000  -999.250000 58.025901794
 1099.0000000  -999.250000 59.923500061
 1099.5000000  -999.250000 65.287498474
