# LAS format log file from PETREL
# Project units are specified as depth units
#==================================================================
~Version information
VERS.   2.0:
WRAP.   NO:
#==================================================================
~Well
STRT .ft      0.0000000000 :
STOP .ft      11414.000000 :
STEP .ft     0.50000000 :
NULL .        -999.250000 :
COMP.           : COMPANY
WELL.  AMOCO_A-4_294   : WELL
FLD.            : FIELD
LOC.            : LOCATION
SRVC.           : SERVICE COMPANY
DATE.  Wednesday, February 25 2009 13:07:23   : DATE
PROV.           : PROVINCE
UWI.   177014010000   : UNIQUE WELL ID
API.            : API NUMBER
#==================================================================
~Curve
DEPT .ft                   : DEPTH
GR_run2 .gAPI             : GR_run2
GR_run1 .gAPI             : GR_run1
~Parameter
#==================================================================
~Ascii
# ...
 1800.0000000  -999.250000 74.750396729
 1800.5000000  -999.250000 83.787803650
 1801.0000000  -999.250000 89.233001709
 1801.5000000  -999.250000 91.281097412
 1802.0000000  -999.250000 92.032798767
 1802.5000000  -999.250000 91.516998291
 1803.0000000  -999.250000 89.997802734
 1803.5000000  -999.250000 87.921401978
 1804.0000000  -999.250000 85.746200562
 1804.5000000  -999.250000 84.450401306
 1805.0000000  -999.250000 84.169898987
 1805.5000000  -999.250000 84.246498108
 1806.0000000  -999.250000 84.030601501
 1806.5000000  -999.250000 82.635299683
 1807.0000000  -999.250000 77.156303406
 1807.5000000  -999.250000 73.128898621
 1808.0000000  -999.250000 70.903602600
 1808.5000000  -999.250000 73.180496216
 1809.0000000  -999.250000 76.967697144
 1809.5000000  -999.250000 80.847900391
 1810.0000000  -999.250000 82.461196899
 1810.5000000  -999.250000 81.871101379
 1811.0000000  -999.250000 80.020797729
 1811.5000000  -999.250000 79.972999573
 1812.0000000  -999.250000 80.305801392
 1812.5000000  -999.250000 79.812698364
 1813.0000000  -999.250000 75.634002686
 1813.5000000  -999.250000 71.848098755
 1814.0000000  -999.250000 70.737701416
 1814.5000000  -999.250000 68.064697266
 1815.0000000  -999.250000 64.018600464
 1815.5000000  -999.250000 60.262901306
 1816.0000000  -999.250000 57.599399567
 1816.5000000  -999.250000 55.916000366
 1817.0000000  -999.250000 54.734500885
 1817.5000000  -999.250000 55.876701355
 1818.0000000  -999.250000 58.611900330
 1818.5000000  -999.250000 61.406101227
 1819.0000000  -999.250000 63.958900452
 1819.5000000  -999.250000 66.373497009
 1820.0000000  -999.250000 68.936401367
 1820.5000000  -999.250000 71.884498596
 1821.0000000  -999.250000 75.419799805
 1821.5000000  -999.250000 77.016098022
 1822.0000000  -999.250000 77.137100220
 1822.5000000  -999.250000 76.922897339
 1823.0000000  -999.250000 77.252700806
 1823.5000000  -999.250000 77.947799683
 1824.0000000  -999.250000 78.759201050
 1824.5000000  -999.250000 79.309700012
 1825.0000000  -999.250000 79.202400208
 1825.5000000  -999.250000 78.950599670
 1826.0000000  -999.250000 78.906097412
 1826.5000000  -999.250000 78.706802368
 1827.0000000  -999.250000 78.324302673
 1827.5000000  -999.250000 78.191001892
 1828.0000000  -999.250000 79.824699402
 1828.5000000  -999.250000 83.412696838
 1829.0000000  -999.250000 85.581497192
 1829.5000000  -999.250000 86.501701355
 1830.0000000  -999.250000 85.990699768
 1830.5000000  -999.250000 85.333999634
 1831.0000000  -999.250000 84.823898315
 1831.5000000  -999.250000 84.620597839
 1832.0000000  -999.250000 85.168899536
 1832.5000000  -999.250000 86.734901428
 1833.0000000  -999.250000 88.431999207
 1833.5000000  -999.250000 87.870697021
 1834.0000000  -999.250000 86.891197205
 1834.5000000  -999.250000 86.122703552
 1835.0000000  -999.250000 85.028396606
 1835.5000000  -999.250000 83.282600403
 1836.0000000  -999.250000 79.871200562
 1836.5000000  -999.250000 77.385597229
 1837.0000000  -999.250000 75.614601135
 1837.5000000  -999.250000 74.811302185
 1838.0000000  -999.250000 75.669898987
 1838.5000000  -999.250000 76.980003357
 1839.0000000  -999.250000 78.308799744
 1839.5000000  -999.250000 79.485397339
 1840.0000000  -999.250000 80.335800171
 1840.5000000  -999.250000 80.775596619
 1841.0000000  -999.250000 80.143997192
 1841.5000000  -999.250000 78.762001038
 1842.0000000  -999.250000 78.134803772
 1842.5000000  -999.250000 79.325103760
 1843.0000000  -999.250000 81.810096741
 1843.5000000  -999.250000 83.605300903
 1844.0000000  -999.250000 83.226898193
 1844.5000000  -999.250000 82.431503296
 1845.0000000  -999.250000 82.845199585
 1845.5000000  -999.250000 84.583503723
 1846.0000000  -999.250000 86.346099854
 1846.5000000  -999.250000 87.734397888
 1847.0000000  -999.250000 88.612998962
 1847.5000000  -999.250000 89.413101196
 1848.0000000  -999.250000 89.999603271
 1848.5000000  -999.250000 89.891403198
 1849.0000000  -999.250000 89.420997620
 1849.5000000  -999.250000 88.899398804
 1850.0000000  -999.250000 88.530296326
 1850.5000000  -999.250000 88.804100037
 1851.0000000  -999.250000 90.625701904
 1851.5000000  -999.250000 92.373497009
 1852.0000000  -999.250000 92.827301025
 1852.5000000  -999.250000 90.647102356
 1853.0000000  -999.250000 86.314300537
 1853.5000000  -999.250000 75.426597595
 1854.0000000  -999.250000 61.833999634
 1854.5000000  -999.250000 53.234001160
 1855.0000000  -999.250000 50.608200073
 1855.5000000  -999.250000 49.722099304
 1856.0000000  -999.250000 48.892200470
 1856.5000000  -999.250000 47.068698883
 1857.0000000  -999.250000 43.209800720
 1857.5000000  -999.250000 40.115699768
 1858.0000000  -999.250000 40.896999359
 1858.5000000  -999.250000 43.167701721
 1859.0000000  -999.250000 46.213901520
 1859.5000000  -999.250000 49.174098969
 1860.0000000  -999.250000 51.941200256
 1860.5000000  -999.250000 55.096801758
 1861.0000000  -999.250000 58.291900635
 1861.5000000  -999.250000 58.943099976
 1862.0000000  -999.250000 56.906200409
 1862.5000000  -999.250000 54.793899536
 1863.0000000  -999.250000 53.305000305
 1863.5000000  -999.250000 54.319999695
 1864.0000000  -999.250000 58.332199097
 1864.5000000  -999.250000 67.889999390
 1865.0000000  -999.250000 75.209197998
 1865.5000000  -999.250000 78.178100586
 1866.0000000  -999.250000 79.585899353
 1866.5000000  -999.250000 78.065696716
 1867.0000000  -999.250000 75.439796448
 1867.5000000  -999.250000 73.306198120
 1868.0000000  -999.250000 72.323196411
 1868.5000000  -999.250000 74.941497803
 1869.0000000  -999.250000 79.665000916
 1869.5000000  -999.250000 82.150001526
 1870.0000000  -999.250000 81.825798035
 1870.5000000  -999.250000 80.823699951
 1871.0000000  -999.250000 80.765602112
 1871.5000000  -999.250000 80.891601563
 1872.0000000  -999.250000 80.957000732
 1872.5000000  -999.250000 80.224502563
 1873.0000000  -999.250000 78.916603088
 1873.5000000  -999.250000 77.694503784
 1874.0000000  -999.250000 78.991302490
 1874.5000000  -999.250000 81.226196289
 1875.0000000  -999.250000 82.188003540
 1875.5000000  -999.250000 82.180900574
 1876.0000000  -999.250000 81.431800842
 1876.5000000  -999.250000 79.793899536
 1877.0000000  -999.250000 76.935096741
 1877.5000000  -999.250000 71.724998474
 1878.0000000  -999.250000 66.909500122
 1878.5000000  -999.250000 62.037700653
 1879.0000000  -999.250000 57.107898712
 1879.5000000  -999.250000 52.646400452
 1880.0000000  -999.250000 52.919101715
 1880.5000000  -999.250000 54.010101318
 1881.0000000  -999.250000 55.255199432
 1881.5000000  -999.250000 56.972801208
 1882.0000000  -999.250000 59.384899139
 1882.5000000  -999.250000 61.392799377
 1883.0000000  -999.250000 62.434200287
 1883.5000000  -999.250000 59.683998108
 1884.0000000  -999.250000 57.618499756
 1884.5000000  -999.250000 59.868198395
 1885.0000000  -999.250000 66.271003723
 1885.5000000  -999.250000 75.567398071
 1886.0000000  -999.250000 80.939697266
 1886.5000000  -999.250000 81.704696655
 1887.0000000  -999.250000 81.893096924
 1887.5000000  -999.250000 82.453102112
 1888.0000000  -999.250000 82.836997986
 1888.5000000  -999.250000 83.209503174
 1889.0000000  -999.250000 82.282302856
 1889.5000000  -999.250000 80.093101501
 1890.0000000  -999.250000 76.662200928
 1890.5000000  -999.250000 72.652603149
 1891.0000000  -999.250000 70.445999146
 1891.5000000  -999.250000 69.479698181
 1892.0000000  -999.250000 69.051300049
 1892.5000000  -999.250000 69.325897217
 1893.0000000  -999.250000 70.821800232
 1893.5000000  -999.250000 73.778800964
 1894.0000000  -999.250000 78.810401917
 1894.5000000  -999.250000 86.867401123
 1895.0000000  -999.250000 88.629402161
 1895.5000000  -999.250000 88.070701599
 1896.0000000  -999.250000 86.676399231
 1896.5000000  -999.250000 85.334602356
 1897.0000000  -999.250000 84.411399841
 1897.5000000  -999.250000 84.207603455
 1898.0000000  -999.250000 84.691299438
 1898.5000000  -999.250000 86.389198303
 1899.0000000  -999.250000 89.102897644
 1899.5000000  -999.250000 90.444297791
