# LAS format log file from PETREL
# Project units are specified as depth units
#==================================================================
~Version information
VERS.   2.0:
WRAP.   NO:
#==================================================================
~Well
STRT .ft      0.0000000000 :
STOP .ft      11414.000000 :
STEP .ft     0.50000000 :
NULL .        -999.250000 :
COMP.           : COMPANY
WELL.  AMOCO_A-4_294   : WELL
FLD.            : FIELD
LOC.            : LOCATION
SRVC.           : SERVICE COMPANY
DATE.  Wednesday, February 25 2009 13:07:23   : DATE
PROV.           : PROVINCE
UWI.   177014010000   : UNIQUE WELL ID
API.            : API NUMBER
#==================================================================
~Curve
DEPT .ft                   : DEPTH
GR_run2 .gAPI             : GR_run2
GR_run1 .gAPI             : GR_run1
~Parameter
#==================================================================
~Ascii
# ...
 10800.000000 65.740196228  -999.250000
 10800.500000 66.000503540  -999.250000
 10801.000000 65.913597107  -999.250000
 10801.500000 66.646598816  -999.250000
 10802.000000 67.749000549  -999.250000
 10802.500000 68.731300354  -999.250000
 10803.000000 69.806800842  -999.250000
 10803.500000 71.325599670  -999.250000
 10804.000000 72.565101624  -999.250000
 10804.500000 72.533203125  -999.250000
 10805.000000 71.440696716  -999.250000
 10805.500000 69.671997070  -999.250000
 10806.000000 68.329597473  -999.250000
 10806.500000 68.594100952  -999.250000
 10807.000000 70.590599060  -999.250000
 10807.500000 71.835098267  -999.250000
 10808.000000 73.440803528  -999.250000
 10808.500000 73.847801208  -999.250000
 10809.000000 73.944801331  -999.250000
 10809.500000 75.254798889  -999.250000
 10810.000000 77.395797729  -999.250000
 10810.500000 78.936599731  -999.250000
 10811.000000 78.025398254  -999.250000
 10811.500000 76.594703674  -999.250000
 10812.000000 76.195396423  -999.250000
 10812.500000 77.689796448  -999.250000
 10813.000000 78.669700623  -999.250000
 10813.500000 78.194297791  -999.250000
 10814.000000 75.583000183  -999.250000
 10814.500000 73.981002808  -999.250000
 10815.000000 73.056198120  -999.250000
 10815.500000 72.322502136  -999.250000
 10816.000000 71.604698181  -999.250000
 10816.500000 71.022300720  -999.250000
 10817.000000 70.685501099  -999.250000
 10817.500000 71.974700928  -999.250000
 10818.000000 73.287696838  -999.250000
 10818.500000 73.708099365  -999.250000
 10819.000000 73.826698303  -999.250000
 10819.500000 74.439102173  -999.250000
 10820.000000 75.676101685  -999.250000
 10820.500000 77.518302917  -999.250000
 10821.000000 78.510398865  -999.250000
 10821.500000 77.905403137  -999.250000
 10822.000000 77.068702698  -999.250000
 10822.500000 76.261596680  -999.250000
 10823.000000 75.019699097  -999.250000
 10823.500000 72.227096558  -999.250000
 10824.000000 68.268302917  -999.250000
 10824.500000 63.839401245  -999.250000
 10825.000000 59.096698761  -999.250000
 10825.500000 55.373298645  -999.250000
 10826.000000 53.540901184  -999.250000
 10826.500000 54.564899445  -999.250000
 10827.000000 57.122299194  -999.250000
 10827.500000 59.283000946  -999.250000
 10828.000000 61.521999359  -999.250000
 10828.500000 64.353797913  -999.250000
 10829.000000 66.582901001  -999.250000
 10829.500000 68.596603394  -999.250000
 10830.000000 70.808601379  -999.250000
 10830.500000 72.800201416  -999.250000
 10831.000000 75.499801636  -999.250000
 10831.500000 78.532501221  -999.250000
 10832.000000 80.237396240  -999.250000
 10832.500000 79.936203003  -999.250000
 10833.000000 79.010101318  -999.250000
 10833.500000 77.973899841  -999.250000
 10834.000000 77.320999146  -999.250000
 10834.500000 77.256202698  -999.250000
 10835.000000 78.070701599  -999.250000
 10835.500000 78.427001953  -999.250000
 10836.000000 77.794998169  -999.250000
 10836.500000 77.099403381  -999.250000
 10837.000000 76.869102478  -999.250000
 10837.500000 76.986503601  -999.250000
 10838.000000 77.123001099  -999.250000
 10838.500000 77.162002563  -999.250000
 10839.000000 76.523696899  -999.250000
 10839.500000 75.416496277  -999.250000
 10840.000000 74.458602905  -999.250000
 10840.500000 74.950996399  -999.250000
 10841.000000 77.101799011  -999.250000
 10841.500000 78.836196899  -999.250000
 10842.000000 78.419799805  -999.250000
 10842.500000 77.143402100  -999.250000
 10843.000000 75.722702026  -999.250000
 10843.500000 74.159797668  -999.250000
 10844.000000 72.329803467  -999.250000
 10844.500000 70.725303650  -999.250000
 10845.000000 69.512702942  -999.250000
 10845.500000 68.911399841  -999.250000
 10846.000000 69.325302124  -999.250000
 10846.500000 70.274696350  -999.250000
 10847.000000 69.483398438  -999.250000
 10847.500000 66.504501343  -999.250000
 10848.000000 64.608497620  -999.250000
 10848.500000 64.364700317  -999.250000
 10849.000000 65.328697205  -999.250000
 10849.500000 66.298797607  -999.250000
 10850.000000 67.059402466  -999.250000
 10850.500000 67.192901611  -999.250000
 10851.000000 66.507003784  -999.250000
 10851.500000 65.389900208  -999.250000
 10852.000000 64.304702759  -999.250000
 10852.500000 63.547901154  -999.250000
 10853.000000 64.432098389  -999.250000
 10853.500000 66.676002502  -999.250000
 10854.000000 68.787597656  -999.250000
 10854.500000 69.216903687  -999.250000
 10855.000000 68.819198608  -999.250000
 10855.500000 68.689300537  -999.250000
 10856.000000 68.506599426  -999.250000
 10856.500000 68.195999146  -999.250000
 10857.000000 67.625198364  -999.250000
 10857.500000 66.983497620  -999.250000
 10858.000000 66.480697632  -999.250000
 10858.500000 66.231597900  -999.250000
 10859.000000 66.414596558  -999.250000
 10859.500000 66.737297058  -999.250000
 10860.000000 65.987701416  -999.250000
 10860.500000 64.694198608  -999.250000
 10861.000000 63.099498749  -999.250000
 10861.500000 64.177398682  -999.250000
 10862.000000 66.080802917  -999.250000
 10862.500000 67.271102905  -999.250000
 10863.000000 67.077102661  -999.250000
 10863.500000 66.730598450  -999.250000
 10864.000000 66.367401123  -999.250000
 10864.500000 66.350799561  -999.250000
 10865.000000 67.147598267  -999.250000
 10865.500000 68.483299255  -999.250000
 10866.000000 67.778396606  -999.250000
 10866.500000 66.413902283  -999.250000
 10867.000000 65.940597534  -999.250000
 10867.500000 66.727401733  -999.250000
 10868.000000 67.749000549  -999.250000
 10868.500000 68.246803284  -999.250000
 10869.000000 67.788200378  -999.250000
 10869.500000 67.500602722  -999.250000
 10870.000000 68.003799438  -999.250000
 10870.500000 70.027198792  -999.250000
 10871.000000 71.763999939  -999.250000
 10871.500000 72.823501587  -999.250000
 10872.000000 73.380699158  -999.250000
 10872.500000 73.682098389  -999.250000
 10873.000000 73.692596436  -999.250000
 10873.500000 73.260696411  -999.250000
 10874.000000 72.399696350  -999.250000
 10874.500000 71.220199585  -999.250000
 10875.000000 69.052200317  -999.250000
 10875.500000 64.740798950  -999.250000
 10876.000000 63.082401276  -999.250000
 10876.500000 64.704101563  -999.250000
 10877.000000 65.830902100  -999.250000
 10877.500000 66.401603699  -999.250000
 10878.000000 67.386497498  -999.250000
 10878.500000 68.733802795  -999.250000
 10879.000000 70.705703735  -999.250000
 10879.500000 72.863899231  -999.250000
 10880.000000 76.386596680  -999.250000
 10880.500000 79.242797852  -999.250000
 10881.000000 79.998497009  -999.250000
 10881.500000 78.081703186  -999.250000
 10882.000000 75.578102112  -999.250000
 10882.500000 74.344703674  -999.250000
 10883.000000 73.678703308  -999.250000
 10883.500000 73.833999634  -999.250000
 10884.000000 75.352798462  -999.250000
 10884.500000 77.545303345  -999.250000
 10885.000000 78.880203247  -999.250000
 10885.500000 79.008903503  -999.250000
 10886.000000 78.193099976  -999.250000
 10886.500000 77.439300537  -999.250000
 10887.000000 77.973899841  -999.250000
 10887.500000 79.284500122  -999.250000
 10888.000000 80.291297913  -999.250000
 10888.500000 80.404701233  -999.250000
 10889.000000 80.143699646  -999.250000
 10889.500000 80.167602539  -999.250000
 10890.000000 80.657600403  -999.250000
 10890.500000 81.491699219  -999.250000
 10891.000000 82.345298767  -999.250000
 10891.500000 82.851799011  -999.250000
 10892.000000 82.830802917  -999.250000
 10892.500000 82.825202942  -999.250000
 10893.000000 83.838500977  -999.250000
 10893.500000 88.257698059  -999.250000
 10894.000000 90.898399353  -999.250000
 10894.500000 87.748199463  -999.250000
 10895.000000 83.177001953  -999.250000
 10895.500000 80.208000183  -999.250000
 10896.000000 79.247802734  -999.250000
 10896.500000 79.917701721  -999.250000
 10897.000000 80.675903320  -999.250000
 10897.500000 81.156402588  -999.250000
 10898.000000 80.845001221  -999.250000
 10898.500000 79.296798706  -999.250000
 10899.000000 77.486503601  -999.250000
 10899.500000 77.215698242  -999.250000
