# LAS format log file from PETREL
# Project units are specified as depth units
#==================================================================
~Version information
VERS.   2.0:
WRAP.   NO:
#==================================================================
~Well
STRT .ft      100.00000000 :
STOP .ft      12173.000000 :
STEP .ft     0.50000000 :
NULL .        -999.250000 :
COMP.           : COMPANY
WELL.  AMOCO_4_293   : WELL
FLD.            : FIELD
LOC.            : LOCATION
SRVC.           : SERVICE COMPANY
DATE.  Wednesday, February 25 2009 13:05:38   : DATE
PROV.           : PROVINCE
UWI.   177014024400   : UNIQUE WELL ID
API.            : API NUMBER
#==================================================================
~Curve
DEPT .ft                   : DEPTH
GR_run2 .gAPI             : GR_run2
GR_run1 .gAPI             : GR_run1
~Parameter
#==================================================================
~Ascii
# ...
 6400.0000000  -999.250000 78.692497253
 6400.5000000  -999.250000 77.114097595
 6401.0000000  -999.250000 76.744796753
 6401.5000000  -999.250000 78.242401123
 6402.0000000  -999.250000 80.260902405
 6402.5000000  -999.250000 80.912803650
 6403.0000000  -999.250000 77.931999207
 6403.5000000  -999.250000 73.794998169
 6404.0000000  -999.250000 72.655601501
 6404.5000000  -999.250000 74.172698975
 6405.0000000  -999.250000 75.289802551
 6405.5000000  -999.250000 76.372703552
 6406.0000000  -999.250000 78.450302124
 6406.5000000  -999.250000 80.572799683
 6407.0000000  -999.250000 81.858299255
 6407.5000000  -999.250000 83.125396729
 6408.0000000  -999.250000 85.111000061
 6408.5000000  -999.250000 88.845199585
 6409.0000000  -999.250000 91.054397583
 6409.5000000  -999.250000 91.100502014
 6410.0000000  -999.250000 89.479400635
 6410.5000000  -999.250000 85.168800354
 6411.0000000  -999.250000 80.858299255
 6411.5000000  -999.250000 77.310897827
 6412.0000000  -999.250000 76.634498596
 6412.5000000  -999.250000 81.958297729
 6413.0000000  -999.250000 85.150398254
 6413.5000000  -999.250000 85.534698486
 6414.0000000  -999.250000 83.384597778
 6414.5000000  -999.250000 81.175399780
 6415.0000000  -999.250000 80.347801208
 6415.5000000  -999.250000 81.880599976
 6416.0000000  -999.250000 82.738502502
 6416.5000000  -999.250000 81.637199402
 6417.0000000  -999.250000 79.000396729
 6417.5000000  -999.250000 77.890502930
 6418.0000000  -999.250000 79.250396729
 6418.5000000  -999.250000 81.117599487
 6419.0000000  -999.250000 81.711303711
 6419.5000000  -999.250000 81.224700928
 6420.0000000  -999.250000 80.716201782
 6420.5000000  -999.250000 81.862297058
 6421.0000000  -999.250000 83.716201782
 6421.5000000  -999.250000 84.776702881
 6422.0000000  -999.250000 84.426803589
 6422.5000000  -999.250000 83.793800354
 6423.0000000  -999.250000 84.539901733
 6423.5000000  -999.250000 87.124099731
 6424.0000000  -999.250000 88.977996826
 6424.5000000  -999.250000 89.700401306
 6425.0000000  -999.250000 89.833297729
 6425.5000000  -999.250000 89.957199097
 6426.0000000  -999.250000 90.052597046
 6426.5000000  -999.250000 90.060501099
 6427.0000000  -999.250000 90.044700623
 6427.5000000  -999.250000 89.985099792
 6428.0000000  -999.250000 90.087997437
 6428.5000000  -999.250000 90.507102966
 6429.0000000  -999.250000 90.645401001
 6429.5000000  -999.250000 89.129402161
 6430.0000000  -999.250000 85.803100586
 6430.5000000  -999.250000 82.574096680
 6431.0000000  -999.250000 81.898597717
 6431.5000000  -999.250000 83.484596252
 6432.0000000  -999.250000 87.116203308
 6432.5000000  -999.250000 93.979499817
 6433.0000000  -999.250000 97.000503540
 6433.5000000  -999.250000 96.476799011
 6434.0000000  -999.250000 92.363601685
 6434.5000000  -999.250000 87.852996826
 6435.0000000  -999.250000 83.347801208
 6435.5000000  -999.250000 79.331901550
 6436.0000000  -999.250000 80.600303650
 6436.5000000  -999.250000 84.037200928
 6437.0000000  -999.250000 86.958396912
 6437.5000000  -999.250000 90.047897339
 6438.0000000  -999.250000 91.257698059
 6438.5000000  -999.250000 90.663597107
 6439.0000000  -999.250000 86.184700012
 6439.5000000  -999.250000 82.395103455
 6440.0000000  -999.250000 81.558601379
 6440.5000000  -999.250000 81.892501831
 6441.0000000  -999.250000 81.964797974
 6441.5000000  -999.250000 81.833999634
 6442.0000000  -999.250000 81.753700256
 6442.5000000  -999.250000 82.110198975
 6443.0000000  -999.250000 83.342498779
 6443.5000000  -999.250000 86.900398254
 6444.0000000  -999.250000 88.413597107
 6444.5000000  -999.250000 88.416297913
 6445.0000000  -999.250000 86.242599487
 6445.5000000  -999.250000 83.355697632
 6446.0000000  -999.250000 82.832000732
 6446.5000000  -999.250000 84.758300781
 6447.0000000  -999.250000 84.962303162
 6447.5000000  -999.250000 83.939903259
 6448.0000000  -999.250000 83.237503052
 6448.5000000  -999.250000 83.753097534
 6449.0000000  -999.250000 85.221397400
 6449.5000000  -999.250000 86.589996338
 6450.0000000  -999.250000 86.067497253
 6450.5000000  -999.250000 84.151702881
 6451.0000000  -999.250000 84.266799927
 6451.5000000  -999.250000 86.132003784
 6452.0000000  -999.250000 88.929397583
 6452.5000000  -999.250000 93.211097717
 6453.0000000  -999.250000 98.016403198
 6453.5000000  -999.250000 100.61340332
 6454.0000000  -999.250000 98.389999390
 6454.5000000  -999.250000 94.300498962
 6455.0000000  -999.250000 90.210899353
 6455.5000000  -999.250000 86.121498108
 6456.0000000  -999.250000 84.304199219
 6456.5000000  -999.250000 85.537200928
 6457.0000000  -999.250000 89.189903259
 6457.5000000  -999.250000 94.810997009
 6458.0000000  -999.250000 96.897796631
 6458.5000000  -999.250000 96.555801392
 6459.0000000  -999.250000 94.363601685
 6459.5000000  -999.250000 92.988601685
 6460.0000000  -999.250000 92.814903259
 6460.5000000  -999.250000 94.650497437
 6461.0000000  -999.250000 96.255699158
 6461.5000000  -999.250000 97.271598816
 6462.0000000  -999.250000 97.724502563
 6462.5000000  -999.250000 96.875503540
 6463.0000000  -999.250000 95.725502014
 6463.5000000  -999.250000 94.898803711
 6464.0000000  -999.250000 95.846603394
 6464.5000000  -999.250000 97.174201965
 6465.0000000  -999.250000 97.480796814
 6465.5000000  -999.250000 95.437400818
 6466.0000000  -999.250000 93.247802734
 6466.5000000  -999.250000 91.541297913
 6467.0000000  -999.250000 90.495201111
 6467.5000000  -999.250000 89.645103455
 6468.0000000  -999.250000 89.208503723
 6468.5000000  -999.250000 89.805702209
 6469.0000000  -999.250000 90.501800537
 6469.5000000  -999.250000 90.781501770
 6470.0000000  -999.250000 89.830703735
 6470.5000000  -999.250000 88.221603394
 6471.0000000  -999.250000 86.847801208
 6471.5000000  -999.250000 86.725601196
 6472.0000000  -999.250000 90.426803589
 6472.5000000  -999.250000 94.132102966
 6473.0000000  -999.250000 92.837303162
 6473.5000000  -999.250000 88.524200439
 6474.0000000  -999.250000 86.500503540
 6474.5000000  -999.250000 86.661003113
 6475.0000000  -999.250000 87.525398254
 6475.5000000  -999.250000 86.484596252
 6476.0000000  -999.250000 84.142601013
 6476.5000000  -999.250000 83.095100403
 6477.0000000  -999.250000 85.942497253
 6477.5000000  -999.250000 90.245201111
 6478.0000000  -999.250000 91.172897339
 6478.5000000  -999.250000 88.763496399
 6479.0000000  -999.250000 87.546096802
 6479.5000000  -999.250000 89.492599487
 6480.0000000  -999.250000 92.361000061
 6480.5000000  -999.250000 93.732200623
 6481.0000000  -999.250000 93.345199585
 6481.5000000  -999.250000 92.395301819
 6482.0000000  -999.250000 89.400497437
 6482.5000000  -999.250000 85.984596252
 6483.0000000  -999.250000 84.430099487
 6483.5000000  -999.250000 86.345199585
 6484.0000000  -999.250000 89.647796631
 6484.5000000  -999.250000 90.167602539
 6485.0000000  -999.250000 89.679100037
 6485.5000000  -999.250000 90.668899536
 6486.0000000  -999.250000 93.367599487
 6486.5000000  -999.250000 91.116203308
 6487.0000000  -999.250000 85.358299255
 6487.5000000  -999.250000 82.855697632
 6488.0000000  -999.250000 82.413002014
 6488.5000000  -999.250000 83.226699829
 6489.0000000  -999.250000 83.772796631
 6489.5000000  -999.250000 83.752899170
 6490.0000000  -999.250000 84.145103455
 6490.5000000  -999.250000 87.079299927
 6491.0000000  -999.250000 89.212303162
 6491.5000000  -999.250000 89.899200439
 6492.0000000  -999.250000 90.534698486
 6492.5000000  -999.250000 91.518203735
 6493.0000000  -999.250000 91.712799072
 6493.5000000  -999.250000 91.437301636
 6494.0000000  -999.250000 90.187301636
 6494.5000000  -999.250000 87.966201782
 6495.0000000  -999.250000 86.399803162
 6495.5000000  -999.250000 87.179397583
 6496.0000000  -999.250000 89.514900208
 6496.5000000  -999.250000 90.208297729
 6497.0000000  -999.250000 89.816902161
 6497.5000000  -999.250000 89.435997009
 6498.0000000  -999.250000 89.454696655
 6498.5000000  -999.250000 90.679397583
 6499.0000000  -999.250000 91.527099609
 6499.5000000  -999.250000 91.212303162
