# LAS format log file from PETREL
# Project units are specified as depth units
#==================================================================
~Version information
VERS.   2.0:
WRAP.   NO:
#==================================================================
~Well
STRT .ft      0.0000000000 :
STOP .ft      11414.000000 :
STEP .ft     0.50000000 :
NULL .        -999.250000 :
COMP.           : COMPANY
WELL.  AMOCO_A-4_294   : WELL
FLD.            : FIELD
LOC.            : LOCATION
SRVC.           : SERVICE COMPANY
DATE.  Wednesday, February 25 2009 13:07:23   : DATE
PROV.           : PROVINCE
UWI.   177014010000   : UNIQUE WELL ID
API.            : API NUMBER
#==================================================================
~Curve
DEPT .ft                   : DEPTH
GR_run2 .gAPI             : GR_run2
GR_run1 .gAPI             : GR_run1
~Parameter
#==================================================================
~Ascii
# ...
 10500.000000 56.077499390  -999.250000
 10500.500000 57.205600739  -999.250000
 10501.000000 60.145198822  -999.250000
 10501.500000 63.422901154  -999.250000
 10502.000000 65.282096863  -999.250000
 10502.500000 64.618301392  -999.250000
 10503.000000 62.913299561  -999.250000
 10503.500000 60.762599945  -999.250000
 10504.000000 59.094299316  -999.250000
 10504.500000 58.777099609  -999.250000
 10505.000000 59.748401642  -999.250000
 10505.500000 60.305400848  -999.250000
 10506.000000 60.505798340  -999.250000
 10506.500000 60.760101318  -999.250000
 10507.000000 62.634101868  -999.250000
 10507.500000 64.814300537  -999.250000
 10508.000000 67.210098267  -999.250000
 10508.500000 68.971298218  -999.250000
 10509.000000 69.181999207  -999.250000
 10509.500000 68.140998840  -999.250000
 10510.000000 66.842697144  -999.250000
 10510.500000 64.858398438  -999.250000
 10511.000000 61.546398163  -999.250000
 10511.500000 58.383899689  -999.250000
 10512.000000 57.252101898  -999.250000
 10512.500000 56.563800812  -999.250000
 10513.000000 56.451999664  -999.250000
 10513.500000 58.939998627  -999.250000
 10514.000000 62.766399384  -999.250000
 10514.500000 65.377700806  -999.250000
 10515.000000 67.138999939  -999.250000
 10515.500000 68.790000916  -999.250000
 10516.000000 69.492202759  -999.250000
 10516.500000 68.216903687  -999.250000
 10517.000000 65.360603333  -999.250000
 10517.500000 64.473800659  -999.250000
 10518.000000 65.894500732  -999.250000
 10518.500000 67.548103333  -999.250000
 10519.000000 67.429298401  -999.250000
 10519.500000 66.279197693  -999.250000
 10520.000000 64.755500793  -999.250000
 10520.500000 63.072601318  -999.250000
 10521.000000 62.874099731  -999.250000
 10521.500000 65.671600342  -999.250000
 10522.000000 68.366302490  -999.250000
 10522.500000 69.320999146  -999.250000
 10523.000000 68.866699219  -999.250000
 10523.500000 68.904098511  -999.250000
 10524.000000 70.054100037  -999.250000
 10524.500000 71.670898438  -999.250000
 10525.000000 71.898696899  -999.250000
 10525.500000 70.267196655  -999.250000
 10526.000000 67.944900513  -999.250000
 10526.500000 66.394302368  -999.250000
 10527.000000 66.144302368  -999.250000
 10527.500000 66.048301697  -999.250000
 10528.000000 65.829101563  -999.250000
 10528.500000 65.453598022  -999.250000
 10529.000000 64.906097412  -999.250000
 10529.500000 64.394203186  -999.250000
 10530.000000 64.892700195  -999.250000
 10530.500000 68.542701721  -999.250000
 10531.000000 71.016799927  -999.250000
 10531.500000 72.942298889  -999.250000
 10532.000000 72.957000732  -999.250000
 10532.500000 70.590599060  -999.250000
 10533.000000 66.210601807  -999.250000
 10533.500000 61.967800140  -999.250000
 10534.000000 52.982398987  -999.250000
 10534.500000 50.900100708  -999.250000
 10535.000000 56.509899139  -999.250000
 10535.500000 65.681503296  -999.250000
 10536.000000 69.992897034  -999.250000
 10536.500000 71.635398865  -999.250000
 10537.000000 70.076202393  -999.250000
 10537.500000 68.207000732  -999.250000
 10538.000000 67.388900757  -999.250000
 10538.500000 68.153198242  -999.250000
 10539.000000 68.039299011  -999.250000
 10539.500000 66.587898254  -999.250000
 10540.000000 65.593299866  -999.250000
 10540.500000 65.485496521  -999.250000
 10541.000000 66.761703491  -999.250000
 10541.500000 67.922996521  -999.250000
 10542.000000 69.742996216  -999.250000
 10542.500000 71.888801575  -999.250000
 10543.000000 70.776702881  -999.250000
 10543.500000 66.553596497  -999.250000
 10544.000000 60.997699738  -999.250000
 10544.500000 56.558898926  -999.250000
 10545.000000 53.041198730  -999.250000
 10545.500000 50.858501434  -999.250000
 10546.000000 50.108898163  -999.250000
 10546.500000 52.286701202  -999.250000
 10547.000000 55.824001312  -999.250000
 10547.500000 59.326999664  -999.250000
 10548.000000 63.280799866  -999.250000
 10548.500000 66.734901428  -999.250000
 10549.000000 65.974197388  -999.250000
 10549.500000 65.356903076  -999.250000
 10550.000000 65.299301147  -999.250000
 10550.500000 65.955802917  -999.250000
 10551.000000 65.990097046  -999.250000
 10551.500000 64.390502930  -999.250000
 10552.000000 62.599800110  -999.250000
 10552.500000 61.781600952  -999.250000
 10553.000000 63.849098206  -999.250000
 10553.500000 65.317596436  -999.250000
 10554.000000 64.994400024  -999.250000
 10554.500000 64.706703186  -999.250000
 10555.000000 65.394897461  -999.250000
 10555.500000 66.352699280  -999.250000
 10556.000000 66.686996460  -999.250000
 10556.500000 65.992599487  -999.250000
 10557.000000 65.054298401  -999.250000
 10557.500000 64.342796326  -999.250000
 10558.000000 64.175498962  -999.250000
 10558.500000 64.215896606  -999.250000
 10559.000000 63.757301331  -999.250000
 10559.500000 62.915798187  -999.250000
 10560.000000 61.982498169  -999.250000
 10560.500000 60.929100037  -999.250000
 10561.000000 59.643100739  -999.250000
 10561.500000 58.489299774  -999.250000
 10562.000000 57.875598907  -999.250000
 10562.500000 59.743499756  -999.250000
 10563.000000 63.814800262  -999.250000
 10563.500000 67.758796692  -999.250000
 10564.000000 69.713600159  -999.250000
 10564.500000 69.500503540  -999.250000
 10565.000000 67.976799011  -999.250000
 10565.500000 66.521697998  -999.250000
 10566.000000 66.695701599  -999.250000
 10566.500000 67.589698792  -999.250000
 10567.000000 69.228599548  -999.250000
 10567.500000 69.366897583  -999.250000
 10568.000000 68.461799622  -999.250000
 10568.500000 68.425003052  -999.250000
 10569.000000 69.600997925  -999.250000
 10569.500000 69.919403076  -999.250000
 10570.000000 68.939598083  -999.250000
 10570.500000 67.386497498  -999.250000
 10571.000000 68.787597656  -999.250000
 10571.500000 70.232902527  -999.250000
 10572.000000 71.075202942  -999.250000
 10572.500000 71.042602539  -999.250000
 10573.000000 69.987998962  -999.250000
 10573.500000 68.116500854  -999.250000
 10574.000000 65.681503296  -999.250000
 10574.500000 64.410003662  -999.250000
 10575.000000 66.151901245  -999.250000
 10575.500000 68.459396362  -999.250000
 10576.000000 69.385398865  -999.250000
 10576.500000 68.623497009  -999.250000
 10577.000000 67.903297424  -999.250000
 10577.500000 67.180702209  -999.250000
 10578.000000 66.051399231  -999.250000
 10578.500000 64.221397400  -999.250000
 10579.000000 61.752201080  -999.250000
 10579.500000 61.396999359  -999.250000
 10580.000000 62.506698608  -999.250000
 10580.500000 63.618801117  -999.250000
 10581.000000 64.657501221  -999.250000
 10581.500000 65.430397034  -999.250000
 10582.000000 65.624900818  -999.250000
 10582.500000 65.084999084  -999.250000
 10583.000000 64.680801392  -999.250000
 10583.500000 64.909797668  -999.250000
 10584.000000 65.406501770  -999.250000
 10584.500000 64.907302856  -999.250000
 10585.000000 62.002101898  -999.250000
 10585.500000 59.891700745  -999.250000
 10586.000000 59.136001587  -999.250000
 10586.500000 58.312900543  -999.250000
 10587.000000 57.477500916  -999.250000
 10587.500000 59.919898987  -999.250000
 10588.000000 65.456100464  -999.250000
 10588.500000 68.956703186  -999.250000
 10589.000000 68.302597046  -999.250000
 10589.500000 65.333602905  -999.250000
 10590.000000 63.050498962  -999.250000
 10590.500000 61.906600952  -999.250000
 10591.000000 60.975601196  -999.250000
 10591.500000 60.245700836  -999.250000
 10592.000000 59.804100037  -999.250000
 10592.500000 60.429401398  -999.250000
 10593.000000 62.888900757  -999.250000
 10593.500000 66.102798462  -999.250000
 10594.000000 68.116500854  -999.250000
 10594.500000 67.842002869  -999.250000
 10595.000000 66.450698853  -999.250000
 10595.500000 65.710197449  -999.250000
 10596.000000 65.874397278  -999.250000
 10596.500000 66.432296753  -999.250000
 10597.000000 66.828201294  -999.250000
 10597.500000 66.785598755  -999.250000
 10598.000000 65.402198792  -999.250000
 10598.500000 63.579700470  -999.250000
 10599.000000 61.921298981  -999.250000
 10599.500000 62.974601746  -999.250000
