# LAS format log file from PETREL
# Project units are specified as depth units
#==================================================================
~Version information
VERS.   2.0:
WRAP.   NO:
#==================================================================
~Well
STRT .ft      0.0000000000 :
STOP .ft      11414.000000 :
STEP .ft     0.50000000 :
NULL .        -999.250000 :
COMP.           : COMPANY
WELL.  AMOCO_A-4_294   : WELL
FLD.            : FIELD
LOC.            : LOCATION
SRVC.           : SERVICE COMPANY
DATE.  Wednesday, February 25 2009 13:07:23   : DATE
PROV.           : PROVINCE
UWI.   177014010000   : UNIQUE WELL ID
API.            : API NUMBER
#==================================================================
~Curve
DEPT .ft                   : DEPTH
GR_run2 .gAPI             : GR_run2
GR_run1 .gAPI             : GR_run1
~Parameter
#==================================================================
~Ascii
# ...
 3300.0000000  -999.250000 92.861297607
 3300.5000000  -999.250000 92.550003052
 3301.0000000  -999.250000 92.347297668
 3301.5000000  -999.250000 91.906997681
 3302.0000000  -999.250000 90.796302795
 3302.5000000  -999.250000 89.780197144
 3303.0000000  -999.250000 90.147697449
 3303.5000000  -999.250000 90.284400940
 3304.0000000  -999.250000 88.927902222
 3304.5000000  -999.250000 87.708396912
 3305.0000000  -999.250000 87.006301880
 3305.5000000  -999.250000 87.462402344
 3306.0000000  -999.250000 89.393402100
 3306.5000000  -999.250000 91.072898865
 3307.0000000  -999.250000 92.554000854
 3307.5000000  -999.250000 93.431198120
 3308.0000000  -999.250000 93.801399231
 3308.5000000  -999.250000 94.566200256
 3309.0000000  -999.250000 95.485397339
 3309.5000000  -999.250000 95.585700989
 3310.0000000  -999.250000 94.795303345
 3310.5000000  -999.250000 94.264900208
 3311.0000000  -999.250000 94.303199768
 3311.5000000  -999.250000 94.763298035
 3312.0000000  -999.250000 95.648101807
 3312.5000000  -999.250000 96.820098877
 3313.0000000  -999.250000 97.004600525
 3313.5000000  -999.250000 94.644401550
 3314.0000000  -999.250000 92.888702393
 3314.5000000  -999.250000 92.073997498
 3315.0000000  -999.250000 92.919700623
 3315.5000000  -999.250000 93.237197876
 3316.0000000  -999.250000 93.208702087
 3316.5000000  -999.250000 93.615097046
 3317.0000000  -999.250000 95.028602600
 3317.5000000  -999.250000 96.342697144
 3318.0000000  -999.250000 95.572402954
 3318.5000000  -999.250000 93.801002502
 3319.0000000  -999.250000 92.571296692
 3319.5000000  -999.250000 93.371696472
 3320.0000000  -999.250000 94.849601746
 3320.5000000  -999.250000 96.490402222
 3321.0000000  -999.250000 97.851799011
 3321.5000000  -999.250000 98.663200378
 3322.0000000  -999.250000 98.645599365
 3322.5000000  -999.250000 97.636596680
 3323.0000000  -999.250000 96.480300903
 3323.5000000  -999.250000 96.371498108
 3324.0000000  -999.250000 97.405799866
 3324.5000000  -999.250000 98.275100708
 3325.0000000  -999.250000 98.416603088
 3325.5000000  -999.250000 98.305397034
 3326.0000000  -999.250000 98.406898499
 3326.5000000  -999.250000 99.612701416
 3327.0000000  -999.250000 101.19689941
 3327.5000000  -999.250000 102.44460297
 3328.0000000  -999.250000 102.42929840
 3328.5000000  -999.250000 101.89489746
 3329.0000000  -999.250000 102.39710236
 3329.5000000  -999.250000 103.33809662
 3330.0000000  -999.250000 103.74680328
 3330.5000000  -999.250000 102.67240143
 3331.0000000  -999.250000 100.93160248
 3331.5000000  -999.250000 99.226600647
 3332.0000000  -999.250000 97.758697510
 3332.5000000  -999.250000 97.304199219
 3333.0000000  -999.250000 97.163497925
 3333.5000000  -999.250000 96.311996460
 3334.0000000  -999.250000 95.038696289
 3334.5000000  -999.250000 93.892303467
 3335.0000000  -999.250000 93.685501099
 3335.5000000  -999.250000 94.093803406
 3336.0000000  -999.250000 94.030296326
 3336.5000000  -999.250000 92.854896545
 3337.0000000  -999.250000 90.080398560
 3337.5000000  -999.250000 88.433601379
 3338.0000000  -999.250000 87.775100708
 3338.5000000  -999.250000 88.384201050
 3339.0000000  -999.250000 89.544197083
 3339.5000000  -999.250000 90.915199280
 3340.0000000  -999.250000 90.354499817
 3340.5000000  -999.250000 89.715301514
 3341.0000000  -999.250000 90.414596558
 3341.5000000  -999.250000 92.002700806
 3342.0000000  -999.250000 92.988800049
 3342.5000000  -999.250000 92.531402588
 3343.0000000  -999.250000 92.248397827
 3343.5000000  -999.250000 92.459701538
 3344.0000000  -999.250000 92.422096252
 3344.5000000  -999.250000 91.623397827
 3345.0000000  -999.250000 90.413902283
 3345.5000000  -999.250000 89.210700989
 3346.0000000  -999.250000 88.825897217
 3346.5000000  -999.250000 89.799598694
 3347.0000000  -999.250000 90.656700134
 3347.5000000  -999.250000 90.885597229
 3348.0000000  -999.250000 90.513999939
 3348.5000000  -999.250000 89.855499268
 3349.0000000  -999.250000 88.924797058
 3349.5000000  -999.250000 87.728401184
 3350.0000000  -999.250000 86.692100525
 3350.5000000  -999.250000 85.910003662
 3351.0000000  -999.250000 90.211898804
 3351.5000000  -999.250000 94.531898499
 3352.0000000  -999.250000 97.175399780
 3352.5000000  -999.250000 96.725601196
 3353.0000000  -999.250000 95.812400818
 3353.5000000  -999.250000 96.186203003
 3354.0000000  -999.250000 97.751701355
 3354.5000000  -999.250000 100.18959808
 3355.0000000  -999.250000 101.95349884
 3355.5000000  -999.250000 99.913002014
 3356.0000000  -999.250000 95.638099670
 3356.5000000  -999.250000 87.478797913
 3357.0000000  -999.250000 83.659301758
 3357.5000000  -999.250000 80.318000793
 3358.0000000  -999.250000 76.313499451
 3358.5000000  -999.250000 70.914802551
 3359.0000000  -999.250000 68.371200562
 3359.5000000  -999.250000 69.914802551
 3360.0000000  -999.250000 73.004600525
 3360.5000000  -999.250000 78.213096619
 3361.0000000  -999.250000 82.406600952
 3361.5000000  -999.250000 85.405197144
 3362.0000000  -999.250000 88.121902466
 3362.5000000  -999.250000 90.845100403
 3363.0000000  -999.250000 93.481796265
 3363.5000000  -999.250000 94.981101990
 3364.0000000  -999.250000 95.981002808
 3364.5000000  -999.250000 96.103302002
 3365.0000000  -999.250000 95.236900330
 3365.5000000  -999.250000 93.763397217
 3366.0000000  -999.250000 92.100196838
 3366.5000000  -999.250000 90.756797791
 3367.0000000  -999.250000 90.038002014
 3367.5000000  -999.250000 90.768997192
 3368.0000000  -999.250000 91.212997437
 3368.5000000  -999.250000 90.774002075
 3369.0000000  -999.250000 90.234397888
 3369.5000000  -999.250000 93.092697144
 3370.0000000  -999.250000 96.899497986
 3370.5000000  -999.250000 99.085800171
 3371.0000000  -999.250000 99.524002075
 3371.5000000  -999.250000 98.280502319
 3372.0000000  -999.250000 96.997802734
 3372.5000000  -999.250000 95.743797302
 3373.0000000  -999.250000 94.461700439
 3373.5000000  -999.250000 93.231597900
 3374.0000000  -999.250000 92.072097778
 3374.5000000  -999.250000 90.385902405
 3375.0000000  -999.250000 86.467498779
 3375.5000000  -999.250000 77.967796326
 3376.0000000  -999.250000 67.045303345
 3376.5000000  -999.250000 60.122398376
 3377.0000000  -999.250000 58.000000000
 3377.5000000  -999.250000 62.647800446
 3378.0000000  -999.250000 69.888496399
 3378.5000000  -999.250000 75.217201233
 3379.0000000  -999.250000 80.746002197
 3379.5000000  -999.250000 84.988403320
 3380.0000000  -999.250000 88.398597717
 3380.5000000  -999.250000 91.094100952
 3381.0000000  -999.250000 92.564598083
 3381.5000000  -999.250000 93.431800842
 3382.0000000  -999.250000 93.630996704
 3382.5000000  -999.250000 92.968101501
 3383.0000000  -999.250000 91.364402771
 3383.5000000  -999.250000 89.633697510
 3384.0000000  -999.250000 88.137603760
 3384.5000000  -999.250000 86.964996338
 3385.0000000  -999.250000 86.557502747
 3385.5000000  -999.250000 87.031997681
 3386.0000000  -999.250000 87.582901001
 3386.5000000  -999.250000 87.293502808
 3387.0000000  -999.250000 86.726898193
 3387.5000000  -999.250000 86.634902954
 3388.0000000  -999.250000 86.603599548
 3388.5000000  -999.250000 85.997703552
 3389.0000000  -999.250000 85.339103699
 3389.5000000  -999.250000 86.417503357
 3390.0000000  -999.250000 89.481002808
 3390.5000000  -999.250000 91.726097107
 3391.0000000  -999.250000 91.858802795
 3391.5000000  -999.250000 89.512298584
 3392.0000000  -999.250000 87.774696350
 3392.5000000  -999.250000 86.789100647
 3393.0000000  -999.250000 87.846099854
 3393.5000000  -999.250000 88.842498779
 3394.0000000  -999.250000 89.205200195
 3394.5000000  -999.250000 88.983497620
 3395.0000000  -999.250000 88.202003479
 3395.5000000  -999.250000 87.846801758
 3396.0000000  -999.250000 88.553100586
 3396.5000000  -999.250000 88.976196289
 3397.0000000  -999.250000 87.887901306
 3397.5000000  -999.250000 86.826400757
 3398.0000000  -999.250000 87.350700378
 3398.5000000  -999.250000 87.092697144
 3399.0000000  -999.250000 86.065803528
 3399.5000000  -999.250000 84.106101990
