# LAS format log file from PETREL
# Project units are specified as depth units
#==================================================================
~Version information
VERS.   2.0:
WRAP.   NO:
#==================================================================
~Well
STRT .ft      100.00000000 :
STOP .ft      12173.000000 :
STEP .ft     0.50000000 :
NULL .        -999.250000 :
COMP.           : COMPANY
WELL.  AMOCO_4_293   : WELL
FLD.            : FIELD
LOC.            : LOCATION
SRVC.           : SERVICE COMPANY
DATE.  Wednesday, February 25 2009 13:05:38   : DATE
PROV.           : PROVINCE
UWI.   177014024400   : UNIQUE WELL ID
API.            : API NUMBER
#==================================================================
~Curve
DEPT .ft                   : DEPTH
GR_run2 .gAPI             : GR_run2
GR_run1 .gAPI             : GR_run1
~Parameter
#==================================================================
~Ascii
# ...
 4900.0000000  -999.250000 80.978500366
 4900.5000000  -999.250000 81.946998596
 4901.0000000  -999.250000 81.900398254
 4901.5000000  -999.250000 81.279899597
 4902.0000000  -999.250000 79.857498169
 4902.5000000  -999.250000 79.355201721
 4903.0000000  -999.250000 81.156997681
 4903.5000000  -999.250000 82.844802856
 4904.0000000  -999.250000 82.332901001
 4904.5000000  -999.250000 81.524803162
 4905.0000000  -999.250000 81.983200073
 4905.5000000  -999.250000 82.777000427
 4906.0000000  -999.250000 83.083000183
 4906.5000000  -999.250000 83.159202576
 4907.0000000  -999.250000 82.662696838
 4907.5000000  -999.250000 81.671302795
 4908.0000000  -999.250000 80.144401550
 4908.5000000  -999.250000 77.879997253
 4909.0000000  -999.250000 76.946701050
 4909.5000000  -999.250000 79.057899475
 4910.0000000  -999.250000 83.565597534
 4910.5000000  -999.250000 85.561996460
 4911.0000000  -999.250000 85.177597046
 4911.5000000  -999.250000 84.420799255
 4912.0000000  -999.250000 85.018302917
 4912.5000000  -999.250000 87.224601746
 4913.0000000  -999.250000 87.991302490
 4913.5000000  -999.250000 82.214599609
 4914.0000000  -999.250000 75.509803772
 4914.5000000  -999.250000 70.703399658
 4915.0000000  -999.250000 75.160797119
 4915.5000000  -999.250000 80.696998596
 4916.0000000  -999.250000 84.691802979
 4916.5000000  -999.250000 86.378501892
 4917.0000000  -999.250000 85.069801331
 4917.5000000  -999.250000 80.347999573
 4918.0000000  -999.250000 77.791397095
 4918.5000000  -999.250000 77.172096252
 4919.0000000  -999.250000 77.809196472
 4919.5000000  -999.250000 78.735198975
 4920.0000000  -999.250000 79.422996521
 4920.5000000  -999.250000 79.172096252
 4921.0000000  -999.250000 77.867996216
 4921.5000000  -999.250000 77.188102722
 4922.0000000  -999.250000 81.104103088
 4922.5000000  -999.250000 84.863601685
 4923.0000000  -999.250000 85.381698608
 4923.5000000  -999.250000 84.192100525
 4924.0000000  -999.250000 81.257400513
 4924.5000000  -999.250000 78.743202209
 4925.0000000  -999.250000 76.228897095
 4925.5000000  -999.250000 73.714599609
 4926.0000000  -999.250000 71.200302124
 4926.5000000  -999.250000 70.355003357
 4927.0000000  -999.250000 72.112396240
 4927.5000000  -999.250000 75.977798462
 4928.0000000  -999.250000 78.616302490
 4928.5000000  -999.250000 77.886596680
 4929.0000000  -999.250000 75.903701782
 4929.5000000  -999.250000 73.624801636
 4930.0000000  -999.250000 71.661697388
 4930.5000000  -999.250000 70.327903748
 4931.0000000  -999.250000 71.824302673
 4931.5000000  -999.250000 76.858200073
 4932.0000000  -999.250000 80.614997864
 4932.5000000  -999.250000 82.734001160
 4933.0000000  -999.250000 84.898101807
 4933.5000000  -999.250000 87.671401978
 4934.0000000  -999.250000 88.498298645
 4934.5000000  -999.250000 85.831298828
 4935.0000000  -999.250000 78.079597473
 4935.5000000  -999.250000 70.200897217
 4936.0000000  -999.250000 64.633102417
 4936.5000000  -999.250000 63.135101318
 4937.0000000  -999.250000 65.516098022
 4937.5000000  -999.250000 70.925399780
 4938.0000000  -999.250000 75.271896362
 4938.5000000  -999.250000 78.047897339
 4939.0000000  -999.250000 80.151000977
 4939.5000000  -999.250000 82.119400024
 4940.0000000  -999.250000 84.079696655
 4940.5000000  -999.250000 85.696403503
 4941.0000000  -999.250000 84.125999451
 4941.5000000  -999.250000 79.433197021
 4942.0000000  -999.250000 75.660499573
 4942.5000000  -999.250000 74.674301147
 4943.0000000  -999.250000 80.297698975
 4943.5000000  -999.250000 82.608497620
 4944.0000000  -999.250000 83.289901733
 4944.5000000  -999.250000 81.959503174
 4945.0000000  -999.250000 80.938201904
 4945.5000000  -999.250000 80.613403320
 4946.0000000  -999.250000 80.135101318
 4946.5000000  -999.250000 79.705101013
 4947.0000000  -999.250000 80.522499084
 4947.5000000  -999.250000 81.459098816
 4948.0000000  -999.250000 81.244300842
 4948.5000000  -999.250000 76.525001526
 4949.0000000  -999.250000 71.374900818
 4949.5000000  -999.250000 70.988899231
 4950.0000000  -999.250000 78.788101196
 4950.5000000  -999.250000 85.151901245
 4951.0000000  -999.250000 84.218498230
 4951.5000000  -999.250000 79.819198608
 4952.0000000  -999.250000 76.099403381
 4952.5000000  -999.250000 75.345802307
 4953.0000000  -999.250000 78.486701965
 4953.5000000  -999.250000 83.232398987
 4954.0000000  -999.250000 86.391799927
 4954.5000000  -999.250000 86.404998779
 4955.0000000  -999.250000 83.353996277
 4955.5000000  -999.250000 80.583297729
 4956.0000000  -999.250000 80.600502014
 4956.5000000  -999.250000 82.361297607
 4957.0000000  -999.250000 82.996803284
 4957.5000000  -999.250000 82.530502319
 4958.0000000  -999.250000 81.955398560
 4958.5000000  -999.250000 80.592498779
 4959.0000000  -999.250000 78.782798767
 4959.5000000  -999.250000 77.375000000
 4960.0000000  -999.250000 76.988403320
 4960.5000000  -999.250000 77.943496704
 4961.0000000  -999.250000 79.909202576
 4961.5000000  -999.250000 82.011001587
 4962.0000000  -999.250000 82.855003357
 4962.5000000  -999.250000 80.876701355
 4963.0000000  -999.250000 77.365699768
 4963.5000000  -999.250000 74.791999817
 4964.0000000  -999.250000 75.805900574
 4964.5000000  -999.250000 81.418701172
 4965.0000000  -999.250000 84.905998230
 4965.5000000  -999.250000 86.120498657
 4966.0000000  -999.250000 86.151901245
 4966.5000000  -999.250000 83.938400269
 4967.0000000  -999.250000 79.010299683
 4967.5000000  -999.250000 74.076797485
 4968.0000000  -999.250000 72.580398560
 4968.5000000  -999.250000 76.953399658
 4969.0000000  -999.250000 82.695701599
 4969.5000000  -999.250000 88.112899780
 4970.0000000  -999.250000 90.271003723
 4970.5000000  -999.250000 87.930496216
 4971.0000000  -999.250000 83.351402283
 4971.5000000  -999.250000 80.562103271
 4972.0000000  -999.250000 81.064498901
 4972.5000000  -999.250000 84.736801147
 4973.0000000  -999.250000 88.208099365
 4973.5000000  -999.250000 88.297996521
 4974.0000000  -999.250000 84.728897095
 4974.5000000  -999.250000 81.373802185
 4975.0000000  -999.250000 78.018798828
 4975.5000000  -999.250000 74.974403381
 4976.0000000  -999.250000 74.449600220
 4976.5000000  -999.250000 75.682296753
 4977.0000000  -999.250000 76.164802551
 4977.5000000  -999.250000 74.671798706
 4978.0000000  -999.250000 73.010002136
 4978.5000000  -999.250000 72.816398621
 4979.0000000  -999.250000 73.931396484
 4979.5000000  -999.250000 75.805900574
 4980.0000000  -999.250000 78.217002869
 4980.5000000  -999.250000 80.622901917
 4981.0000000  -999.250000 82.109497070
 4981.5000000  -999.250000 80.764999390
 4982.0000000  -999.250000 80.264198303
 4982.5000000  -999.250000 80.657302856
 4983.0000000  -999.250000 83.972702026
 4983.5000000  -999.250000 86.841201782
 4984.0000000  -999.250000 87.206100464
 4984.5000000  -999.250000 83.763801575
 4985.0000000  -999.250000 81.421401978
 4985.5000000  -999.250000 79.630203247
 4986.0000000  -999.250000 77.571998596
 4986.5000000  -999.250000 75.544197083
 4987.0000000  -999.250000 71.771400452
 4987.5000000  -999.250000 67.314002991
 4988.0000000  -999.250000 65.672096252
 4988.5000000  -999.250000 68.498397827
 4989.0000000  -999.250000 73.854698181
 4989.5000000  -999.250000 74.764503479
 4990.0000000  -999.250000 72.945297241
 4990.5000000  -999.250000 71.587303162
 4991.0000000  -999.250000 73.513702393
 4991.5000000  -999.250000 76.366302490
 4992.0000000  -999.250000 79.085601807
 4992.5000000  -999.250000 81.054000854
 4993.0000000  -999.250000 81.942298889
 4993.5000000  -999.250000 79.766403198
 4994.0000000  -999.250000 75.007400513
 4994.5000000  -999.250000 73.857101440
 4995.0000000  -999.250000 74.308197021
 4995.5000000  -999.250000 75.591796875
 4996.0000000  -999.250000 76.220703125
 4996.5000000  -999.250000 75.903099060
 4997.0000000  -999.250000 74.145599365
 4997.5000000  -999.250000 71.639297485
 4998.0000000  -999.250000 69.167198181
 4998.5000000  -999.250000 68.919097900
 4999.0000000  -999.250000 70.629302979
 4999.5000000  -999.250000 73.019302368
