# LAS format log file from PETREL
# Project units are specified as depth units
#==================================================================
~Version information
VERS.   2.0:
WRAP.   NO:
#==================================================================
~Well
STRT .ft      0.0000000000 :
STOP .ft      11414.000000 :
STEP .ft     0.50000000 :
NULL .        -999.250000 :
COMP.           : COMPANY
WELL.  AMOCO_A-4_294   : WELL
FLD.            : FIELD
LOC.            : LOCATION
SRVC.           : SERVICE COMPANY
DATE.  Wednesday, February 25 2009 13:07:23   : DATE
PROV.           : PROVINCE
UWI.   177014010000   : UNIQUE WELL ID
API.            : API NUMBER
#==================================================================
~Curve
DEPT .ft                   : DEPTH
GR_run2 .gAPI             : GR_run2
GR_run1 .gAPI             : GR_run1
~Parameter
#==================================================================
~Ascii
# ...
 700.00000000  -999.250000 32.357700348
 700.50000000  -999.250000 31.229299545
 701.00000000  -999.250000 30.339000702
 701.50000000  -999.250000 29.421699524
 702.00000000  -999.250000 28.938699722
 702.50000000  -999.250000 28.623699188
 703.00000000  -999.250000 28.533399582
 703.50000000  -999.250000 28.464599609
 704.00000000  -999.250000 28.278699875
 704.50000000  -999.250000 27.761499405
 705.00000000  -999.250000 26.758800507
 705.50000000  -999.250000 25.753799438
 706.00000000  -999.250000 24.840599060
 706.50000000  -999.250000 24.051799774
 707.00000000  -999.250000 23.508499146
 707.50000000  -999.250000 23.352800369
 708.00000000  -999.250000 23.501499176
 708.50000000  -999.250000 23.593799591
 709.00000000  -999.250000 23.340700150
 709.50000000  -999.250000 22.952100754
 710.00000000  -999.250000 22.666900635
 710.50000000  -999.250000 23.061500549
 711.00000000  -999.250000 23.976699829
 711.50000000  -999.250000 24.826799393
 712.00000000  -999.250000 25.387300491
 712.50000000  -999.250000 25.978399277
 713.00000000  -999.250000 26.532300949
 713.50000000  -999.250000 26.978099823
 714.00000000  -999.250000 27.013099670
 714.50000000  -999.250000 26.225700378
 715.00000000  -999.250000 25.548400879
 715.50000000  -999.250000 26.197099686
 716.00000000  -999.250000 27.797700882
 716.50000000  -999.250000 29.242000580
 717.00000000  -999.250000 29.966999054
 717.50000000  -999.250000 30.199300766
 718.00000000  -999.250000 29.804000854
 718.50000000  -999.250000 29.327600479
 719.00000000  -999.250000 28.871500015
 719.50000000  -999.250000 29.243000031
 720.00000000  -999.250000 29.849599838
 720.50000000  -999.250000 30.214300156
 721.00000000  -999.250000 30.179899216
 721.50000000  -999.250000 29.569799423
 722.00000000  -999.250000 28.536100388
 722.50000000  -999.250000 27.525199890
 723.00000000  -999.250000 27.115100861
 723.50000000  -999.250000 27.103099823
 724.00000000  -999.250000 27.018699646
 724.50000000  -999.250000 27.032100677
 725.00000000  -999.250000 27.859699249
 725.50000000  -999.250000 29.508199692
 726.00000000  -999.250000 32.159900665
 726.50000000  -999.250000 36.048999786
 727.00000000  -999.250000 38.144901276
 727.50000000  -999.250000 39.591999054
 728.00000000  -999.250000 39.830600739
 728.50000000  -999.250000 38.910301208
 729.00000000  -999.250000 37.473300934
 729.50000000  -999.250000 35.668998718
 730.00000000  -999.250000 33.947399139
 730.50000000  -999.250000 32.465099335
 731.00000000  -999.250000 31.155899048
 731.50000000  -999.250000 30.173999786
 732.00000000  -999.250000 29.652599335
 732.50000000  -999.250000 29.998399734
 733.00000000  -999.250000 30.645200729
 733.50000000  -999.250000 30.760700226
 734.00000000  -999.250000 30.143600464
 734.50000000  -999.250000 29.327299118
 735.00000000  -999.250000 29.451900482
 735.50000000  -999.250000 30.520999908
 736.00000000  -999.250000 31.663600922
 736.50000000  -999.250000 32.563701630
 737.00000000  -999.250000 33.373500824
 737.50000000  -999.250000 34.022300720
 738.00000000  -999.250000 34.393100739
 738.50000000  -999.250000 34.214500427
 739.00000000  -999.250000 33.056301117
 739.50000000  -999.250000 30.976900101
 740.00000000  -999.250000 29.474700928
 740.50000000  -999.250000 29.092199326
 741.00000000  -999.250000 28.681400299
 741.50000000  -999.250000 27.778999329
 742.00000000  -999.250000 26.713399887
 742.50000000  -999.250000 26.030599594
 743.00000000  -999.250000 25.981399536
 743.50000000  -999.250000 26.056299210
 744.00000000  -999.250000 26.221700668
 744.50000000  -999.250000 27.633100510
 745.00000000  -999.250000 29.629600525
 745.50000000  -999.250000 31.405599594
 746.00000000  -999.250000 32.167999268
 746.50000000  -999.250000 31.509000778
 747.00000000  -999.250000 30.421300888
 747.50000000  -999.250000 29.399000168
 748.00000000  -999.250000 29.828100204
 748.50000000  -999.250000 30.883499146
 749.00000000  -999.250000 31.281099319
 749.50000000  -999.250000 30.500400543
 750.00000000  -999.250000 29.631000519
 750.50000000  -999.250000 29.171699524
 751.00000000  -999.250000 29.429700851
 751.50000000  -999.250000 29.690099716
 752.00000000  -999.250000 29.563999176
 752.50000000  -999.250000 29.147899628
 753.00000000  -999.250000 28.617099762
 753.50000000  -999.250000 28.082599640
 754.00000000  -999.250000 27.794700623
 754.50000000  -999.250000 27.876399994
 755.00000000  -999.250000 28.506700516
 755.50000000  -999.250000 29.363199234
 756.00000000  -999.250000 30.018100739
 756.50000000  -999.250000 30.299200058
 757.00000000  -999.250000 30.783199310
 757.50000000  -999.250000 31.802299500
 758.00000000  -999.250000 33.232398987
 758.50000000  -999.250000 34.022201538
 759.00000000  -999.250000 33.813999176
 759.50000000  -999.250000 33.080299377
 760.00000000  -999.250000 32.816699982
 760.50000000  -999.250000 33.026199341
 761.00000000  -999.250000 33.574699402
 761.50000000  -999.250000 33.764301300
 762.00000000  -999.250000 33.747699738
 762.50000000  -999.250000 33.524600983
 763.00000000  -999.250000 33.210498810
 763.50000000  -999.250000 32.896400452
 764.00000000  -999.250000 32.908000946
 764.50000000  -999.250000 33.253200531
 765.00000000  -999.250000 33.716400146
 765.50000000  -999.250000 34.203701019
 766.00000000  -999.250000 34.766700745
 766.50000000  -999.250000 35.838699341
 767.00000000  -999.250000 36.858798981
 767.50000000  -999.250000 37.357200623
 768.00000000  -999.250000 37.847000122
 768.50000000  -999.250000 38.221298218
 769.00000000  -999.250000 37.691001892
 769.50000000  -999.250000 36.495098114
 770.00000000  -999.250000 35.131698608
 770.50000000  -999.250000 34.345798492
 771.00000000  -999.250000 34.206001282
 771.50000000  -999.250000 33.628601074
 772.00000000  -999.250000 32.909900665
 772.50000000  -999.250000 32.229801178
 773.00000000  -999.250000 32.216899872
 773.50000000  -999.250000 32.886798859
 774.00000000  -999.250000 33.386199951
 774.50000000  -999.250000 33.768501282
 775.00000000  -999.250000 34.085300446
 775.50000000  -999.250000 34.361801147
 776.00000000  -999.250000 34.404201508
 776.50000000  -999.250000 34.223300934
 777.00000000  -999.250000 32.693801880
 777.50000000  -999.250000 30.284200668
 778.00000000  -999.250000 28.410600662
 778.50000000  -999.250000 27.395500183
 779.00000000  -999.250000 27.050100327
 779.50000000  -999.250000 26.507699966
 780.00000000  -999.250000 25.795999527
 780.50000000  -999.250000 24.984300613
 781.00000000  -999.250000 24.271600723
 781.50000000  -999.250000 24.472799301
 782.00000000  -999.250000 24.953399658
 782.50000000  -999.250000 25.434099197
 783.00000000  -999.250000 25.730600357
 783.50000000  -999.250000 25.700199127
 784.00000000  -999.250000 24.781600952
 784.50000000  -999.250000 23.340999603
 785.00000000  -999.250000 22.197900772
 785.50000000  -999.250000 21.771900177
 786.00000000  -999.250000 21.494300842
 786.50000000  -999.250000 20.946300507
 787.00000000  -999.250000 20.341100693
 787.50000000  -999.250000 19.780700684
 788.00000000  -999.250000 19.385799408
 788.50000000  -999.250000 19.296400070
 789.00000000  -999.250000 19.399000168
 789.50000000  -999.250000 19.562500000
 790.00000000  -999.250000 20.139299393
 790.50000000  -999.250000 20.600200653
 791.00000000  -999.250000 20.673900604
 791.50000000  -999.250000 20.358299255
 792.00000000  -999.250000 20.034099579
 792.50000000  -999.250000 20.020000458
 793.00000000  -999.250000 20.076599121
 793.50000000  -999.250000 20.365900040
 794.00000000  -999.250000 20.800699234
 794.50000000  -999.250000 21.417999268
 795.00000000  -999.250000 21.907800674
 795.50000000  -999.250000 22.214799881
 796.00000000  -999.250000 21.951700211
 796.50000000  -999.250000 21.371599197
 797.00000000  -999.250000 20.750499725
 797.50000000  -999.250000 20.415100098
 798.00000000  -999.250000 20.814399719
 798.50000000  -999.250000 21.249500275
 799.00000000  -999.250000 21.639699936
 799.50000000  -999.250000 21.820299149
