# LAS format log file from PETREL
# Project units are specified as depth units
#==================================================================
~Version information
VERS.   2.0:
WRAP.   NO:
#==================================================================
~Well
STRT .ft      100.00000000 :
STOP .ft      12173.000000 :
STEP .ft     0.50000000 :
NULL .        -999.250000 :
COMP.           : COMPANY
WELL.  AMOCO_4_293   : WELL
FLD.            : FIELD
LOC.            : LOCATION
SRVC.           : SERVICE COMPANY
DATE.  Wednesday, February 25 2009 13:05:38   : DATE
PROV.           : PROVINCE
UWI.   177014024400   : UNIQUE WELL ID
API.            : API NUMBER
#==================================================================
~Curve
DEPT .ft                   : DEPTH
GR_run2 .gAPI             : GR_run2
GR_run1 .gAPI             : GR_run1
~Parameter
#==================================================================
~Ascii
# ...
 7900.0000000  -999.250000 92.537498474
 7900.5000000  -999.250000 92.729499817
 7901.0000000  -999.250000 93.754898071
 7901.5000000  -999.250000 95.289802551
 7902.0000000  -999.250000 95.391700745
 7902.5000000  -999.250000 94.535499573
 7903.0000000  -999.250000 93.157203674
 7903.5000000  -999.250000 90.519302368
 7904.0000000  -999.250000 86.080596924
 7904.5000000  -999.250000 83.613800049
 7905.0000000  -999.250000 82.557701111
 7905.5000000  -999.250000 83.439903259
 7906.0000000  -999.250000 86.507102966
 7906.5000000  -999.250000 91.977798462
 7907.0000000  -999.250000 93.898399353
 7907.5000000  -999.250000 91.409202576
 7908.0000000  -999.250000 89.274002075
 7908.5000000  -999.250000 88.460601807
 7909.0000000  -999.250000 89.829597473
 7909.5000000  -999.250000 90.682899475
 7910.0000000  -999.250000 91.004997253
 7910.5000000  -999.250000 91.253799438
 7911.0000000  -999.250000 91.461097717
 7911.5000000  -999.250000 91.259201050
 7912.0000000  -999.250000 89.566299438
 7912.5000000  -999.250000 86.796600342
 7913.0000000  -999.250000 85.675796509
 7913.5000000  -999.250000 86.554397583
 7914.0000000  -999.250000 87.497703552
 7914.5000000  -999.250000 87.292999268
 7915.0000000  -999.250000 84.774803162
 7915.5000000  -999.250000 80.941497803
 7916.0000000  -999.250000 78.549003601
 7916.5000000  -999.250000 78.967002869
 7917.0000000  -999.250000 81.046897888
 7917.5000000  -999.250000 82.912101746
 7918.0000000  -999.250000 83.958602905
 7918.5000000  -999.250000 80.304397583
 7919.0000000  -999.250000 77.811302185
 7919.5000000  -999.250000 76.918800354
 7920.0000000  -999.250000 76.336997986
 7920.5000000  -999.250000 75.782096863
 7921.0000000  -999.250000 75.157600403
 7921.5000000  -999.250000 74.499397278
 7922.0000000  -999.250000 74.000503540
 7922.5000000  -999.250000 74.374298096
 7923.0000000  -999.250000 75.310203552
 7923.5000000  -999.250000 75.448097229
 7924.0000000  -999.250000 74.399299622
 7924.5000000  -999.250000 72.975097656
 7925.0000000  -999.250000 71.090103149
 7925.5000000  -999.250000 72.443199158
 7926.0000000  -999.250000 76.755599976
 7926.5000000  -999.250000 82.215797424
 7927.0000000  -999.250000 87.670799255
 7927.5000000  -999.250000 93.130996704
 7928.0000000  -999.250000 98.591201782
 7928.5000000  -999.250000 103.98290253
 7929.0000000  -999.250000 106.96309662
 7929.5000000  -999.250000 107.10269928
 7930.0000000  -999.250000 103.37740326
 7930.5000000  -999.250000 98.133102417
 7931.0000000  -999.250000 95.972900391
 7931.5000000  -999.250000 95.275299072
 7932.0000000  -999.250000 94.185302734
 7932.5000000  -999.250000 92.825599670
 7933.0000000  -999.250000 91.094596863
 7933.5000000  -999.250000 90.125099182
 7934.0000000  -999.250000 90.737800598
 7934.5000000  -999.250000 92.538597107
 7935.0000000  -999.250000 95.000099182
 7935.5000000  -999.250000 97.975097656
 7936.0000000  -999.250000 101.83460236
 7936.5000000  -999.250000 104.00520325
 7937.0000000  -999.250000 103.41960144
 7937.5000000  -999.250000 98.691200256
 7938.0000000  -999.250000 95.389801025
 7938.5000000  -999.250000 93.083602905
 7939.0000000  -999.250000 91.681602478
 7939.5000000  -999.250000 94.884300232
 7940.0000000  -999.250000 100.24449921
 7940.5000000  -999.250000 101.44239807
 7941.0000000  -999.250000 98.904403687
 7941.5000000  -999.250000 96.416496277
 7942.0000000  -999.250000 94.948898315
 7942.5000000  -999.250000 93.966796875
 7943.0000000  -999.250000 92.933502197
 7943.5000000  -999.250000 91.527603149
 7944.0000000  -999.250000 89.624099731
 7944.5000000  -999.250000 87.260002136
 7945.0000000  -999.250000 84.358802795
 7945.5000000  -999.250000 81.462898254
 7946.0000000  -999.250000 80.479499817
 7946.5000000  -999.250000 81.776100159
 7947.0000000  -999.250000 82.966400146
 7947.5000000  -999.250000 83.242202759
 7948.0000000  -999.250000 84.656303406
 7948.5000000  -999.250000 87.991897583
 7949.0000000  -999.250000 89.733398438
 7949.5000000  -999.250000 90.251502991
 7950.0000000  -999.250000 91.112998962
 7950.5000000  -999.250000 92.764999390
 7951.0000000  -999.250000 96.011100769
 7951.5000000  -999.250000 99.828498840
 7952.0000000  -999.250000 102.48750305
 7952.5000000  -999.250000 103.57749939
 7953.0000000  -999.250000 103.34059906
 7953.5000000  -999.250000 100.90270233
 7954.0000000  -999.250000 95.932098389
 7954.5000000  -999.250000 92.915000916
 7955.0000000  -999.250000 91.623001099
 7955.5000000  -999.250000 94.073501587
 7956.0000000  -999.250000 98.996597290
 7956.5000000  -999.250000 100.86180115
 7957.0000000  -999.250000 99.328399658
 7957.5000000  -999.250000 97.114303589
 7958.0000000  -999.250000 95.352897644
 7958.5000000  -999.250000 94.048500061
 7959.0000000  -999.250000 93.028297424
 7959.5000000  -999.250000 91.443397522
 7960.0000000  -999.250000 89.395103455
 7960.5000000  -999.250000 86.143798828
 7961.0000000  -999.250000 83.132003784
 7961.5000000  -999.250000 81.551002502
 7962.0000000  -999.250000 80.693099976
 7962.5000000  -999.250000 81.468101501
 7963.0000000  -999.250000 82.348098755
 7963.5000000  -999.250000 82.862197876
 7964.0000000  -999.250000 82.310501099
 7964.5000000  -999.250000 75.739402771
 7965.0000000  -999.250000 71.469100952
 7965.5000000  -999.250000 69.813201904
 7966.0000000  -999.250000 71.521896362
 7966.5000000  -999.250000 74.317703247
 7967.0000000  -999.250000 77.708602905
 7967.5000000  -999.250000 79.720001221
 7968.0000000  -999.250000 80.532798767
 7968.5000000  -999.250000 80.072799683
 7969.0000000  -999.250000 78.279899597
 7969.5000000  -999.250000 76.313400269
 7970.0000000  -999.250000 74.396697998
 7970.5000000  -999.250000 72.385299683
 7971.0000000  -999.250000 70.376602173
 7971.5000000  -999.250000 69.737396240
 7972.0000000  -999.250000 72.153701782
 7972.5000000  -999.250000 79.477798462
 7973.0000000  -999.250000 85.469802856
 7973.5000000  -999.250000 87.733901978
 7974.0000000  -999.250000 88.767196655
 7974.5000000  -999.250000 90.232299805
 7975.0000000  -999.250000 92.014602661
 7975.5000000  -999.250000 93.406097412
 7976.0000000  -999.250000 94.381500244
 7976.5000000  -999.250000 94.611900330
 7977.0000000  -999.250000 94.606101990
 7977.5000000  -999.250000 95.932098389
 7978.0000000  -999.250000 99.122901917
 7978.5000000  -999.250000 98.828102112
 7979.0000000  -999.250000 93.689102173
 7979.5000000  -999.250000 90.766799927
 7980.0000000  -999.250000 90.105003357
 7980.5000000  -999.250000 90.033401489
 7981.0000000  -999.250000 90.076400757
 7981.5000000  -999.250000 90.153099060
 7982.0000000  -999.250000 91.219596863
 7982.5000000  -999.250000 92.739997864
 7983.0000000  -999.250000 93.080299377
 7983.5000000  -999.250000 92.098899841
 7984.0000000  -999.250000 90.720703125
 7984.5000000  -999.250000 90.029800415
 7985.0000000  -999.250000 90.077400208
 7985.5000000  -999.250000 90.175796509
 7986.0000000  -999.250000 89.813697815
 7986.5000000  -999.250000 89.189498901
 7987.0000000  -999.250000 90.061302185
 7987.5000000  -999.250000 92.772903442
 7988.0000000  -999.250000 94.343299866
 7988.5000000  -999.250000 94.836303711
 7989.0000000  -999.250000 92.522796631
 7989.5000000  -999.250000 90.552200317
 7990.0000000  -999.250000 89.528099060
 7990.5000000  -999.250000 89.102500916
 7991.0000000  -999.250000 89.117996216
 7991.5000000  -999.250000 87.444297791
 7992.0000000  -999.250000 85.846298218
 7992.5000000  -999.250000 84.697097778
 7993.0000000  -999.250000 84.175498962
 7993.5000000  -999.250000 85.180198669
 7994.0000000  -999.250000 87.952400208
 7994.5000000  -999.250000 88.465202332
 7995.0000000  -999.250000 86.570297241
 7995.5000000  -999.250000 78.940696716
 7996.0000000  -999.250000 71.158401489
 7996.5000000  -999.250000 63.997600555
 7997.0000000  -999.250000 63.071399689
 7997.5000000  -999.250000 63.492698669
 7998.0000000  -999.250000 64.010696411
 7998.5000000  -999.250000 65.187500000
 7999.0000000  -999.250000 69.462997437
 7999.5000000  -999.250000 74.117698669
