# LAS format log file from PETREL
# Project units are specified as depth units
#==================================================================
~Version information
VERS.   2.0:
WRAP.   NO:
#==================================================================
~Well
STRT .ft      100.00000000 :
STOP .ft      12173.000000 :
STEP .ft     0.50000000 :
NULL .        -999.250000 :
COMP.           : COMPANY
WELL.  AMOCO_4_293   : WELL
FLD.            : FIELD
LOC.            : LOCATION
SRVC.           : SERVICE COMPANY
DATE.  Wednesday, February 25 2009 13:05:38   : DATE
PROV.           : PROVINCE
UWI.   177014024400   : UNIQUE WELL ID
API.            : API NUMBER
#==================================================================
~Curve
DEPT .ft                   : DEPTH
GR_run2 .gAPI             : GR_run2
GR_run1 .gAPI             : GR_run1
~Parameter
#==================================================================
~Ascii
# ...
 8400.0000000 82.896598816 82.896598816
 8400.5000000 81.919898987 81.919898987
 8401.0000000 83.465202332 83.465202332
 8401.5000000 85.849998474 85.849998474
 8402.0000000 87.430198669 87.430198669
 8402.5000000 86.871902466 86.871902466
 8403.0000000 83.677497864 83.677497864
 8403.5000000 82.500900269 82.500900269
 8404.0000000 86.394996643 86.394996643
 8404.5000000 92.244102478 92.244102478
 8405.0000000 96.069000244 96.069000244
 8405.5000000 95.782600403 95.782600403
 8406.0000000 94.005203247 94.005203247
 8406.5000000 92.321502686 92.321502686
 8407.0000000 91.482902527 91.482902527
 8407.5000000 88.742996216 88.742996216
 8408.0000000 83.635597229 83.635597229
 8408.5000000 81.912498474 81.912498474
 8409.0000000 84.822601318 84.822601318
 8409.5000000 89.162399292 89.162399292
 8410.0000000 89.575103760 89.575103760
 8410.5000000 88.712898254 88.712898254
 8411.0000000 88.676300049 88.676300049
 8411.5000000 89.841102600 89.841102600
 8412.0000000 90.855201721 90.855201721
 8412.5000000 90.058601379 90.058601379
 8413.0000000 89.746696472 89.746696472
 8413.5000000 92.637199402 92.637199402
 8414.0000000 96.012603760 96.012603760
 8414.5000000 98.263702393 98.263702393
 8415.0000000 99.194000244 99.194000244
 8415.5000000 96.175003052 96.175003052
 8416.0000000 93.892601013 93.892601013
 8416.5000000 91.798698425 91.798698425
 8417.0000000 86.405502319 86.405502319
 8417.5000000 81.997703552 81.997703552
 8418.0000000 80.720199585 80.720199585
 8418.5000000 86.562698364 86.562698364
 8419.0000000 89.966903687 89.966903687
 8419.5000000 90.433296204 90.433296204
 8420.0000000 90.143096924 90.143096924
 8420.5000000 89.722503662 89.722503662
 8421.0000000 89.347801208 89.347801208
 8421.5000000 88.748298645 88.748298645
 8422.0000000 88.322502136 88.322502136
 8422.5000000 88.868896484 88.868896484
 8423.0000000 89.313697815 89.313697815
 8423.5000000 87.443199158 87.443199158
 8424.0000000 87.709197998 87.709197998
 8424.5000000 88.510902405 88.510902405
 8425.0000000 86.636100769 86.636100769
 8425.5000000 84.099403381 84.099403381
 8426.0000000 82.013397217 82.013397217
 8426.5000000 80.252403259 80.252403259
 8427.0000000 79.615196228 79.615196228
 8427.5000000 79.881599426 79.881599426
 8428.0000000 81.591598511 81.591598511
 8428.5000000 83.955299377 83.955299377
 8429.0000000 84.735603333 84.735603333
 8429.5000000 84.599998474 84.599998474
 8430.0000000 82.996101379 82.996101379
 8430.5000000 81.085700989 81.085700989
 8431.0000000 79.706703186 79.706703186
 8431.5000000 79.504302979 79.504302979
 8432.0000000 80.477798462 80.477798462
 8432.5000000 82.862503052 82.862503052
 8433.0000000 86.431800842 86.431800842
 8433.5000000 90.174003601 90.174003601
 8434.0000000 92.221900940 92.221900940
 8434.5000000 92.244102478 92.244102478
 8435.0000000 91.387901306 91.387901306
 8435.5000000 90.977203369 90.977203369
 8436.0000000 91.175697327 91.175697327
 8436.5000000 92.359497070 92.359497070
 8437.0000000 92.920303345 92.920303345
 8437.5000000 90.446403503 90.446403503
 8438.0000000 88.074798584 88.074798584
 8438.5000000 88.680198669 88.680198669
 8439.0000000 89.837303162 89.837303162
 8439.5000000 88.192703247 88.192703247
 8440.0000000 85.472503662 85.472503662
 8440.5000000 82.961997986 82.961997986
 8441.0000000 81.780197144 81.780197144
 8441.5000000 83.695800781 83.695800781
 8442.0000000 88.213699341 88.213699341
 8442.5000000 89.932899475 89.932899475
 8443.0000000 89.686500549 89.686500549
 8443.5000000 87.634498596 87.634498596
 8444.0000000 87.218299866 87.218299866
 8444.5000000 87.408096313 87.408096313
 8445.0000000 87.398101807 87.398101807
 8445.5000000 87.838996887 87.838996887
 8446.0000000 89.165000916 89.165000916
 8446.5000000 92.181297302 92.181297302
 8447.0000000 94.885696411 94.885696411
 8447.5000000 96.935096741 96.935096741
 8448.0000000 96.528800964 96.528800964
 8448.5000000 94.115196228 94.115196228
 8449.0000000 92.047599792 92.047599792
 8449.5000000 89.696998596 89.696998596
 8450.0000000 84.497703552 84.497703552
 8450.5000000 80.050697327 80.050697327
 8451.0000000 79.698501587 79.698501587
 8451.5000000 83.449501038 83.449501038
 8452.0000000 85.493499756 85.493499756
 8452.5000000 83.116699219 83.116699219
 8453.0000000 81.616500854 81.616500854
 8453.5000000 80.678199768 80.678199768
 8454.0000000 80.244903564 80.244903564
 8454.5000000 80.965202332 80.965202332
 8455.0000000 81.930900574 81.930900574
 8455.5000000 82.168098450 82.168098450
 8456.0000000 79.340499878 79.340499878
 8456.5000000 76.866600037 76.866600037
 8457.0000000 77.684196472 77.684196472
 8457.5000000 82.464103699 82.464103699
 8458.0000000 86.539199829 86.539199829
 8458.5000000 86.469703674 86.469703674
 8459.0000000 83.281700134 83.281700134
 8459.5000000 80.493499756 80.493499756
 8460.0000000 79.174102783 79.174102783
 8460.5000000 78.821502686 78.821502686
 8461.0000000 80.032203674 80.032203674
 8461.5000000 81.278297424 81.278297424
 8462.0000000 80.978302002 80.978302002
 8462.5000000 79.164802551 79.164802551
 8463.0000000 77.251800537 77.251800537
 8463.5000000 75.638900757 75.638900757
 8464.0000000 74.835800171 74.835800171
 8464.5000000 75.087303162 75.087303162
 8465.0000000 76.761703491 76.761703491
 8465.5000000 79.253898621 79.253898621
 8466.0000000 81.675399780 81.675399780
 8466.5000000 80.613998413 80.613998413
 8467.0000000 78.119300842 78.119300842
 8467.5000000 76.545501709 76.545501709
 8468.0000000 78.355102539 78.355102539
 8468.5000000 81.009803772 81.009803772
 8469.0000000 82.438003540 82.438003540
 8469.5000000 83.470497131 83.470497131
 8470.0000000 84.202400208 84.202400208
 8470.5000000 84.003799438 84.003799438
 8471.0000000 84.327400208 84.327400208
 8471.5000000 85.957397461 85.957397461
 8472.0000000 87.186401367 87.186401367
 8472.5000000 86.558799744 86.558799744
 8473.0000000 86.303298950 86.303298950
 8473.5000000 88.910797119 88.910797119
 8474.0000000 90.721702576 90.721702576
 8474.5000000 90.532997131 90.532997131
 8475.0000000 89.373298645 89.373298645
 8475.5000000 88.908096313 88.908096313
 8476.0000000 89.377296448 89.377296448
 8476.5000000 90.495002747 90.495002747
 8477.0000000 92.584800720 92.584800720
 8477.5000000 95.816001892 95.816001892
 8478.0000000 97.129600525 97.129600525
 8478.5000000 95.878898621 95.878898621
 8479.0000000 93.559700012 93.559700012
 8479.5000000 91.768600464 91.768600464
 8480.0000000 90.857200623 90.857200623
 8480.5000000 90.530502319 90.530502319
 8481.0000000 90.718399048 90.718399048
 8481.5000000 91.494796753 91.494796753
 8482.0000000 92.326797485 92.326797485
 8482.5000000 92.959701538 92.959701538
 8483.0000000 90.944297791 90.944297791
 8483.5000000 88.889900208 88.889900208
 8484.0000000 87.869102478 87.869102478
 8484.5000000 88.910797119 88.910797119
 8485.0000000 89.483802795 89.483802795
 8485.5000000 89.743797302 89.743797302
 8486.0000000 90.380996704 90.380996704
 8486.5000000 91.477699280 91.477699280
 8487.0000000 92.163002014 92.163002014
 8487.5000000 91.942100525 91.942100525
 8488.0000000 92.055496216 92.055496216
 8488.5000000 92.808998108 92.808998108
 8489.0000000 93.874099731 93.874099731
 8489.5000000 94.755996704 94.755996704
 8490.0000000 95.262496948 95.262496948
 8490.5000000 93.889900208 93.889900208
 8491.0000000 92.922897339 92.922897339
 8491.5000000 92.323501587 92.323501587
 8492.0000000 90.999397278 90.999397278
 8492.5000000 89.385101318 89.385101318
 8493.0000000 88.045997620 88.045997620
 8493.5000000 87.454696655 87.454696655
 8494.0000000 87.314598083 87.314598083
 8494.5000000 87.479202271 87.479202271
 8495.0000000 87.920196533 87.920196533
 8495.5000000 88.681503296 88.681503296
 8496.0000000 89.943397522 89.943397522
 8496.5000000 91.235198975 91.235198975
 8497.0000000 92.083503723 92.083503723
 8497.5000000 91.272003174 91.272003174
 8498.0000000 88.371002197 88.371002197
 8498.5000000 85.021896362 85.021896362
 8499.0000000 85.813201904 85.813201904
 8499.5000000 86.927398682 86.927398682
