# LAS format log file from PETREL
# Project units are specified as depth units
#==================================================================
~Version information
VERS.   2.0:
WRAP.   NO:
#==================================================================
~Well
STRT .ft      0.0000000000 :
STOP .ft      11414.000000 :
STEP .ft     0.50000000 :
NULL .        -999.250000 :
COMP.           : COMPANY
WELL.  AMOCO_A-4_294   : WELL
FLD.            : FIELD
LOC.            : LOCATION
SRVC.           : SERVICE COMPANY
DATE.  Wednesday, February 25 2009 13:07:23   : DATE
PROV.           : PROVINCE
UWI.   177014010000   : UNIQUE WELL ID
API.            : API NUMBER
#==================================================================
~Curve
DEPT .ft                   : DEPTH
GR_run2 .gAPI             : GR_run2
GR_run1 .gAPI             : GR_run1
~Parameter
#==================================================================
~Ascii
# ...
 11200.000000 81.040901184  -999.250000
 11200.500000 83.054603577  -999.250000
 11201.000000 86.498802185  -999.250000
 11201.500000 88.659400940  -999.250000
 11202.000000 89.775901794  -999.250000
 11202.500000 88.801498413  -999.250000
 11203.000000 86.405799866  -999.250000
 11203.500000 84.200996399  -999.250000
 11204.000000 83.171302795  -999.250000
 11204.500000 84.152000427  -999.250000
 11205.000000 85.088996887  -999.250000
 11205.500000 85.876602173  -999.250000
 11206.000000 86.520896912  -999.250000
 11206.500000 87.018096924  -999.250000
 11207.000000 86.944602966  -999.250000
 11207.500000 85.935302734  -999.250000
 11208.000000 84.828102112  -999.250000
 11208.500000 84.110397339  -999.250000
 11209.000000 84.309402466  -999.250000
 11209.500000 84.182601929  -999.250000
 11210.000000 83.691398621  -999.250000
 11210.500000 84.382301331  -999.250000
 11211.000000 86.028396606  -999.250000
 11211.500000 87.454101563  -999.250000
 11212.000000 87.410003662  -999.250000
 11212.500000 83.642501831  -999.250000
 11213.000000 80.506797791  -999.250000
 11213.500000 78.574096680  -999.250000
 11214.000000 77.013702393  -999.250000
 11214.500000 76.297096252  -999.250000
 11215.000000 77.773101807  -999.250000
 11215.500000 79.769500732  -999.250000
 11216.000000 81.315299988  -999.250000
 11216.500000 82.331901550  -999.250000
 11217.000000 82.843902588  -999.250000
 11217.500000 83.020301819  -999.250000
 11218.000000 82.788200378  -999.250000
 11218.500000 82.757896423  -999.250000
 11219.000000 83.015403748  -999.250000
 11219.500000 83.924201965  -999.250000
 11220.000000 85.015502930  -999.250000
 11220.500000 85.616897583  -999.250000
 11221.000000 85.620002747  -999.250000
 11221.500000 85.425796509  -999.250000
 11222.000000 85.288002014  -999.250000
 11222.500000 85.153900146  -999.250000
 11223.000000 84.041702271  -999.250000
 11223.500000 82.579299927  -999.250000
 11224.000000 80.845001221  -999.250000
 11224.500000 79.977798462  -999.250000
 11225.000000 81.815101624  -999.250000
 11225.500000 83.439102173  -999.250000
 11226.000000 83.327598572  -999.250000
 11226.500000 83.159301758  -999.250000
 11227.000000 83.084396362  -999.250000
 11227.500000 83.303199768  -999.250000
 11228.000000 84.177696228  -999.250000
 11228.500000 85.126998901  -999.250000
 11229.000000 86.248901367  -999.250000
 11229.500000 87.988197327  -999.250000
 11230.000000 90.805297852  -999.250000
 11230.500000 94.857101440  -999.250000
 11231.000000 97.382698059  -999.250000
 11231.500000 96.483596802  -999.250000
 11232.000000 92.862998962  -999.250000
 11232.500000 89.756797791  -999.250000
 11233.000000 87.806900024  -999.250000
 11233.500000 85.739402771  -999.250000
 11234.000000 83.598396301  -999.250000
 11234.500000 81.883499146  -999.250000
 11235.000000 81.399803162  -999.250000
 11235.500000 83.177001953  -999.250000
 11236.000000 84.695800781  -999.250000
 11236.500000 85.878997803  -999.250000
 11237.000000 85.705101013  -999.250000
 11237.500000 84.810897827  -999.250000
 11238.000000 84.106697083  -999.250000
 11238.500000 84.084602356  -999.250000
 11239.000000 84.815902710  -999.250000
 11239.500000 85.964698792  -999.250000
 11240.000000 87.282699585  -999.250000
 11240.500000 89.751998901  -999.250000
 11241.000000 92.378097534  -999.250000
 11241.500000 92.451499939  -999.250000
 11242.000000 91.788803101  -999.250000
 11242.500000 91.432403564  -999.250000
 11243.000000 92.013099670  -999.250000
 11243.500000 92.469200134  -999.250000
 11244.000000 92.534698486  -999.250000
 11244.500000 93.188796997  -999.250000
 11245.000000 93.987396240  -999.250000
 11245.500000 94.176597595  -999.250000
 11246.000000 94.178100586  -999.250000
 11246.500000 94.398902893  -999.250000
 11247.000000 94.731002808  -999.250000
 11247.500000 94.509300232  -999.250000
 11248.000000 93.786598206  -999.250000
 11248.500000 93.082901001  -999.250000
 11249.000000 93.279296875  -999.250000
 11249.500000 93.294898987  -999.250000
 11250.000000 93.022796631  -999.250000
 11250.500000 92.620498657  -999.250000
 11251.000000 92.295700073  -999.250000
 11251.500000 92.130897522  -999.250000
 11252.000000 91.998703003  -999.250000
 11252.500000 91.788200378  -999.250000
 11253.000000 91.370002747  -999.250000
 11253.500000 90.241897583  -999.250000
 11254.000000 88.958297729  -999.250000
 11254.500000 87.363502502  -999.250000
 11255.000000 88.267501831  -999.250000
 11255.500000 90.981697083  -999.250000
 11256.000000 92.698898315  -999.250000
 11256.500000 93.361000061  -999.250000
 11257.000000 93.771896362  -999.250000
 11257.500000 94.373298645  -999.250000
 11258.000000 95.055496216  -999.250000
 11258.500000 95.561996460  -999.250000
 11259.000000 93.833099365  -999.250000
 11259.500000 91.897796631  -999.250000
 11260.000000 91.358901978  -999.250000
 11260.500000 93.225601196  -999.250000
 11261.000000 95.115196228  -999.250000
 11261.500000 95.148597717  -999.250000
 11262.000000 94.031501770  -999.250000
 11262.500000 92.449096680  -999.250000
 11263.000000 90.006698608  -999.250000
 11263.500000 85.200401306  -999.250000
 11264.000000 81.497200012  -999.250000
 11264.500000 81.186599731  -999.250000
 11265.000000 80.281501770  -999.250000
 11265.500000 77.675003052  -999.250000
 11266.000000 73.020599365  -999.250000
 11266.500000 65.505096436  -999.250000
 11267.000000 57.499599457  -999.250000
 11267.500000 55.035198212  -999.250000
 11268.000000 55.094001770  -999.250000
 11268.500000 56.696098328  -999.250000
 11269.000000 59.023300171  -999.250000
 11269.500000 61.213298798  -999.250000
 11270.000000 63.609100342  -999.250000
 11270.500000 66.303703308  -999.250000
 11271.000000 68.768096924  -999.250000
 11271.500000 72.128997803  -999.250000
 11272.000000 75.421401978  -999.250000
 11272.500000 76.444099426  -999.250000
 11273.000000 74.950996399  -999.250000
 11273.500000 71.668502808  -999.250000
 11274.000000 69.466201782  -999.250000
 11274.500000 68.674896240  -999.250000
 11275.000000 71.688102722  -999.250000
 11275.500000 79.693603516  -999.250000
 11276.000000 85.411102295  -999.250000
 11276.500000 88.095901489  -999.250000
 11277.000000 88.107696533  -999.250000
 11277.500000 87.778099060  -999.250000
 11278.000000 87.455398560  -999.250000
 11278.500000 87.049896240  -999.250000
 11279.000000 86.398300171  -999.250000
 11279.500000 85.357299805  -999.250000
 11280.000000 83.838500977  -999.250000
 11280.500000 81.726799011  -999.250000
 11281.000000 79.855201721  -999.250000
 11281.500000 77.464401245  -999.250000
 11282.000000 74.397499084  -999.250000
 11282.500000 73.050003052  -999.250000
 11283.000000 72.767303467  -999.250000
 11283.500000 72.792800903  -999.250000
 11284.000000 73.596298218  -999.250000
 11284.500000 75.056396484  -999.250000
 11285.000000 75.932098389  -999.250000
 11285.500000 75.621002197  -999.250000
 11286.000000 74.924102783  -999.250000
 11286.500000 74.410499573  -999.250000
 11287.000000 74.440299988  -999.250000
 11287.500000 74.052001953  -999.250000
 11288.000000 73.285301208  -999.250000
 11288.500000 72.568702698  -999.250000
 11289.000000 72.141197205  -999.250000
 11289.500000 72.829597473  -999.250000
 11290.000000 73.853500366  -999.250000
 11290.500000 74.356903076  -999.250000
 11291.000000 73.868301392  -999.250000
 11291.500000 73.085601807  -999.250000
 11292.000000 72.903099060  -999.250000
 11292.500000 74.522300720  -999.250000
 11293.000000 75.916297913  -999.250000
 11293.500000 76.306900024  -999.250000
 11294.000000 75.706802368  -999.250000
 11294.500000 74.282203674  -999.250000
 11295.000000 73.143203735  -999.250000
 11295.500000 72.481796265  -999.250000
 11296.000000 73.054901123  -999.250000
 11296.500000 73.944198608  -999.250000
 11297.000000 74.350799561  -999.250000
 11297.500000 73.588996887  -999.250000
 11298.000000 73.748298645  -999.250000
 11298.500000 75.431198120  -999.250000
 11299.000000 77.038200378  -999.250000
 11299.500000 78.090301514  -999.250000
