# LAS format log file from PETREL
# Project units are specified as depth units
#==================================================================
~Version information
VERS.   2.0:
WRAP.   NO:
#==================================================================
~Well
STRT .ft      0.0000000000 :
STOP .ft      11414.000000 :
STEP .ft     0.50000000 :
NULL .        -999.250000 :
COMP.           : COMPANY
WELL.  AMOCO_A-4_294   : WELL
FLD.            : FIELD
LOC.            : LOCATION
SRVC.           : SERVICE COMPANY
DATE.  Wednesday, February 25 2009 13:07:23   : DATE
PROV.           : PROVINCE
UWI.   177014010000   : UNIQUE WELL ID
API.            : API NUMBER
#==================================================================
~Curve
DEPT .ft                   : DEPTH
GR_run2 .gAPI             : GR_run2
GR_run1 .gAPI             : GR_run1
~Parameter
#==================================================================
~Ascii
# ...
 2900.0000000  -999.250000 76.398399353
 2900.5000000  -999.250000 74.051803589
 2901.0000000  -999.250000 67.044601440
 2901.5000000  -999.250000 61.138500214
 2902.0000000  -999.250000 58.267601013
 2902.5000000  -999.250000 55.855899811
 2903.0000000  -999.250000 53.377899170
 2903.5000000  -999.250000 51.662700653
 2904.0000000  -999.250000 50.999599457
 2904.5000000  -999.250000 50.895900726
 2905.0000000  -999.250000 51.772201538
 2905.5000000  -999.250000 53.752101898
 2906.0000000  -999.250000 57.292701721
 2906.5000000  -999.250000 61.760601044
 2907.0000000  -999.250000 65.983200073
 2907.5000000  -999.250000 69.620101929
 2908.0000000  -999.250000 72.063697815
 2908.5000000  -999.250000 72.258300781
 2909.0000000  -999.250000 69.122100830
 2909.5000000  -999.250000 65.034500122
 2910.0000000  -999.250000 62.348201752
 2910.5000000  -999.250000 60.835700989
 2911.0000000  -999.250000 61.731800079
 2911.5000000  -999.250000 63.853099823
 2912.0000000  -999.250000 66.719100952
 2912.5000000  -999.250000 69.039398193
 2913.0000000  -999.250000 70.266601563
 2913.5000000  -999.250000 71.697601318
 2914.0000000  -999.250000 74.365997314
 2914.5000000  -999.250000 79.997802734
 2915.0000000  -999.250000 85.886199951
 2915.5000000  -999.250000 88.053199768
 2916.0000000  -999.250000 86.738502502
 2916.5000000  -999.250000 82.978897095
 2917.0000000  -999.250000 77.907699585
 2917.5000000  -999.250000 72.763900757
 2918.0000000  -999.250000 71.995498657
 2918.5000000  -999.250000 73.573097229
 2919.0000000  -999.250000 75.362800598
 2919.5000000  -999.250000 77.133697510
 2920.0000000  -999.250000 78.859497070
 2920.5000000  -999.250000 80.658599854
 2921.0000000  -999.250000 82.473297119
 2921.5000000  -999.250000 83.867599487
 2922.0000000  -999.250000 84.797996521
 2922.5000000  -999.250000 85.402801514
 2923.0000000  -999.250000 85.485801697
 2923.5000000  -999.250000 85.029899597
 2924.0000000  -999.250000 84.630699158
 2924.5000000  -999.250000 85.288002014
 2925.0000000  -999.250000 87.692100525
 2925.5000000  -999.250000 89.710899353
 2926.0000000  -999.250000 89.994598389
 2926.5000000  -999.250000 89.149497986
 2927.0000000  -999.250000 88.248497009
 2927.5000000  -999.250000 89.081398010
 2928.0000000  -999.250000 92.190200806
 2928.5000000  -999.250000 94.991096497
 2929.0000000  -999.250000 96.140602112
 2929.5000000  -999.250000 94.369003296
 2930.0000000  -999.250000 88.970001221
 2930.5000000  -999.250000 86.836196899
 2931.0000000  -999.250000 85.130996704
 2931.5000000  -999.250000 83.743698120
 2932.0000000  -999.250000 82.696403503
 2932.5000000  -999.250000 82.170303345
 2933.0000000  -999.250000 81.735603333
 2933.5000000  -999.250000 80.604698181
 2934.0000000  -999.250000 79.508399963
 2934.5000000  -999.250000 79.200897217
 2935.0000000  -999.250000 81.114700317
 2935.5000000  -999.250000 82.538497925
 2936.0000000  -999.250000 83.245201111
 2936.5000000  -999.250000 84.066497803
 2937.0000000  -999.250000 84.958900452
 2937.5000000  -999.250000 85.182899475
 2938.0000000  -999.250000 81.719802856
 2938.5000000  -999.250000 73.807701111
 2939.0000000  -999.250000 68.528800964
 2939.5000000  -999.250000 67.144699097
 2940.0000000  -999.250000 66.787696838
 2940.5000000  -999.250000 68.578903198
 2941.0000000  -999.250000 72.356002808
 2941.5000000  -999.250000 76.105598450
 2942.0000000  -999.250000 78.653099060
 2942.5000000  -999.250000 79.815101624
 2943.0000000  -999.250000 80.691802979
 2943.5000000  -999.250000 81.844497681
 2944.0000000  -999.250000 82.990196228
 2944.5000000  -999.250000 83.959503174
 2945.0000000  -999.250000 85.088996887
 2945.5000000  -999.250000 85.163002014
 2946.0000000  -999.250000 85.337600708
 2946.5000000  -999.250000 86.176597595
 2947.0000000  -999.250000 87.918701172
 2947.5000000  -999.250000 89.234001160
 2948.0000000  -999.250000 90.135299683
 2948.5000000  -999.250000 90.483001709
 2949.0000000  -999.250000 90.145500183
 2949.5000000  -999.250000 88.752799988
 2950.0000000  -999.250000 86.614601135
 2950.5000000  -999.250000 83.857498169
 2951.0000000  -999.250000 85.314300537
 2951.5000000  -999.250000 88.981201172
 2952.0000000  -999.250000 91.702003479
 2952.5000000  -999.250000 94.427902222
 2953.0000000  -999.250000 96.435302734
 2953.5000000  -999.250000 97.623001099
 2954.0000000  -999.250000 95.400299072
 2954.5000000  -999.250000 92.600700378
 2955.0000000  -999.250000 89.290397644
 2955.5000000  -999.250000 87.408096313
 2956.0000000  -999.250000 87.174896240
 2956.5000000  -999.250000 87.834800720
 2957.0000000  -999.250000 87.219100952
 2957.5000000  -999.250000 85.778602600
 2958.0000000  -999.250000 84.748901367
 2958.5000000  -999.250000 85.642799377
 2959.0000000  -999.250000 87.028800964
 2959.5000000  -999.250000 86.349197388
 2960.0000000  -999.250000 85.182502747
 2960.5000000  -999.250000 84.751098633
 2961.0000000  -999.250000 84.593299866
 2961.5000000  -999.250000 83.442001343
 2962.0000000  -999.250000 81.224197388
 2962.5000000  -999.250000 76.713699341
 2963.0000000  -999.250000 72.616302490
 2963.5000000  -999.250000 69.035598755
 2964.0000000  -999.250000 66.496299744
 2964.5000000  -999.250000 64.608398438
 2965.0000000  -999.250000 63.371299744
 2965.5000000  -999.250000 62.087200165
 2966.0000000  -999.250000 60.505901337
 2966.5000000  -999.250000 59.255699158
 2967.0000000  -999.250000 58.586898804
 2967.5000000  -999.250000 58.598098755
 2968.0000000  -999.250000 58.978900909
 2968.5000000  -999.250000 59.836700439
 2969.0000000  -999.250000 60.670501709
 2969.5000000  -999.250000 62.040298462
 2970.0000000  -999.250000 63.099700928
 2970.5000000  -999.250000 63.695999146
 2971.0000000  -999.250000 63.464500427
 2971.5000000  -999.250000 61.082298279
 2972.0000000  -999.250000 56.168800354
 2972.5000000  -999.250000 53.635700226
 2973.0000000  -999.250000 52.441699982
 2973.5000000  -999.250000 51.979198456
 2974.0000000  -999.250000 52.168399811
 2974.5000000  -999.250000 52.656700134
 2975.0000000  -999.250000 53.068298340
 2975.5000000  -999.250000 52.125099182
 2976.0000000  -999.250000 50.001201630
 2976.5000000  -999.250000 47.798599243
 2977.0000000  -999.250000 46.256698608
 2977.5000000  -999.250000 45.792499542
 2978.0000000  -999.250000 45.545299530
 2978.5000000  -999.250000 45.018299103
 2979.0000000  -999.250000 44.472999573
 2979.5000000  -999.250000 43.942001343
 2980.0000000  -999.250000 43.751899719
 2980.5000000  -999.250000 43.661598206
 2981.0000000  -999.250000 43.629699707
 2981.5000000  -999.250000 43.599201202
 2982.0000000  -999.250000 43.569198608
 2982.5000000  -999.250000 43.494098663
 2983.0000000  -999.250000 43.343898773
 2983.5000000  -999.250000 42.935298920
 2984.0000000  -999.250000 42.397598267
 2984.5000000  -999.250000 41.674198151
 2985.0000000  -999.250000 40.957698822
 2985.5000000  -999.250000 40.578601837
 2986.0000000  -999.250000 41.086601257
 2986.5000000  -999.250000 42.025299072
 2987.0000000  -999.250000 42.539001465
 2987.5000000  -999.250000 42.532501221
 2988.0000000  -999.250000 42.129299164
 2988.5000000  -999.250000 41.507099152
 2989.0000000  -999.250000 40.800998688
 2989.5000000  -999.250000 41.581901550
 2990.0000000  -999.250000 42.221500397
 2990.5000000  -999.250000 42.181999207
 2991.0000000  -999.250000 42.107700348
 2991.5000000  -999.250000 42.171699524
 2992.0000000  -999.250000 42.891399384
 2992.5000000  -999.250000 43.643501282
 2993.0000000  -999.250000 44.433799744
 2993.5000000  -999.250000 45.492599487
 2994.0000000  -999.250000 46.152801514
 2994.5000000  -999.250000 45.956199646
 2995.0000000  -999.250000 45.357799530
 2995.5000000  -999.250000 44.671600342
 2996.0000000  -999.250000 44.064899445
 2996.5000000  -999.250000 43.333698273
 2997.0000000  -999.250000 42.618198395
 2997.5000000  -999.250000 42.600299835
 2998.0000000  -999.250000 43.570899963
 2998.5000000  -999.250000 44.339401245
 2999.0000000  -999.250000 44.589199066
 2999.5000000  -999.250000 44.032100677
