# LAS format log file from PETREL
# Project units are specified as depth units
#==================================================================
~Version information
VERS.   2.0:
WRAP.   NO:
#==================================================================
~Well
STRT .ft      100.00000000 :
STOP .ft      12173.000000 :
STEP .ft     0.50000000 :
NULL .        -999.250000 :
COMP.           : COMPANY
WELL.  AMOCO_4_293   : WELL
FLD.            : FIELD
LOC.            : LOCATION
SRVC.           : SERVICE COMPANY
DATE.  Wednesday, February 25 2009 13:05:38   : DATE
PROV.           : PROVINCE
UWI.   177014024400   : UNIQUE WELL ID
API.            : API NUMBER
#==================================================================
~Curve
DEPT .ft                   : DEPTH
GR_run2 .gAPI             : GR_run2
GR_run1 .gAPI             : GR_run1
~Parameter
#==================================================================
~Ascii
# ...
 9400.0000000 89.351799011  -999.250000
 9400.5000000 87.293899536  -999.250000
 9401.0000000 86.042999268  -999.250000
 9401.5000000 85.836097717  -999.250000
 9402.0000000 88.542396545  -999.250000
 9402.5000000 93.073402405  -999.250000
 9403.0000000 93.783599854  -999.250000
 9403.5000000 93.906303406  -999.250000
 9404.0000000 94.412399292  -999.250000
 9404.5000000 95.169898987  -999.250000
 9405.0000000 93.483299255  -999.250000
 9405.5000000 89.299301147  -999.250000
 9406.0000000 87.459602356  -999.250000
 9406.5000000 88.831398010  -999.250000
 9407.0000000 91.107398987  -999.250000
 9407.5000000 92.040397644  -999.250000
 9408.0000000 91.890602112  -999.250000
 9408.5000000 87.937896729  -999.250000
 9409.0000000 85.039100647  -999.250000
 9409.5000000 84.830101013  -999.250000
 9410.0000000 86.818199158  -999.250000
 9410.5000000 90.003700256  -999.250000
 9411.0000000 92.495101929  -999.250000
 9411.5000000 94.815803528  -999.250000
 9412.0000000 95.755996704  -999.250000
 9412.5000000 95.152198792  -999.250000
 9413.0000000 94.217903137  -999.250000
 9413.5000000 93.420898438  -999.250000
 9414.0000000 92.920898438  -999.250000
 9414.5000000 92.460296631  -999.250000
 9415.0000000 92.086402893  -999.250000
 9415.5000000 92.179100037  -999.250000
 9416.0000000 95.727798462  -999.250000
 9416.5000000 100.54789734  -999.250000
 9417.0000000 101.09179688  -999.250000
 9417.5000000 98.350700378  -999.250000
 9418.0000000 92.531898499  -999.250000
 9418.5000000 90.906402588  -999.250000
 9419.0000000 94.455703735  -999.250000
 9419.5000000 97.162696838  -999.250000
 9420.0000000 99.526702881  -999.250000
 9420.5000000 96.962997437  -999.250000
 9421.0000000 91.123199463  -999.250000
 9421.5000000 88.518699646  -999.250000
 9422.0000000 88.773696899  -999.250000
 9422.5000000 90.820899963  -999.250000
 9423.0000000 92.119300842  -999.250000
 9423.5000000 93.045700073  -999.250000
 9424.0000000 93.482398987  -999.250000
 9424.5000000 93.541496277  -999.250000
 9425.0000000 93.090301514  -999.250000
 9425.5000000 91.527999878  -999.250000
 9426.0000000 87.112701416  -999.250000
 9426.5000000 81.945701599  -999.250000
 9427.0000000 79.241302490  -999.250000
 9427.5000000 78.527099609  -999.250000
 9428.0000000 79.890502930  -999.250000
 9428.5000000 84.316299438  -999.250000
 9429.0000000 86.898399353  -999.250000
 9429.5000000 87.634902954  -999.250000
 9430.0000000 87.493797302  -999.250000
 9430.5000000 88.066703796  -999.250000
 9431.0000000 90.839401245  -999.250000
 9431.5000000 93.788200378  -999.250000
 9432.0000000 94.828201294  -999.250000
 9432.5000000 92.886703491  -999.250000
 9433.0000000 91.470100403  -999.250000
 9433.5000000 90.903800964  -999.250000
 9434.0000000 90.735603333  -999.250000
 9434.5000000 90.940597534  -999.250000
 9435.0000000 91.155799866  -999.250000
 9435.5000000 91.336502075  -999.250000
 9436.0000000 91.174400330  -999.250000
 9436.5000000 89.777603149  -999.250000
 9437.0000000 87.123199463  -999.250000
 9437.5000000 82.739402771  -999.250000
 9438.0000000 79.428100586  -999.250000
 9438.5000000 80.169097900  -999.250000
 9439.0000000 83.159896851  -999.250000
 9439.5000000 86.576499939  -999.250000
 9440.0000000 90.219100952  -999.250000
 9440.5000000 91.412399292  -999.250000
 9441.0000000 89.924797058  -999.250000
 9441.5000000 88.384597778  -999.250000
 9442.0000000 87.284797668  -999.250000
 9442.5000000 86.893798828  -999.250000
 9443.0000000 87.288101196  -999.250000
 9443.5000000 87.684898376  -999.250000
 9444.0000000 88.028198242  -999.250000
 9444.5000000 87.970100403  -999.250000
 9445.0000000 88.236198425  -999.250000
 9445.5000000 89.843299866  -999.250000
 9446.0000000 91.895896912  -999.250000
 9446.5000000 93.451797485  -999.250000
 9447.0000000 94.047500610  -999.250000
 9447.5000000 94.010597229  -999.250000
 9448.0000000 93.882797241  -999.250000
 9448.5000000 94.119300842  -999.250000
 9449.0000000 95.148200989  -999.250000
 9449.5000000 95.927497864  -999.250000
 9450.0000000 96.476799011  -999.250000
 9450.5000000 95.217903137  -999.250000
 9451.0000000 94.375503540  -999.250000
 9451.5000000 94.512603760  -999.250000
 9452.0000000 94.439903259  -999.250000
 9452.5000000 93.330802917  -999.250000
 9453.0000000 91.065399170  -999.250000
 9453.5000000 88.487197876  -999.250000
 9454.0000000 86.739501953  -999.250000
 9454.5000000 86.434600830  -999.250000
 9455.0000000 89.903701782  -999.250000
 9455.5000000 92.926101685  -999.250000
 9456.0000000 94.711898804  -999.250000
 9456.5000000 92.726402283  -999.250000
 9457.0000000 90.319000244  -999.250000
 9457.5000000 89.866302490  -999.250000
 9458.0000000 89.409698486  -999.250000
 9458.5000000 87.401702881  -999.250000
 9459.0000000 84.805198669  -999.250000
 9459.5000000 82.066497803  -999.250000
 9460.0000000 79.467300415  -999.250000
 9460.5000000 78.213699341  -999.250000
 9461.0000000 77.660499573  -999.250000
 9461.5000000 76.263496399  -999.250000
 9462.0000000 75.153198242  -999.250000
 9462.5000000 75.238601685  -999.250000
 9463.0000000 78.471199036  -999.250000
 9463.5000000 81.451499939  -999.250000
 9464.0000000 83.859001160  -999.250000
 9464.5000000 85.257202148  -999.250000
 9465.0000000 88.216400146  -999.250000
 9465.5000000 89.349197388  -999.250000
 9466.0000000 88.526603699  -999.250000
 9466.5000000 84.910301208  -999.250000
 9467.0000000 82.190101624  -999.250000
 9467.5000000 81.351699829  -999.250000
 9468.0000000 84.116600037  -999.250000
 9468.5000000 86.200698853  -999.250000
 9469.0000000 87.085197449  -999.250000
 9469.5000000 85.357101440  -999.250000
 9470.0000000 83.333396912  -999.250000
 9470.5000000 82.885101318  -999.250000
 9471.0000000 84.069198608  -999.250000
 9471.5000000 87.023300171  -999.250000
 9472.0000000 88.831398010  -999.250000
 9472.5000000 88.985801697  -999.250000
 9473.0000000 88.129798889  -999.250000
 9473.5000000 86.355697632  -999.250000
 9474.0000000 85.352996826  -999.250000
 9474.5000000 85.060096741  -999.250000
 9475.0000000 85.453002930  -999.250000
 9475.5000000 86.784202576  -999.250000
 9476.0000000 87.904998779  -999.250000
 9476.5000000 88.862998962  -999.250000
 9477.0000000 89.706703186  -999.250000
 9477.5000000 90.391197205  -999.250000
 9478.0000000 91.161399841  -999.250000
 9478.5000000 90.422897339  -999.250000
 9479.0000000 89.207298279  -999.250000
 9479.5000000 88.016700745  -999.250000
 9480.0000000 89.809303284  -999.250000
 9480.5000000 89.288803101  -999.250000
 9481.0000000 88.703399658  -999.250000
 9481.5000000 90.360397339  -999.250000
 9482.0000000 90.080200195  -999.250000
 9482.5000000 89.960098267  -999.250000
 9483.0000000 90.044097900  -999.250000
 9483.5000000 90.406402588  -999.250000
 9484.0000000 90.868896484  -999.250000
 9484.5000000 90.445198059  -999.250000
 9485.0000000 86.387298584  -999.250000
 9485.5000000 83.974601746  -999.250000
 9486.0000000 86.392601013  -999.250000
 9486.5000000 89.186302185  -999.250000
 9487.0000000 90.870796204  -999.250000
 9487.5000000 91.709396362  -999.250000
 9488.0000000 91.441200256  -999.250000
 9488.5000000 89.509498596  -999.250000
 9489.0000000 86.245399475  -999.250000
 9489.5000000 83.133697510  -999.250000
 9490.0000000 82.557998657  -999.250000
 9490.5000000 85.380699158  -999.250000
 9491.0000000 86.409698486  -999.250000
 9491.5000000 86.053497314  -999.250000
 9492.0000000 83.485801697  -999.250000
 9492.5000000 81.130996704  -999.250000
 9493.0000000 80.291297913  -999.250000
 9493.5000000 81.596199036  -999.250000
 9494.0000000 84.310997009  -999.250000
 9494.5000000 88.426803589  -999.250000
 9495.0000000 93.378196716  -999.250000
 9495.5000000 93.477996826  -999.250000
 9496.0000000 92.834800720  -999.250000
 9496.5000000 93.187599182  -999.250000
 9497.0000000 94.149497986  -999.250000
 9497.5000000 93.643699646  -999.250000
 9498.0000000 90.794700623  -999.250000
 9498.5000000 89.685699463  -999.250000
 9499.0000000 88.955001831  -999.250000
 9499.5000000 89.873497009  -999.250000
