# LAS format log file from PETREL
# Project units are specified as depth units
#==================================================================
~Version information
VERS.   2.0:
WRAP.   NO:
#==================================================================
~Well
STRT .ft      100.00000000 :
STOP .ft      12173.000000 :
STEP .ft     0.50000000 :
NULL .        -999.250000 :
COMP.           : COMPANY
WELL.  AMOCO_4_293   : WELL
FLD.            : FIELD
LOC.            : LOCATION
SRVC.           : SERVICE COMPANY
DATE.  Wednesday, February 25 2009 13:05:38   : DATE
PROV.           : PROVINCE
UWI.   177014024400   : UNIQUE WELL ID
API.            : API NUMBER
#==================================================================
~Curve
DEPT .ft                   : DEPTH
GR_run2 .gAPI             : GR_run2
GR_run1 .gAPI             : GR_run1
~Parameter
#==================================================================
~Ascii
# ...
 8900.0000000 60.688499451 60.688499451
 8900.5000000 60.014301300 60.014301300
 8901.0000000 61.161499023 61.161499023
 8901.5000000 66.871696472 66.871696472
 8902.0000000 70.230003357 70.230003357
 8902.5000000 69.811996460 69.811996460
 8903.0000000 68.778800964 68.778800964
 8903.5000000 70.524803162 70.524803162
 8904.0000000 76.782699585 76.782699585
 8904.5000000 80.253700256 80.253700256
 8905.0000000 80.660499573 80.660499573
 8905.5000000 79.901199341 79.901199341
 8906.0000000 79.078399658 79.078399658
 8906.5000000 79.074501038 79.074501038
 8907.0000000 78.998397827 78.998397827
 8907.5000000 78.386596680 78.386596680
 8908.0000000 77.445800781 77.445800781
 8908.5000000 75.904800415 75.904800415
 8909.0000000 73.852897644 73.852897644
 8909.5000000 71.544197083 71.544197083
 8910.0000000 71.882202148 71.882202148
 8910.5000000 75.247100830 75.247100830
 8911.0000000 77.935798645 77.935798645
 8911.5000000 79.665397644 79.665397644
 8912.0000000 78.580398560 78.580398560
 8912.5000000 76.007102966 76.007102966
 8913.0000000 74.357398987 74.357398987
 8913.5000000 76.046401978 76.046401978
 8914.0000000 77.592498779 77.592498779
 8914.5000000 78.141700745 78.141700745
 8915.0000000 78.213600159 78.213600159
 8915.5000000 79.218597412 79.218597412
 8916.0000000 79.719100952 79.719100952
 8916.5000000 79.143898010 79.143898010
 8917.0000000 78.098602295 78.098602295
 8917.5000000 77.798797607 77.798797607
 8918.0000000 78.167701721 78.167701721
 8918.5000000 78.265403748 78.265403748
 8919.0000000 77.858497620 77.858497620
 8919.5000000 77.037002563 77.037002563
 8920.0000000 76.039802551 76.039802551
 8920.5000000 76.083000183 76.083000183
 8921.0000000 77.325202942 77.325202942
 8921.5000000 78.334098816 78.334098816
 8922.0000000 78.252899170 78.252899170
 8922.5000000 78.074302673 78.074302673
 8923.0000000 78.242996216 78.242996216
 8923.5000000 77.217796326 77.217796326
 8924.0000000 75.368896484 75.368896484
 8924.5000000 75.298202515 75.298202515
 8925.0000000 76.879798889 76.879798889
 8925.5000000 79.377098083 79.377098083
 8926.0000000 81.177497864 81.177497864
 8926.5000000 80.994003296 80.994003296
 8927.0000000 79.568496704 79.568496704
 8927.5000000 78.024902344 78.024902344
 8928.0000000 77.621299744 77.621299744
 8928.5000000 79.416397095 79.416397095
 8929.0000000 80.374298096 80.374298096
 8929.5000000 80.869499207 80.869499207
 8930.0000000 82.325302124 82.325302124
 8930.5000000 86.982101440 86.982101440
 8931.0000000 89.877799988 89.877799988
 8931.5000000 89.209602356 89.209602356
 8932.0000000 86.727897644 86.727897644
 8932.5000000 86.142196655 86.142196655
 8933.0000000 87.962196350 87.962196350
 8933.5000000 89.555397034 89.555397034
 8934.0000000 87.364601135 87.364601135
 8934.5000000 81.090896606 81.090896606
 8935.0000000 80.372901917 80.372901917
 8935.5000000 80.795799255 80.795799255
 8936.0000000 80.742401123 80.742401123
 8936.5000000 79.791099548 79.791099548
 8937.0000000 78.823501587 78.823501587
 8937.5000000 78.637199402 78.637199402
 8938.0000000 80.813201904 80.813201904
 8938.5000000 83.155998230 83.155998230
 8939.0000000 85.008796692 85.008796692
 8939.5000000 87.210098267 87.210098267
 8940.0000000 90.221099854 90.221099854
 8940.5000000 91.289299011 91.289299011
 8941.0000000 90.707199097 90.707199097
 8941.5000000 84.791297913 84.791297913
 8942.0000000 78.239700317 78.239700317
 8942.5000000 74.403198242 74.403198242
 8943.0000000 72.338302612 72.338302612
 8943.5000000 74.272201538 74.272201538
 8944.0000000 77.982902527 77.982902527
 8944.5000000 80.168601990 80.168601990
 8945.0000000 80.379501343 80.379501343
 8945.5000000 78.273803711 78.273803711
 8946.0000000 76.650398254 76.650398254
 8946.5000000 75.961196899 75.961196899
 8947.0000000 76.445999146 76.445999146
 8947.5000000 77.757598877 77.757598877
 8948.0000000 79.937896729 79.937896729
 8948.5000000 83.748298645 83.748298645
 8949.0000000 86.400299072 86.400299072
 8949.5000000 87.194702148 87.194702148
 8950.0000000 86.674102783 86.674102783
 8950.5000000 84.843597412 84.843597412
 8951.0000000 82.401199341 82.401199341
 8951.5000000 79.508201599 79.508201599
 8952.0000000 76.636001587 76.636001587
 8952.5000000 73.915802002 73.915802002
 8953.0000000 72.147003174 72.147003174
 8953.5000000 70.900100708 70.900100708
 8954.0000000 70.526100159 70.526100159
 8954.5000000 70.669601440 70.669601440
 8955.0000000 72.236099243 72.236099243
 8955.5000000 74.445198059 74.445198059
 8956.0000000 75.342002869 75.342002869
 8956.5000000 73.019500732 73.019500732
 8957.0000000 71.029296875 71.029296875
 8957.5000000 72.846702576 72.846702576
 8958.0000000 76.520599365 76.520599365
 8958.5000000 79.377098083 79.377098083
 8959.0000000 79.677101135 79.677101135
 8959.5000000 78.433700562 78.433700562
 8960.0000000 76.515403748 76.515403748
 8960.5000000 75.615501404 75.615501404
 8961.0000000 78.617202759 78.617202759
 8961.5000000 81.028099060 81.028099060
 8962.0000000 81.918899536 81.918899536
 8962.5000000 81.224601746 81.224601746
 8963.0000000 79.988998413 79.988998413
 8963.5000000 79.699798584 79.699798584
 8964.0000000 79.888397217 79.888397217
 8964.5000000 79.777702332 79.777702332
 8965.0000000 78.535896301 78.535896301
 8965.5000000 77.259597778 77.259597778
 8966.0000000 76.616302490 76.616302490
 8966.5000000 75.965103149 75.965103149
 8967.0000000 75.704696655 75.704696655
 8967.5000000 76.249496460 76.249496460
 8968.0000000 76.831199646 76.831199646
 8968.5000000 76.798500061 76.798500061
 8969.0000000 75.459396362 75.459396362
 8969.5000000 73.341903687 73.341903687
 8970.0000000 70.053100586 70.053100586
 8970.5000000 68.637901306 68.637901306
 8971.0000000 68.915802002 68.915802002
 8971.5000000 70.723999023 70.723999023
 8972.0000000 72.242599487 72.242599487
 8972.5000000 73.143997192 73.143997192
 8973.0000000 73.877799988 73.877799988
 8973.5000000 74.893302917 74.893302917
 8974.0000000 74.958900452 74.958900452
 8974.5000000 74.846801758 74.846801758
 8975.0000000 75.689903259 75.689903259
 8975.5000000 77.262298584 77.262298584
 8976.0000000 78.432403564 78.432403564
 8976.5000000 78.246299744 78.246299744
 8977.0000000 77.516799927 77.516799927
 8977.5000000 77.602302551 77.602302551
 8978.0000000 78.543800354 78.543800354
 8978.5000000 80.018600464 80.018600464
 8979.0000000 79.755699158 79.755699158
 8979.5000000 78.875198364 78.875198364
 8980.0000000 77.249099731 77.249099731
 8980.5000000 74.550003052 74.550003052
 8981.0000000 71.827301025 71.827301025
 8981.5000000 70.648300171 70.648300171
 8982.0000000 70.778900146 70.778900146
 8982.5000000 72.186302185 72.186302185
 8983.0000000 74.557899475 74.557899475
 8983.5000000 76.172096252 76.172096252
 8984.0000000 79.817398071 79.817398071
 8984.5000000 83.083999634 83.083999634
 8985.0000000 83.213600159 83.213600159
 8985.5000000 79.523902893 79.523902893
 8986.0000000 75.451499939 75.451499939
 8986.5000000 72.896400452 72.896400452
 8987.0000000 71.860000610 71.860000610
 8987.5000000 72.272102356 72.272102356
 8988.0000000 73.984001160 73.984001160
 8988.5000000 75.839401245 75.839401245
 8989.0000000 77.372299194 77.372299194
 8989.5000000 78.368202209 78.368202209
 8990.0000000 76.237701416 76.237701416
 8990.5000000 74.442497253 74.442497253
 8991.0000000 73.372100830 73.372100830
 8991.5000000 75.545799255 75.545799255
 8992.0000000 78.480796814 78.480796814
 8992.5000000 80.403099060 80.403099060
 8993.0000000 81.444099426 81.444099426
 8993.5000000 81.828598022 81.828598022
 8994.0000000 81.022796631 81.022796631
 8994.5000000 79.468101501 79.468101501
 8995.0000000 79.119003296 79.119003296
 8995.5000000 80.635002136 80.635002136
 8996.0000000 82.166000366 82.166000366
 8996.5000000 80.472503662 80.472503662
 8997.0000000 76.017601013 76.017601013
 8997.5000000 71.913696289 71.913696289
 8998.0000000 69.072998047 69.072998047
 8998.5000000 67.657798767 67.657798767
 8999.0000000 68.176803589 68.176803589
 8999.5000000 69.156898499 69.156898499
