# LAS format log file from PETREL
# Project units are specified as depth units
#==================================================================
~Version information
VERS.   2.0:
WRAP.   NO:
#==================================================================
~Well
STRT .ft      100.00000000 :
STOP .ft      12173.000000 :
STEP .ft     0.50000000 :
NULL .        -999.250000 :
COMP.           : COMPANY
WELL.  AMOCO_4_293   : WELL
FLD.            : FIELD
LOC.            : LOCATION
SRVC.           : SERVICE COMPANY
DATE.  Wednesday, February 25 2009 13:05:38   : DATE
PROV.           : PROVINCE
UWI.   177014024400   : UNIQUE WELL ID
API.            : API NUMBER
#==================================================================
~Curve
DEPT .ft                   : DEPTH
GR_run2 .gAPI             : GR_run2
GR_run1 .gAPI             : GR_run1
~Parameter
#==================================================================
~Ascii
# ...
 4400.0000000  -999.250000 46.545600891
 4400.5000000  -999.250000 46.512500763
 4401.0000000  -999.250000 46.101898193
 4401.5000000  -999.250000 43.921298981
 4402.0000000  -999.250000 41.116199493
 4402.5000000  -999.250000 41.272201538
 4403.0000000  -999.250000 44.809700012
 4403.5000000  -999.250000 48.790000916
 4404.0000000  -999.250000 49.701698303
 4404.5000000  -999.250000 48.791301727
 4405.0000000  -999.250000 46.284900665
 4405.5000000  -999.250000 41.851200104
 4406.0000000  -999.250000 40.164798737
 4406.5000000  -999.250000 40.259601593
 4407.0000000  -999.250000 42.557098389
 4407.5000000  -999.250000 46.982898712
 4408.0000000  -999.250000 50.179901123
 4408.5000000  -999.250000 50.904701233
 4409.0000000  -999.250000 50.967201233
 4409.5000000  -999.250000 50.756999969
 4410.0000000  -999.250000 50.064300537
 4410.5000000  -999.250000 49.402000427
 4411.0000000  -999.250000 48.688499451
 4411.5000000  -999.250000 48.218200684
 4412.0000000  -999.250000 47.953399658
 4412.5000000  -999.250000 47.865798950
 4413.0000000  -999.250000 47.895801544
 4413.5000000  -999.250000 48.024600983
 4414.0000000  -999.250000 48.101299286
 4414.5000000  -999.250000 47.158699036
 4415.0000000  -999.250000 46.350299835
 4415.5000000  -999.250000 46.101299286
 4416.0000000  -999.250000 46.514999390
 4416.5000000  -999.250000 47.338100433
 4417.0000000  -999.250000 47.108299255
 4417.5000000  -999.250000 46.912799835
 4418.0000000  -999.250000 47.016601563
 4418.5000000  -999.250000 48.193801880
 4419.0000000  -999.250000 48.733100891
 4419.5000000  -999.250000 46.705898285
 4420.0000000  -999.250000 46.012298584
 4420.5000000  -999.250000 45.835399628
 4421.0000000  -999.250000 46.611499786
 4421.5000000  -999.250000 47.754600525
 4422.0000000  -999.250000 47.902900696
 4422.5000000  -999.250000 47.739700317
 4423.0000000  -999.250000 47.467700958
 4423.5000000  -999.250000 47.733798981
 4424.0000000  -999.250000 49.366298676
 4424.5000000  -999.250000 51.880599976
 4425.0000000  -999.250000 54.011501312
 4425.5000000  -999.250000 55.474201202
 4426.0000000  -999.250000 56.211498260
 4426.5000000  -999.250000 56.353599548
 4427.0000000  -999.250000 54.885299683
 4427.5000000  -999.250000 50.754299164
 4428.0000000  -999.250000 48.856700897
 4428.5000000  -999.250000 48.522899628
 4429.0000000  -999.250000 49.326000214
 4429.5000000  -999.250000 50.347198486
 4430.0000000  -999.250000 51.312198639
 4430.5000000  -999.250000 52.741100311
 4431.0000000  -999.250000 55.308300018
 4431.5000000  -999.250000 58.271999359
 4432.0000000  -999.250000 61.558300018
 4432.5000000  -999.250000 63.961498260
 4433.0000000  -999.250000 64.256301880
 4433.5000000  -999.250000 60.625099182
 4434.0000000  -999.250000 54.057800293
 4434.5000000  -999.250000 50.899700165
 4435.0000000  -999.250000 49.658401489
 4435.5000000  -999.250000 49.313400269
 4436.0000000  -999.250000 49.721900940
 4436.5000000  -999.250000 51.807899475
 4437.0000000  -999.250000 54.586498260
 4437.5000000  -999.250000 55.539299011
 4438.0000000  -999.250000 54.731300354
 4438.5000000  -999.250000 53.687000275
 4439.0000000  -999.250000 52.996299744
 4439.5000000  -999.250000 52.854999542
 4440.0000000  -999.250000 53.008998871
 4440.5000000  -999.250000 53.528999329
 4441.0000000  -999.250000 55.184101105
 4441.5000000  -999.250000 56.586601257
 4442.0000000  -999.250000 56.949501038
 4442.5000000  -999.250000 56.871200562
 4443.0000000  -999.250000 56.347000122
 4443.5000000  -999.250000 55.662601471
 4444.0000000  -999.250000 54.640701294
 4444.5000000  -999.250000 53.543598175
 4445.0000000  -999.250000 54.784900665
 4445.5000000  -999.250000 58.158401489
 4446.0000000  -999.250000 59.752601624
 4446.5000000  -999.250000 59.282001495
 4447.0000000  -999.250000 55.554199219
 4447.5000000  -999.250000 53.720699310
 4448.0000000  -999.250000 52.137001038
 4448.5000000  -999.250000 50.464801788
 4449.0000000  -999.250000 48.074798584
 4449.5000000  -999.250000 44.947101593
 4450.0000000  -999.250000 41.106998444
 4450.5000000  -999.250000 42.550498962
 4451.0000000  -999.250000 44.177799225
 4451.5000000  -999.250000 44.589599609
 4452.0000000  -999.250000 43.862899780
 4452.5000000  -999.250000 44.541301727
 4453.0000000  -999.250000 45.604099274
 4453.5000000  -999.250000 45.334499359
 4454.0000000  -999.250000 44.644298553
 4454.5000000  -999.250000 45.089900970
 4455.0000000  -999.250000 45.477199554
 4455.5000000  -999.250000 44.459400177
 4456.0000000  -999.250000 43.015201569
 4456.5000000  -999.250000 42.610000610
 4457.0000000  -999.250000 45.413799286
 4457.5000000  -999.250000 47.444301605
 4458.0000000  -999.250000 48.203201294
 4458.5000000  -999.250000 46.837501526
 4459.0000000  -999.250000 43.807701111
 4459.5000000  -999.250000 41.485000610
 4460.0000000  -999.250000 41.071998596
 4460.5000000  -999.250000 41.398799896
 4461.0000000  -999.250000 41.887599945
 4461.5000000  -999.250000 42.258201599
 4462.0000000  -999.250000 42.301898956
 4462.5000000  -999.250000 42.218799591
 4463.0000000  -999.250000 42.851898193
 4463.5000000  -999.250000 45.099201202
 4464.0000000  -999.250000 45.344398499
 4464.5000000  -999.250000 43.877700806
 4465.0000000  -999.250000 42.437500000
 4465.5000000  -999.250000 41.861099243
 4466.0000000  -999.250000 39.931800842
 4466.5000000  -999.250000 37.831298828
 4467.0000000  -999.250000 37.078601837
 4467.5000000  -999.250000 36.900100708
 4468.0000000  -999.250000 37.054599762
 4468.5000000  -999.250000 37.205001831
 4469.0000000  -999.250000 37.281398773
 4469.5000000  -999.250000 37.341899872
 4470.0000000  -999.250000 37.574600220
 4470.5000000  -999.250000 37.977699280
 4471.0000000  -999.250000 38.566299438
 4471.5000000  -999.250000 38.875198364
 4472.0000000  -999.250000 39.007099152
 4472.5000000  -999.250000 39.130001068
 4473.0000000  -999.250000 39.267700195
 4473.5000000  -999.250000 39.476699829
 4474.0000000  -999.250000 39.838298798
 4474.5000000  -999.250000 40.267898560
 4475.0000000  -999.250000 40.652198792
 4475.5000000  -999.250000 40.852500916
 4476.0000000  -999.250000 40.843299866
 4476.5000000  -999.250000 40.619201660
 4477.0000000  -999.250000 39.761299133
 4477.5000000  -999.250000 38.727500916
 4478.0000000  -999.250000 37.957199097
 4478.5000000  -999.250000 37.432701111
 4479.0000000  -999.250000 36.050701141
 4479.5000000  -999.250000 32.700901031
 4480.0000000  -999.250000 30.930900574
 4480.5000000  -999.250000 31.579999924
 4481.0000000  -999.250000 34.075698853
 4481.5000000  -999.250000 37.031501770
 4482.0000000  -999.250000 39.100299835
 4482.5000000  -999.250000 40.035999298
 4483.0000000  -999.250000 39.940200806
 4483.5000000  -999.250000 39.867698669
 4484.0000000  -999.250000 40.215301514
 4484.5000000  -999.250000 41.191600800
 4485.0000000  -999.250000 41.817199707
 4485.5000000  -999.250000 42.196201324
 4486.0000000  -999.250000 42.963001251
 4486.5000000  -999.250000 46.210899353
 4487.0000000  -999.250000 50.565299988
 4487.5000000  -999.250000 51.706100464
 4488.0000000  -999.250000 51.551498413
 4488.5000000  -999.250000 49.061000824
 4489.0000000  -999.250000 47.317298889
 4489.5000000  -999.250000 47.793201447
 4490.0000000  -999.250000 49.748401642
 4490.5000000  -999.250000 50.833599091
 4491.0000000  -999.250000 50.763900757
 4491.5000000  -999.250000 49.224899292
 4492.0000000  -999.250000 47.408599854
 4492.5000000  -999.250000 46.413600922
 4493.0000000  -999.250000 46.306198120
 4493.5000000  -999.250000 46.047298431
 4494.0000000  -999.250000 44.958400726
 4494.5000000  -999.250000 43.534000397
 4495.0000000  -999.250000 42.099700928
 4495.5000000  -999.250000 43.072700500
 4496.0000000  -999.250000 47.992900848
 4496.5000000  -999.250000 56.421398163
 4497.0000000  -999.250000 64.849899292
 4497.5000000  -999.250000 73.278396606
 4498.0000000  -999.250000 77.589103699
 4498.5000000  -999.250000 74.489303589
 4499.0000000  -999.250000 68.752197266
 4499.5000000  -999.250000 66.623199463
