# LAS format log file from PETREL
# Project units are specified as depth units
#==================================================================
~Version information
VERS.   2.0:
WRAP.   NO:
#==================================================================
~Well
STRT .ft      100.00000000 :
STOP .ft      12173.000000 :
STEP .ft     0.50000000 :
NULL .        -999.250000 :
COMP.           : COMPANY
WELL.  AMOCO_4_293   : WELL
FLD.            : FIELD
LOC.            : LOCATION
SRVC.           : SERVICE COMPANY
DATE.  Wednesday, February 25 2009 13:05:38   : DATE
PROV.           : PROVINCE
UWI.   177014024400   : UNIQUE WELL ID
API.            : API NUMBER
#==================================================================
~Curve
DEPT .ft                   : DEPTH
GR_run2 .gAPI             : GR_run2
GR_run1 .gAPI             : GR_run1
~Parameter
#==================================================================
~Ascii
# ...
 7400.0000000  -999.250000 89.325401306
 7400.5000000  -999.250000 90.693099976
 7401.0000000  -999.250000 89.842796326
 7401.5000000  -999.250000 88.170898438
 7402.0000000  -999.250000 87.635299683
 7402.5000000  -999.250000 87.593399048
 7403.0000000  -999.250000 88.065696716
 7403.5000000  -999.250000 89.403099060
 7404.0000000  -999.250000 91.659301758
 7404.5000000  -999.250000 93.131599426
 7405.0000000  -999.250000 93.533401489
 7405.5000000  -999.250000 93.769699097
 7406.0000000  -999.250000 94.390701294
 7406.5000000  -999.250000 95.551803589
 7407.0000000  -999.250000 95.508903503
 7407.5000000  -999.250000 95.131103516
 7408.0000000  -999.250000 96.106002808
 7408.5000000  -999.250000 99.375701904
 7409.0000000  -999.250000 103.97499847
 7409.5000000  -999.250000 105.17420197
 7410.0000000  -999.250000 103.00099945
 7410.5000000  -999.250000 99.944297791
 7411.0000000  -999.250000 97.319602966
 7411.5000000  -999.250000 95.200202942
 7412.0000000  -999.250000 94.414398193
 7412.5000000  -999.250000 94.593101501
 7413.0000000  -999.250000 93.768096924
 7413.5000000  -999.250000 92.666297913
 7414.0000000  -999.250000 91.777702332
 7414.5000000  -999.250000 92.609596252
 7415.0000000  -999.250000 96.411300659
 7415.5000000  -999.250000 97.985603333
 7416.0000000  -999.250000 98.216300964
 7416.5000000  -999.250000 95.879501343
 7417.0000000  -999.250000 92.870399475
 7417.5000000  -999.250000 90.858901978
 7418.0000000  -999.250000 88.971298218
 7418.5000000  -999.250000 86.299102783
 7419.0000000  -999.250000 85.696197510
 7419.5000000  -999.250000 85.507301331
 7420.0000000  -999.250000 83.339996338
 7420.5000000  -999.250000 81.525398254
 7421.0000000  -999.250000 81.700401306
 7421.5000000  -999.250000 83.180702209
 7422.0000000  -999.250000 84.292999268
 7422.5000000  -999.250000 85.151199341
 7423.0000000  -999.250000 86.341201782
 7423.5000000  -999.250000 88.605300903
 7424.0000000  -999.250000 89.905296326
 7424.5000000  -999.250000 90.028701782
 7425.0000000  -999.250000 89.845497131
 7425.5000000  -999.250000 90.635101318
 7426.0000000  -999.250000 92.359596252
 7426.5000000  -999.250000 94.502601624
 7427.0000000  -999.250000 95.672500610
 7427.5000000  -999.250000 95.179199219
 7428.0000000  -999.250000 93.209999084
 7428.5000000  -999.250000 90.008499146
 7429.0000000  -999.250000 86.243797302
 7429.5000000  -999.250000 82.552696228
 7430.0000000  -999.250000 79.838500977
 7430.5000000  -999.250000 79.130203247
 7431.0000000  -999.250000 81.847198486
 7431.5000000  -999.250000 83.296501160
 7432.0000000  -999.250000 83.095100403
 7432.5000000  -999.250000 81.848503113
 7433.0000000  -999.250000 80.741500854
 7433.5000000  -999.250000 79.983299255
 7434.0000000  -999.250000 81.199600220
 7434.5000000  -999.250000 83.550498962
 7435.0000000  -999.250000 84.279502869
 7435.5000000  -999.250000 83.852699280
 7436.0000000  -999.250000 83.241897583
 7436.5000000  -999.250000 84.050796509
 7437.0000000  -999.250000 85.556602478
 7437.5000000  -999.250000 86.262901306
 7438.0000000  -999.250000 84.353500366
 7438.5000000  -999.250000 82.048599243
 7439.0000000  -999.250000 81.357902527
 7439.5000000  -999.250000 82.122299194
 7440.0000000  -999.250000 83.346603394
 7440.5000000  -999.250000 85.375000000
 7441.0000000  -999.250000 88.184097290
 7441.5000000  -999.250000 89.969100952
 7442.0000000  -999.250000 91.482902527
 7442.5000000  -999.250000 90.972198486
 7443.0000000  -999.250000 89.475502014
 7443.5000000  -999.250000 88.419097900
 7444.0000000  -999.250000 90.140296936
 7444.5000000  -999.250000 94.610496521
 7445.0000000  -999.250000 96.921997070
 7445.5000000  -999.250000 98.054100037
 7446.0000000  -999.250000 98.133102417
 7446.5000000  -999.250000 94.362998962
 7447.0000000  -999.250000 86.596603394
 7447.5000000  -999.250000 82.758201599
 7448.0000000  -999.250000 80.649299622
 7448.5000000  -999.250000 79.794403076
 7449.0000000  -999.250000 81.110099792
 7449.5000000  -999.250000 84.421997070
 7450.0000000  -999.250000 89.366203308
 7450.5000000  -999.250000 93.436401367
 7451.0000000  -999.250000 95.400398254
 7451.5000000  -999.250000 95.883399963
 7452.0000000  -999.250000 92.214698792
 7452.5000000  -999.250000 89.767700195
 7453.0000000  -999.250000 89.959800720
 7453.5000000  -999.250000 89.928199768
 7454.0000000  -999.250000 88.097297668
 7454.5000000  -999.250000 86.227996826
 7455.0000000  -999.250000 84.748397827
 7455.5000000  -999.250000 84.200202942
 7456.0000000  -999.250000 85.756698608
 7456.5000000  -999.250000 89.029197693
 7457.0000000  -999.250000 91.500000000
 7457.5000000  -999.250000 91.181396484
 7458.0000000  -999.250000 89.397796631
 7458.5000000  -999.250000 87.046798706
 7459.0000000  -999.250000 84.924797058
 7459.5000000  -999.250000 84.395500183
 7460.0000000  -999.250000 84.700401306
 7460.5000000  -999.250000 84.657096863
 7461.0000000  -999.250000 84.223503113
 7461.5000000  -999.250000 84.029998779
 7462.0000000  -999.250000 85.401397705
 7462.5000000  -999.250000 89.450401306
 7463.0000000  -999.250000 91.851402283
 7463.5000000  -999.250000 93.926002502
 7464.0000000  -999.250000 96.197998047
 7464.5000000  -999.250000 96.165199280
 7465.0000000  -999.250000 92.446403503
 7465.5000000  -999.250000 88.102500916
 7466.0000000  -999.250000 84.566802979
 7466.5000000  -999.250000 85.543601990
 7467.0000000  -999.250000 90.666702271
 7467.5000000  -999.250000 93.365196228
 7468.0000000  -999.250000 93.435096741
 7468.5000000  -999.250000 92.083099365
 7469.0000000  -999.250000 90.706298828
 7469.5000000  -999.250000 90.510696411
 7470.0000000  -999.250000 90.953697205
 7470.5000000  -999.250000 91.415802002
 7471.0000000  -999.250000 91.739601135
 7471.5000000  -999.250000 90.990600586
 7472.0000000  -999.250000 89.549201965
 7472.5000000  -999.250000 88.214401245
 7473.0000000  -999.250000 87.302902222
 7473.5000000  -999.250000 88.209098816
 7474.0000000  -999.250000 90.213897705
 7474.5000000  -999.250000 90.752296448
 7475.0000000  -999.250000 90.737396240
 7475.5000000  -999.250000 90.997802734
 7476.0000000  -999.250000 91.703399658
 7476.5000000  -999.250000 92.170303345
 7477.0000000  -999.250000 91.939697266
 7477.5000000  -999.250000 91.260398865
 7478.0000000  -999.250000 90.596900940
 7478.5000000  -999.250000 90.179702759
 7479.0000000  -999.250000 89.889198303
 7479.5000000  -999.250000 89.886100769
 7480.0000000  -999.250000 88.328903198
 7480.5000000  -999.250000 85.751502991
 7481.0000000  -999.250000 85.206497192
 7481.5000000  -999.250000 86.387298584
 7482.0000000  -999.250000 87.415397644
 7482.5000000  -999.250000 87.428596497
 7483.0000000  -999.250000 85.535598755
 7483.5000000  -999.250000 83.434700012
 7484.0000000  -999.250000 82.635002136
 7484.5000000  -999.250000 84.379898071
 7485.0000000  -999.250000 87.928703308
 7485.5000000  -999.250000 90.524497986
 7486.0000000  -999.250000 90.582496643
 7486.5000000  -999.250000 87.160003662
 7487.0000000  -999.250000 86.288101196
 7487.5000000  -999.250000 88.160400391
 7488.0000000  -999.250000 91.274902344
 7488.5000000  -999.250000 92.159301758
 7489.0000000  -999.250000 88.613296509
 7489.5000000  -999.250000 86.088500977
 7490.0000000  -999.250000 84.776100159
 7490.5000000  -999.250000 85.711997986
 7491.0000000  -999.250000 90.408699036
 7491.5000000  -999.250000 91.923202515
 7492.0000000  -999.250000 90.998397827
 7492.5000000  -999.250000 87.768203735
 7493.0000000  -999.250000 85.282798767
 7493.5000000  -999.250000 83.812500000
 7494.0000000  -999.250000 83.322097778
 7494.5000000  -999.250000 84.974899292
 7495.0000000  -999.250000 87.195602417
 7495.5000000  -999.250000 87.596702576
 7496.0000000  -999.250000 87.333396912
 7496.5000000  -999.250000 87.837898254
 7497.0000000  -999.250000 90.192901611
 7497.5000000  -999.250000 94.868499756
 7498.0000000  -999.250000 99.544197083
 7498.5000000  -999.250000 103.60910034
 7499.0000000  -999.250000 104.64109802
 7499.5000000  -999.250000 99.275596619
