# LAS format log file from PETREL
# Project units are specified as depth units
#==================================================================
~Version information
VERS.   2.0:
WRAP.   NO:
#==================================================================
~Well
STRT .ft      100.00000000 :
STOP .ft      12173.000000 :
STEP .ft     0.50000000 :
NULL .        -999.250000 :
COMP.           : COMPANY
WELL.  AMOCO_4_293   : WELL
FLD.            : FIELD
LOC.            : LOCATION
SRVC.           : SERVICE COMPANY
DATE.  Wednesday, February 25 2009 13:05:38   : DATE
PROV.           : PROVINCE
UWI.   177014024400   : UNIQUE WELL ID
API.            : API NUMBER
#==================================================================
~Curve
DEPT .ft                   : DEPTH
GR_run2 .gAPI             : GR_run2
GR_run1 .gAPI             : GR_run1
~Parameter
#==================================================================
~Ascii
# ...
 10400.000000 91.876098633  -999.250000
 10400.500000 91.392799377  -999.250000
 10401.000000 88.283599854  -999.250000
 10401.500000 83.971603394  -999.250000
 10402.000000 81.051300049  -999.250000
 10402.500000 81.124900818  -999.250000
 10403.000000 82.989402771  -999.250000
 10403.500000 84.662200928  -999.250000
 10404.000000 85.919998169  -999.250000
 10404.500000 86.936401367  -999.250000
 10405.000000 88.115501404  -999.250000
 10405.500000 90.000999451  -999.250000
 10406.000000 90.809799194  -999.250000
 10406.500000 89.822502136  -999.250000
 10407.000000 88.540901184  -999.250000
 10407.500000 87.117599487  -999.250000
 10408.000000 85.649696350  -999.250000
 10408.500000 82.836997986  -999.250000
 10409.000000 79.386398315  -999.250000
 10409.500000 77.190902710  -999.250000
 10410.000000 76.542396545  -999.250000
 10410.500000 79.461196899  -999.250000
 10411.000000 80.090896606  -999.250000
 10411.500000 79.333900452  -999.250000
 10412.000000 77.970901489  -999.250000
 10412.500000 76.883697510  -999.250000
 10413.000000 76.673599243  -999.250000
 10413.500000 81.786598206  -999.250000
 10414.000000 86.114402771  -999.250000
 10414.500000 84.683197021  -999.250000
 10415.000000 83.265098572  -999.250000
 10415.500000 82.964202881  -999.250000
 10416.000000 83.601196289  -999.250000
 10416.500000 84.070098877  -999.250000
 10417.000000 84.442901611  -999.250000
 10417.500000 84.865699768  -999.250000
 10418.000000 85.619400024  -999.250000
 10418.500000 87.690101624  -999.250000
 10419.000000 92.416999817  -999.250000
 10419.500000 93.603996277  -999.250000
 10420.000000 87.952598572  -999.250000
 10420.500000 83.924301147  -999.250000
 10421.000000 83.635398865  -999.250000
 10421.500000 86.912696838  -999.250000
 10422.000000 89.354499817  -999.250000
 10422.500000 88.202102661  -999.250000
 10423.000000 87.025596619  -999.250000
 10423.500000 86.377098083  -999.250000
 10424.000000 85.875503540  -999.250000
 10424.500000 83.399002075  -999.250000
 10425.000000 81.575202942  -999.250000
 10425.500000 82.107101440  -999.250000
 10426.000000 86.881202698  -999.250000
 10426.500000 90.859703064  -999.250000
 10427.000000 91.403800964  -999.250000
 10427.500000 91.263198853  -999.250000
 10428.000000 91.836700439  -999.250000
 10428.500000 92.862800598  -999.250000
 10429.000000 91.742202759  -999.250000
 10429.500000 89.370697021  -999.250000
 10430.000000 87.054603577  -999.250000
 10430.500000 84.509902954  -999.250000
 10431.000000 82.787101746  -999.250000
 10431.500000 82.618400574  -999.250000
 10432.000000 82.591598511  -999.250000
 10432.500000 82.309799194  -999.250000
 10433.000000 83.157501221  -999.250000
 10433.500000 85.709999084  -999.250000
 10434.000000 88.288803101  -999.250000
 10434.500000 90.317497253  -999.250000
 10435.000000 90.050903320  -999.250000
 10435.500000 88.428001404  -999.250000
 10436.000000 86.180099487  -999.250000
 10436.500000 84.113296509  -999.250000
 10437.000000 82.143798828  -999.250000
 10437.500000 79.591201782  -999.250000
 10438.000000 75.673103333  -999.250000
 10438.500000 71.077400208  -999.250000
 10439.000000 70.084701538  -999.250000
 10439.500000 72.390502930  -999.250000
 10440.000000 73.996299744  -999.250000
 10440.500000 74.047203064  -999.250000
 10441.000000 73.810501099  -999.250000
 10441.500000 74.478302002  -999.250000
 10442.000000 75.948898315  -999.250000
 10442.500000 76.694000244  -999.250000
 10443.000000 74.538597107  -999.250000
 10443.500000 70.946197510  -999.250000
 10444.000000 68.792701721  -999.250000
 10444.500000 77.731903076  -999.250000
 10445.000000 87.490501404  -999.250000
 10445.500000 88.821899414  -999.250000
 10446.000000 86.744598389  -999.250000
 10446.500000 84.213096619  -999.250000
 10447.000000 82.503501892  -999.250000
 10447.500000 82.952903748  -999.250000
 10448.000000 82.599403381  -999.250000
 10448.500000 81.966598511  -999.250000
 10449.000000 84.234100342  -999.250000
 10449.500000 87.396003723  -999.250000
 10450.000000 89.520500183  -999.250000
 10450.500000 90.015899658  -999.250000
 10451.000000 89.491600037  -999.250000
 10451.500000 88.105003357  -999.250000
 10452.000000 86.237800598  -999.250000
 10452.500000 84.205200195  -999.250000
 10453.000000 82.437896729  -999.250000
 10453.500000 80.594398499  -999.250000
 10454.000000 80.686302185  -999.250000
 10454.500000 82.314498901  -999.250000
 10455.000000 81.363800049  -999.250000
 10455.500000 79.391601563  -999.250000
 10456.000000 80.883300781  -999.250000
 10456.500000 83.748298645  -999.250000
 10457.000000 85.249099731  -999.250000
 10457.500000 84.612297058  -999.250000
 10458.000000 82.600700378  -999.250000
 10458.500000 80.854400635  -999.250000
 10459.000000 79.176300049  -999.250000
 10459.500000 78.047096252  -999.250000
 10460.000000 80.783401489  -999.250000
 10460.500000 82.745101929  -999.250000
 10461.000000 83.815299988  -999.250000
 10461.500000 82.490402222  -999.250000
 10462.000000 79.186798096  -999.250000
 10462.500000 77.884300232  -999.250000
 10463.000000 79.094802856  -999.250000
 10463.500000 79.579299927  -999.250000
 10464.000000 78.522300720  -999.250000
 10464.500000 76.245597839  -999.250000
 10465.000000 75.733497620  -999.250000
 10465.500000 77.553298950  -999.250000
 10466.000000 79.194702148  -999.250000
 10466.500000 79.403396606  -999.250000
 10467.000000 77.787101746  -999.250000
 10467.500000 76.035499573  -999.250000
 10468.000000 75.859497070  -999.250000
 10468.500000 77.773902893  -999.250000
 10469.000000 80.079696655  -999.250000
 10469.500000 82.099098206  -999.250000
 10470.000000 83.666900635  -999.250000
 10470.500000 84.668701172  -999.250000
 10471.000000 83.971603394  -999.250000
 10471.500000 82.892196655  -999.250000
 10472.000000 82.200202942  -999.250000
 10472.500000 83.336097717  -999.250000
 10473.000000 84.394302368  -999.250000
 10473.500000 84.352302551  -999.250000
 10474.000000 82.892196655  -999.250000
 10474.500000 81.811500549  -999.250000
 10475.000000 80.775596619  -999.250000
 10475.500000 79.002899170  -999.250000
 10476.000000 76.229896545  -999.250000
 10476.500000 74.683097839  -999.250000
 10477.000000 76.067001343  -999.250000
 10477.500000 80.515602112  -999.250000
 10478.000000 84.454696655  -999.250000
 10478.500000 87.797698975  -999.250000
 10479.000000 87.561401367  -999.250000
 10479.500000 86.366600037  -999.250000
 10480.000000 85.633796692  -999.250000
 10480.500000 85.058700562  -999.250000
 10481.000000 83.921600342  -999.250000
 10481.500000 82.643402100  -999.250000
 10482.000000 83.111503601  -999.250000
 10482.500000 84.197402954  -999.250000
 10483.000000 85.095497131  -999.250000
 10483.500000 84.345703125  -999.250000
 10484.000000 83.664299011  -999.250000
 10484.500000 83.529701233  -999.250000
 10485.000000 84.890602112  -999.250000
 10485.500000 86.870697021  -999.250000
 10486.000000 87.146499634  -999.250000
 10486.500000 84.948501587  -999.250000
 10487.000000 81.849601746  -999.250000
 10487.500000 78.971397400  -999.250000
 10488.000000 77.898200989  -999.250000
 10488.500000 78.071998596  -999.250000
 10489.000000 78.471801758  -999.250000
 10489.500000 78.665199280  -999.250000
 10490.000000 78.685096741  -999.250000
 10490.500000 76.408401489  -999.250000
 10491.000000 74.226097107  -999.250000
 10491.500000 73.884803772  -999.250000
 10492.000000 77.558601379  -999.250000
 10492.500000 79.438796997  -999.250000
 10493.000000 78.598503113  -999.250000
 10493.500000 74.370498657  -999.250000
 10494.000000 69.864097595  -999.250000
 10494.500000 65.504898071  -999.250000
 10495.000000 62.537399292  -999.250000
 10495.500000 62.634601593  -999.250000
 10496.000000 66.171897888  -999.250000
 10496.500000 68.574699402  -999.250000
 10497.000000 66.424003601  -999.250000
 10497.500000 61.565700531  -999.250000
 10498.000000 58.380298615  -999.250000
 10498.500000 58.319900513  -999.250000
 10499.000000 62.700199127  -999.250000
 10499.500000 68.551101685  -999.250000
