# LAS format log file from PETREL
# Project units are specified as depth units
#==================================================================
~Version information
VERS.   2.0:
WRAP.   YES:
#==================================================================
~Well
STRT .ft      4000.0080566 :
STOP .ft      5460.0107422 :
STEP .ft     0.00000000 :
NULL .        -999.250000 :
COMP.           : COMPANY
WELL.  ROBERTS UNIT WI-3724A   : WELL
FLD.            : FIELD
LOC.            : LOCATION
SRVC.           : SERVICE COMPANY
DATE.  Thursday, June 28 2007 12:58:20   : DATE
PROV.           : PROVINCE
UWI.   42501337600000   : UNIQUE WELL ID
API.            : API NUMBER
#==================================================================
~Curve
DEPT .ft                   : DEPTH
CALI .in                  : CALI
DEPT .ft                  : DEPT
DPHI .ft3/ft3             : DPHI
DRHO .g/cm3               : DRHO
EATT .                    : EATT
GR .gAPI                  : GR
LLD .ohm.m                : LLD
LLS .ohm.m                : LLS
MSFL .ohm.m               : MSFL
NPHI .ft3/ft3             : NPHI
NPHI_>8% .                : NPHI_>8%
PEF .                     : PEF
PERFFLAG .                : PERFFLAG
PHI_EFF_TRANSFORM .       : PHI_EFF_TRANSFORM
PHIDIFF .                 : PHIDIFF
PHIEFF_EST .              : PHIEFF_EST
RHOB .g/cm3               : RHOB
SW_NPHI .                 : SW_NPHI
SW_PHIEFF_EST .           : SW_PHIEFF_EST
TPL .                     : TPL
~Parameter
#==================================================================
~Ascii
# ...
 4768.5097656
 8.4460000992 4768.5000000  -999.250000 0.0149999997 144.54699707  -999.250000
 3114.9719238 1872.2099609 1865.7540283  -999.250000  -999.250000  -999.250000
 0.0000000000  -999.250000  -999.250000  -999.250000 2.9089999199  -999.250000
  -999.250000 9.0670003891
 4769.0097656
 8.4460000992 4769.0000000  -999.250000 0.0179999992 147.85299683  -999.250000
 1604.9260254 1172.1619873 1035.7299805  -999.250000  -999.250000  -999.250000
 0.0000000000  -999.250000  -999.250000  -999.250000 2.9149999619  -999.250000
  -999.250000 9.0039997101
 4769.5097656
 8.4460000992 4769.5000000  -999.250000 0.0199999996 156.14399719  -999.250000
 1100.4780273 900.89501953 1303.5000000  -999.250000  -999.250000  -999.250000
 0.0000000000  -999.250000  -999.250000  -999.250000 2.9110000134  -999.250000
  -999.250000 9.4829998016
 4770.0097656
 8.4460000992 4770.0000000  -999.250000 0.0209999997 160.85299683  -999.250000
 715.31597900 670.62597656 417.07501221  -999.250000  -999.250000  -999.250000
 0.0000000000  -999.250000  -999.250000  -999.250000 2.8949999809  -999.250000
  -999.250000 9.4200000763
 4770.5097656
 8.4460000992 4770.5000000  -999.250000 0.0189999994 152.93299866  -999.250000
 429.71499634 447.76000977 1244.9790039  -999.250000  -999.250000  -999.250000
 0.0000000000  -999.250000  -999.250000  -999.250000 2.8670001030  -999.250000
  -999.250000 9.2810001373
 4771.0097656
 8.4069995880 4771.0000000  -999.250000 0.0179999992 166.00900269  -999.250000
 218.25599670 236.71299744 306.94000244  -999.250000  -999.250000  -999.250000
 0.0000000000  -999.250000  -999.250000  -999.250000 2.8399999142  -999.250000
  -999.250000 9.5710000992
 4771.5097656
 8.4069995880 4771.5000000  -999.250000 0.0230000000 172.79100037  -999.250000
 134.05900574 146.69400024 199.10800171  -999.250000  -999.250000  -999.250000
 0.0000000000  -999.250000  -999.250000  -999.250000 2.8350000381  -999.250000
  -999.250000 9.3179998398
 4772.0097656
 8.4460000992 4772.0000000  -999.250000 0.0189999994 183.08700562  -999.250000
 93.303001404 103.16000366 68.472999573  -999.250000  -999.250000  -999.250000
 0.0000000000  -999.250000  -999.250000  -999.250000 2.8150000572  -999.250000
  -999.250000 9.9860000610
 4772.5097656
 8.4460000992 4772.5000000  -999.250000 0.0170000009 211.35600281  -999.250000
 68.731002808 76.319999695 51.688999176  -999.250000  -999.250000  -999.250000
 0.0000000000  -999.250000  -999.250000  -999.250000 2.8080000877  -999.250000
  -999.250000 10.324999809
 4773.0097656
 8.4460000992 4773.0000000  -999.250000 0.0130000003 214.16499329  -999.250000
 65.957000732 72.866996765 44.856998444  -999.250000  -999.250000  -999.250000
 0.0000000000  -999.250000  -999.250000  -999.250000 2.7909998894  -999.250000
  -999.250000 10.552000046
 4773.5097656
 8.4460000992 4773.5000000  -999.250000 0.0140000004 228.41099548  -999.250000
 80.583000183 88.120002747 34.305000305  -999.250000  -999.250000  -999.250000
 0.0000000000  -999.250000  -999.250000  -999.250000 2.8159999847  -999.250000
  -999.250000 10.550999641
 4774.0097656
 8.4069995880 4774.0000000  -999.250000 0.0219999999 237.32200623  -999.250000
 108.91699982 115.89900208 89.622001648  -999.250000  -999.250000  -999.250000
 0.0000000000  -999.250000  -999.250000  -999.250000 2.8529999256  -999.250000
  -999.250000 10.713999748
 4774.5097656
 8.4460000992 4774.5000000  -999.250000 0.0280000009 140.86900330  -999.250000
 203.14300537 206.90400696 1195.1560059  -999.250000  -999.250000  -999.250000
 0.0000000000  -999.250000  -999.250000  -999.250000 2.8859999180  -999.250000
  -999.250000 8.3479995728
 4775.0097656
 8.4460000992 4775.0000000  -999.250000 0.0289999992 161.41099548  -999.250000
 544.76599121 517.03302002 101.95500183  -999.250000  -999.250000  -999.250000
 0.0000000000  -999.250000  -999.250000  -999.250000 2.8810000420  -999.250000
  -999.250000 9.3690004349
 4775.5097656
 8.4069995880 4775.5000000  -999.250000 0.0309999995 171.93099976  -999.250000
 566.98400879 533.17297363 158.14799500  -999.250000  -999.250000  -999.250000
 0.0000000000  -999.250000  -999.250000  -999.250000 2.8719999790  -999.250000
  -999.250000 9.4189996719
 4776.0097656
 8.4460000992 4776.0000000  -999.250000 0.0359999985 161.62899780  -999.250000
 519.57598877 492.47698975 202.64199829  -999.250000  -999.250000  -999.250000
 0.0000000000  -999.250000  -999.250000  -999.250000 2.8689999580  -999.250000
  -999.250000 9.4449996948
 4776.5097656
 8.4069995880 4776.5000000  -999.250000 0.0320000015 158.97500610  -999.250000
 580.61102295 538.52697754 115.27500153  -999.250000  -999.250000  -999.250000
 0.0000000000  -999.250000  -999.250000  -999.250000 2.8589999676  -999.250000
  -999.250000 9.3570003510
 4777.0097656
 8.4460000992 4777.0000000  -999.250000 0.0340000018 163.90600586  -999.250000
 624.65197754 559.70599365 122.51399994  -999.250000  -999.250000  -999.250000
 0.0000000000  -999.250000  -999.250000  -999.250000 2.8629999161  -999.250000
  -999.250000 9.5080003738
 4777.5097656
 8.4460000992 4777.5000000  -999.250000 0.0289999992 160.33299255  -999.250000
 563.06298828 515.17498779 234.17799377  -999.250000  -999.250000  -999.250000
 0.0000000000  -999.250000  -999.250000  -999.250000 2.8599998951  -999.250000
  -999.250000 9.3059997559
 4778.0097656
 8.4069995880 4778.0000000  -999.250000 0.0329999998 153.60000610  -999.250000
 348.27099609 311.54299927 184.62100220  -999.250000  -999.250000  -999.250000
 0.0000000000  -999.250000  -999.250000  -999.250000 2.8759999275  -999.250000
  -999.250000 9.4329996109
 4778.5097656
 8.4069995880 4778.5000000  -999.250000 0.0309999995 154.65400696  -999.250000
 258.81600952 231.76499939 224.95100403  -999.250000  -999.250000  -999.250000
 0.0000000000  -999.250000  -999.250000  -999.250000 2.8810000420  -999.250000
  -999.250000 9.2810001373
 4779.0097656
 8.4069995880 4779.0000000  -999.250000 0.0189999994 170.85699463  -999.250000
 203.44400024 181.57400513 73.655998230  -999.250000  -999.250000  -999.250000
 0.0000000000  -999.250000  -999.250000  -999.250000 2.8540000916  -999.250000
  -999.250000 9.8990001678
 4779.5097656
 8.3680000305 4779.5000000  -999.250000 0.0160000008 167.73399353  -999.250000
 176.91299438 156.27600098 109.82900238  -999.250000  -999.250000  -999.250000
 0.0000000000  -999.250000  -999.250000  -999.250000 2.8359999657  -999.250000
  -999.250000 9.6090002060
 4780.0097656
 8.3680000305 4780.0000000  -999.250000 0.0179999992 178.78599548  -999.250000
 208.56700134 185.24499512 66.558998108  -999.250000  -999.250000  -999.250000
 0.0000000000  -999.250000  -999.250000  -999.250000 2.8329999447  -999.250000
  -999.250000 9.6579999924
 4780.5097656
 8.3680000305 4780.5000000  -999.250000 0.0179999992 195.83599854  -999.250000
 288.98098755 255.38999939 126.79599762  -999.250000  -999.250000  -999.250000
 0.0000000000  -999.250000  -999.250000  -999.250000 2.8489999771  -999.250000
  -999.250000 10.137000084
 4781.0097656
 8.3680000305 4781.0000000  -999.250000 0.0189999994 186.38699341  -999.250000
 393.26400757 346.32000732 142.63499451  -999.250000  -999.250000  -999.250000
 0.0000000000  -999.250000  -999.250000  -999.250000 2.8570001125  -999.250000
  -999.250000 10.642000198
 4781.5097656
 8.3680000305 4781.5000000  -999.250000 0.0179999992 165.61799622  -999.250000
 651.56097412 561.19201660 236.74899292  -999.250000  -999.250000  -999.250000
 0.0000000000  -999.250000  -999.250000  -999.250000 2.8570001125  -999.250000
  -999.250000 9.5459995270
 4782.0097656
 8.3680000305 4782.0000000  -999.250000 0.0109999999 155.84300232  -999.250000
 571.36199951 516.87799072 329.33300781  -999.250000  -999.250000  -999.250000
 0.0000000000  -999.250000  -999.250000  -999.250000 2.8550000191  -999.250000
  -999.250000 9.3570003510
 4782.5097656
 8.3680000305 4782.5000000  -999.250000 0.0049999999 163.88299561  -999.250000
 319.04998779 297.17098999 717.83398438  -999.250000  -999.250000  -999.250000
 0.0000000000  -999.250000  -999.250000  -999.250000 2.8399999142  -999.250000
  -999.250000 9.3690004349
