# LAS format log file from PETREL
# Project units are specified as depth units
#==================================================================
~Version information
VERS.   2.0:
WRAP.   YES:
#==================================================================
~Well
STRT .ft      4000.0080566 :
STOP .ft      5460.0107422 :
STEP .ft     0.00000000 :
NULL .        -999.250000 :
COMP.           : COMPANY
WELL.  ROBERTS UNIT WI-3724A   : WELL
FLD.            : FIELD
LOC.            : LOCATION
SRVC.           : SERVICE COMPANY
DATE.  Thursday, June 28 2007 12:58:20   : DATE
PROV.           : PROVINCE
UWI.   42501337600000   : UNIQUE WELL ID
API.            : API NUMBER
#==================================================================
~Curve
DEPT .ft                   : DEPTH
CALI .in                  : CALI
DEPT .ft                  : DEPT
DPHI .ft3/ft3             : DPHI
DRHO .g/cm3               : DRHO
EATT .                    : EATT
GR .gAPI                  : GR
LLD .ohm.m                : LLD
LLS .ohm.m                : LLS
MSFL .ohm.m               : MSFL
NPHI .ft3/ft3             : NPHI
NPHI_>8% .                : NPHI_>8%
PEF .                     : PEF
PERFFLAG .                : PERFFLAG
PHI_EFF_TRANSFORM .       : PHI_EFF_TRANSFORM
PHIDIFF .                 : PHIDIFF
PHIEFF_EST .              : PHIEFF_EST
RHOB .g/cm3               : RHOB
SW_NPHI .                 : SW_NPHI
SW_PHIEFF_EST .           : SW_PHIEFF_EST
TPL .                     : TPL
~Parameter
#==================================================================
~Ascii
# ...
 4188.5083008
 12.034999847 4188.5000000  -999.250000 -0.004000000 558.24499512  -999.250000
 6.2170000076 6.6430001259 3.4230000973  -999.250000  -999.250000  -999.250000
 0.0000000000  -999.250000  -999.250000  -999.250000 2.5350000858  -999.250000
  -999.250000 15.475000381
 4189.0083008
 12.190999985 4189.0000000  -999.250000 -0.005000000 467.42498779  -999.250000
 8.4750003815 9.4399995804 7.5399999619  -999.250000  -999.250000  -999.250000
 0.0000000000  -999.250000  -999.250000  -999.250000 2.5499999523  -999.250000
  -999.250000 13.032999992
 4189.5083008
 12.190999985 4189.5000000  -999.250000 -0.004000000 313.96899414  -999.250000
 11.239000320 12.954999924 8.3900003433  -999.250000  -999.250000  -999.250000
 0.0000000000  -999.250000  -999.250000  -999.250000 2.5739998817  -999.250000
  -999.250000 10.696000099
 4190.0083008
 12.229999542 4190.0000000  -999.250000 -0.008000000 393.33099365  -999.250000
 12.829000473 15.067000389 7.1469998360  -999.250000  -999.250000  -999.250000
 0.0000000000  -999.250000  -999.250000  -999.250000 2.6050000191  -999.250000
  -999.250000 12.243000031
 4190.5083008
 12.269000053 4190.5000000  -999.250000 -0.003000000 404.95098877  -999.250000
 11.677000046 13.661999702 6.3810000420  -999.250000  -999.250000  -999.250000
 0.0000000000  -999.250000  -999.250000  -999.250000 2.6449999809  -999.250000
  -999.250000 13.074999809
 4191.0083008
 12.307999611 4191.0000000  -999.250000 0.0000000000 313.84399414  -999.250000
 9.3909997940 10.493000031 9.4099998474  -999.250000  -999.250000  -999.250000
 0.0000000000  -999.250000  -999.250000  -999.250000 2.6480000019  -999.250000
  -999.250000 10.758999825
 4191.5083008
 12.347000122 4191.5000000  -999.250000 -0.004000000 313.34500122  -999.250000
 8.6000003815 8.9209995270 4.5830001831  -999.250000  -999.250000  -999.250000
 0.0000000000  -999.250000  -999.250000  -999.250000 2.6140000820  -999.250000
  -999.250000 10.607999802
 4192.0083008
 12.347000122 4192.0000000  -999.250000 -0.009000000 445.61300659  -999.250000
 8.6029996872 8.2930002213 4.1570000648  -999.250000  -999.250000  -999.250000
 0.0000000000  -999.250000  -999.250000  -999.250000 2.5840001106  -999.250000
  -999.250000 13.350000381
 4192.5083008
 12.425000191 4192.5000000  -999.250000 -0.009000000 410.37600708  -999.250000
 9.5019998550 8.5039997101 4.9039998055  -999.250000  -999.250000  -999.250000
 0.0000000000  -999.250000  -999.250000  -999.250000 2.6150000095  -999.250000
  -999.250000 12.531999588
 4193.0083008
 12.425000191 4193.0000000  -999.250000 -0.006000000 404.71398926  -999.250000
 13.439999580 10.904000282 5.4860000610  -999.250000  -999.250000  -999.250000
 0.0000000000  -999.250000  -999.250000  -999.250000 2.7079999447  -999.250000
  -999.250000 12.531999588
 4193.5083008
 12.425000191 4193.5000000  -999.250000 0.0000000000 340.60699463  -999.250000
 24.302999496 17.277000427 23.180000305  -999.250000  -999.250000  -999.250000
 0.0000000000  -999.250000  -999.250000  -999.250000 2.8159999847  -999.250000
  -999.250000 11.300000191
 4194.0083008
 12.425000191 4194.0000000  -999.250000 0.0040000002 143.36700439  -999.250000
 43.339000702 26.603000641 1593.6510010  -999.250000  -999.250000  -999.250000
 0.0000000000  -999.250000  -999.250000  -999.250000 2.8269999027  -999.250000
  -999.250000 8.5500001907
 4194.5083008
 12.463999748 4194.5000000  -999.250000 -0.005000000 153.55799866  -999.250000
 62.289001465 36.618999481 47.724998474  -999.250000  -999.250000  -999.250000
 0.0000000000  -999.250000  -999.250000  -999.250000 2.6949999332  -999.250000
  -999.250000 8.5240001678
 4195.0083008
 12.541999817 4195.0000000  -999.250000 -0.005000000 340.31100464  -999.250000
 61.837001801 36.972000122 12.786000252  -999.250000  -999.250000  -999.250000
 0.0000000000  -999.250000  -999.250000  -999.250000 2.5620000362  -999.250000
  -999.250000 11.248999596
 4195.5083008
 12.581000328 4195.5000000  -999.250000 -0.006000000 200.44999695  -999.250000
 62.773998260 37.999000549 73.049003601  -999.250000  -999.250000  -999.250000
 0.0000000000  -999.250000  -999.250000  -999.250000 2.4570000172  -999.250000
  -999.250000 8.4569997787
 4196.0083008
 12.697999954 4196.0000000  -999.250000 0.0020000001 192.54400635  -999.250000
 99.021003723 58.333999634 171.73599243  -999.250000  -999.250000  -999.250000
 0.0000000000  -999.250000  -999.250000  -999.250000 2.4270000458  -999.250000
  -999.250000 8.2810001373
 4196.5083008
 12.814999580 4196.5000000  -999.250000 0.0049999999 176.55799866  -999.250000
 129.45100403 75.041000366 480.11898804  -999.250000  -999.250000  -999.250000
 0.0000000000  -999.250000  -999.250000  -999.250000 2.4100000858  -999.250000
  -999.250000 7.5619997978
 4197.0083008
 12.814999580 4197.0000000  -999.250000 0.0070000002 181.34800720  -999.250000
 122.27400208 71.810997009 108.42500305  -999.250000  -999.250000  -999.250000
 0.0000000000  -999.250000  -999.250000  -999.250000 2.4179999828  -999.250000
  -999.250000 8.1680002213
 4197.5083008
 12.892999649 4197.5000000  -999.250000 0.0020000001 177.64100647  -999.250000
 107.11900330 64.316001892 70.095001221  -999.250000  -999.250000  -999.250000
 0.0000000000  -999.250000  -999.250000  -999.250000 2.4170000553  -999.250000
  -999.250000 8.0419998169
 4198.0083008
 12.776000023 4198.0000000  -999.250000 0.0040000002 193.65699768  -999.250000
 98.442001343 59.807998657 68.163002014  -999.250000  -999.250000  -999.250000
 0.0000000000  -999.250000  -999.250000  -999.250000 2.4200000763  -999.250000
  -999.250000 8.4580001831
 4198.5083008
 12.854000092 4198.5000000  -999.250000 0.0040000002 192.54400635  -999.250000
 86.845001221 53.240001678 44.977001190  -999.250000  -999.250000  -999.250000
 0.0000000000  -999.250000  -999.250000  -999.250000 2.4159998894  -999.250000
  -999.250000 8.1800003052
 4199.0083008
 12.814999580 4199.0000000  -999.250000 -0.002000000 183.11000061  -999.250000
 65.027000427 41.049999237 52.966999054  -999.250000  -999.250000  -999.250000
 0.0000000000  -999.250000  -999.250000  -999.250000 2.4059998989  -999.250000
  -999.250000 8.5469999313
 4199.5083008
 12.814999580 4199.5000000  -999.250000 -0.005000000 188.18600464  -999.250000
 51.276000977 33.792999268 43.113998413  -999.250000  -999.250000  -999.250000
 0.0000000000  -999.250000  -999.250000  -999.250000 2.4179999828  -999.250000
  -999.250000 8.2559995651
 4200.0083008
 12.737000465 4200.0000000  -999.250000 -0.002000000 240.10000610  -999.250000
 43.667999268 29.580999374 23.867000580  -999.250000  -999.250000  -999.250000
 0.0000000000  -999.250000  -999.250000  -999.250000 2.4330000877  -999.250000
  -999.250000 9.3249998093
 4200.5083008
 12.697999954 4200.5000000  -999.250000 -0.006000000 237.90100098  -999.250000
 36.520999908 25.422000885 21.277000427  -999.250000  -999.250000  -999.250000
 0.0000000000  -999.250000  -999.250000  -999.250000 2.4379999638  -999.250000
  -999.250000 9.2620000839
 4201.0083008
 12.697999954 4201.0000000  -999.250000 -0.007000000 262.09399414  -999.250000
 30.531000137 21.753000259 18.364999771  -999.250000  -999.250000  -999.250000
 0.0000000000  -999.250000  -999.250000  -999.250000 2.4379999638  -999.250000
  -999.250000 9.8030004501
 4201.5083008
 12.697999954 4201.5000000  -999.250000 -0.007000000 254.87100220  -999.250000
 26.427999496 19.315999985 16.510999680  -999.250000  -999.250000  -999.250000
 0.0000000000  -999.250000  -999.250000  -999.250000 2.4319999218  -999.250000
  -999.250000 9.6400003433
 4202.0083008
 12.697999954 4202.0000000  -999.250000 -0.010000000 303.50399780  -999.250000
 22.871000290 17.127000809 11.961000443  -999.250000  -999.250000  -999.250000
 0.0000000000  -999.250000  -999.250000  -999.250000 2.4289999008  -999.250000
  -999.250000 10.904999733
 4202.5083008
 12.659000397 4202.5000000  -999.250000 -0.011000000 325.99398804  -999.250000
 19.392000198 14.864999771 13.869999886  -999.250000  -999.250000  -999.250000
 0.0000000000  -999.250000  -999.250000  -999.250000 2.4519999027  -999.250000
  -999.250000 10.581000328
