# LAS format log file from PETREL
# Project units are specified as depth units
#==================================================================
~Version information
VERS.   2.0:
WRAP.   YES:
#==================================================================
~Well
STRT .ft      4000.0080566 :
STOP .ft      5460.0107422 :
STEP .ft     0.00000000 :
NULL .        -999.250000 :
COMP.           : COMPANY
WELL.  ROBERTS UNIT WI-3724A   : WELL
FLD.            : FIELD
LOC.            : LOCATION
SRVC.           : SERVICE COMPANY
DATE.  Thursday, June 28 2007 12:58:20   : DATE
PROV.           : PROVINCE
UWI.   42501337600000   : UNIQUE WELL ID
API.            : API NUMBER
#==================================================================
~Curve
DEPT .ft                   : DEPTH
CALI .in                  : CALI
DEPT .ft                  : DEPT
DPHI .ft3/ft3             : DPHI
DRHO .g/cm3               : DRHO
EATT .                    : EATT
GR .gAPI                  : GR
LLD .ohm.m                : LLD
LLS .ohm.m                : LLS
MSFL .ohm.m               : MSFL
NPHI .ft3/ft3             : NPHI
NPHI_>8% .                : NPHI_>8%
PEF .                     : PEF
PERFFLAG .                : PERFFLAG
PHI_EFF_TRANSFORM .       : PHI_EFF_TRANSFORM
PHIDIFF .                 : PHIDIFF
PHIEFF_EST .              : PHIEFF_EST
RHOB .g/cm3               : RHOB
SW_NPHI .                 : SW_NPHI
SW_PHIEFF_EST .           : SW_PHIEFF_EST
TPL .                     : TPL
~Parameter
#==================================================================
~Ascii
# ...
 4101.5083008
 11.605999947 4101.5000000  -999.250000 0.0010000000 225.33700562  -999.250000
 32.762001038 33.569000244 27.468999863  -999.250000  -999.250000  -999.250000
 0.0000000000  -999.250000  -999.250000  -999.250000 2.5969998837  -999.250000
  -999.250000 9.4270000458
 4102.0083008
 11.605999947 4102.0000000  -999.250000 0.0049999999 384.68399048  -999.250000
 44.155998230 46.021999359 7.9340000153  -999.250000  -999.250000  -999.250000
 0.0000000000  -999.250000  -999.250000  -999.250000 2.5190000534  -999.250000
  -999.250000 12.104999542
 4102.5083008
 11.605999947 4102.5000000  -999.250000 0.0080000004 422.53399658  -999.250000
 56.354999542 61.870998383 6.0060000420  -999.250000  -999.250000  -999.250000
 0.0000000000  -999.250000  -999.250000  -999.250000 2.3220000267  -999.250000
  -999.250000 12.795999527
 4103.0083008
 11.645000458 4103.0000000  -999.250000 0.0149999997 404.51000977  -999.250000
 71.408996582 79.670997620 2.3949999809  -999.250000  -999.250000  -999.250000
 0.0000000000  -999.250000  -999.250000  -999.250000 2.1689999104  -999.250000
  -999.250000 12.531999588
 4103.5083008
 11.878999710 4103.5000000  -999.250000 0.0320000015 44.519001007  -999.250000
 104.36499786 114.44799805 13.069999695  -999.250000  -999.250000  -999.250000
 0.0000000000  -999.250000  -999.250000  -999.250000 2.0959999561  -999.250000
  -999.250000 16.638000488
 4104.0083008
 12.385999680 4104.0000000  -999.250000 0.0439999998 86.351997375  -999.250000
 108.55400085 131.60000610 4.5399999619  -999.250000  -999.250000  -999.250000
 0.0000000000  -999.250000  -999.250000  -999.250000 2.1389999390  -999.250000
  -999.250000 7.4679999352
 4104.5083008
 12.152000427 4104.5000000  -999.250000 0.0460000001 88.496002197  -999.250000
 64.859001160 79.944000244 51.257999420  -999.250000  -999.250000  -999.250000
 0.0000000000  -999.250000  -999.250000  -999.250000 2.2030000687  -999.250000
  -999.250000 13.958000183
 4105.0083008
 12.190999985 4105.0000000  -999.250000 0.0299999993 392.47698975  -999.250000
 52.944000244 61.588001251 1.2159999609  -999.250000  -999.250000  -999.250000
 0.0000000000  -999.250000  -999.250000  -999.250000 2.2679998875  -999.250000
  -999.250000 13.795999527
 4105.5083008
 11.645000458 4105.5000000  -999.250000 0.0260000005 301.98800659  -999.250000
 51.179000854 57.860000610 14.015000343  -999.250000  -999.250000  -999.250000
 0.0000000000  -999.250000  -999.250000  -999.250000 2.2269999981  -999.250000
  -999.250000 11.328000069
 4106.0083008
 11.800999641 4106.0000000  -999.250000 0.0240000002 310.63699341  -999.250000
 58.967998505 62.908000946 4.1050000191  -999.250000  -999.250000  -999.250000
 0.0000000000  -999.250000  -999.250000  -999.250000 2.1530001163  -999.250000
  -999.250000 10.380999565
 4106.5083008
 12.269000053 4106.5000000  -999.250000 0.0469999984 405.38699341  -999.250000
 95.114997864 94.343002319 1.3860000372  -999.250000  -999.250000  -999.250000
 0.0000000000  -999.250000  -999.250000  -999.250000 2.0780000687  -999.250000
  -999.250000 13.605999947
 4107.0083008
 12.463999748 4107.0000000  -999.250000 0.0649999976 243.77799988  -999.250000
 193.63900757 181.49699402 0.6859999895  -999.250000  -999.250000  -999.250000
 0.0000000000  -999.250000  -999.250000  -999.250000 2.0520000458  -999.250000
  -999.250000 13.062000275
 4107.5083008
 11.840000153 4107.5000000  -999.250000 0.0689999983 99.447998047  -999.250000
 273.44601440 256.46701050 3.2690000534  -999.250000  -999.250000  -999.250000
 0.0000000000  -999.250000  -999.250000  -999.250000 2.0680000782  -999.250000
  -999.250000 10.649000168
 4108.0083008
 12.229999542 4108.0000000  -999.250000 0.0460000001 0.0000000000  -999.250000
 241.97500610 251.12899780 3.4330000877  -999.250000  -999.250000  -999.250000
 0.0000000000  -999.250000  -999.250000  -999.250000 2.1280000210  -999.250000
  -999.250000 22.235000610
 4108.5083008
 12.385999680 4108.5000000  -999.250000 0.0320000015 153.47399902  -999.250000
 183.76600647 205.91900635 1.2079999447  -999.250000  -999.250000  -999.250000
 0.0000000000  -999.250000  -999.250000  -999.250000 2.2599999905  -999.250000
  -999.250000 19.610000610
 4109.0083008
 11.215000153 4109.0000000  -999.250000 0.0099999998 206.60000610  -999.250000
 190.32200623 229.38099670 9.2969999313  -999.250000  -999.250000  -999.250000
 0.0000000000  -999.250000  -999.250000  -999.250000 2.4249999523  -999.250000
  -999.250000 8.6079998016
 4109.5083008
 11.175999641 4109.5000000  -999.250000 0.0099999998 259.62799072  -999.250000
 171.71699524 223.79800415 87.105003357  -999.250000  -999.250000  -999.250000
 0.0000000000  -999.250000  -999.250000  -999.250000 2.6419999599  -999.250000
  -999.250000 9.9420003891
 4110.0083008
 11.175999641 4110.0000000  -999.250000 0.0230000000 162.49299622  -999.250000
 116.92199707 154.22200012 1232.4399414  -999.250000  -999.250000  -999.250000
 0.0000000000  -999.250000  -999.250000  -999.250000 2.8020000458  -999.250000
  -999.250000 8.6239995956
 4110.5083008
 11.137000084 4110.5000000  -999.250000 0.0340000018 142.05299377  -999.250000
 102.04299927 137.32699585 1783.1889648  -999.250000  -999.250000  -999.250000
 0.0000000000  -999.250000  -999.250000  -999.250000 2.8340001106  -999.250000
  -999.250000 8.6510000229
 4111.0083008
 11.175999641 4111.0000000  -999.250000 0.0329999998 148.49600220  -999.250000
 98.984001160 131.17300415 6.2760000229  -999.250000  -999.250000  -999.250000
 0.0000000000  -999.250000  -999.250000  -999.250000 2.5959999561  -999.250000
  -999.250000 8.6499996185
 4111.5083008
 11.215000153 4111.5000000  -999.250000 0.0209999997 258.38299561  -999.250000
 95.137001038 124.09899902 21.444999695  -999.250000  -999.250000  -999.250000
 0.0000000000  -999.250000  -999.250000  -999.250000 2.2409999371  -999.250000
  -999.250000 9.8290004730
 4112.0083008
 11.371000290 4112.0000000  -999.250000 0.0309999995 592.32598877  -999.250000
 121.51300049 151.78399658 4.4879999161  -999.250000  -999.250000  -999.250000
 0.0000000000  -999.250000  -999.250000  -999.250000 2.0480000973  -999.250000
  -999.250000 18.516000748
 4112.5083008
 11.645000458 4112.5000000  -999.250000 0.0329999998 0.0000000000  -999.250000
 164.78100586 213.86799622 2.0260000229  -999.250000  -999.250000  -999.250000
 0.0000000000  -999.250000  -999.250000  -999.250000 2.0020000935  -999.250000
  -999.250000 18.597999573
 4113.0083008
 11.840000153 4113.0000000  -999.250000 0.0329999998 0.0000000000  -999.250000
 156.06900024 231.68499756 2.0450000763  -999.250000  -999.250000  -999.250000
 0.0000000000  -999.250000  -999.250000  -999.250000 2.1119999886  -999.250000
  -999.250000 22.448999405
 4113.5083008
 11.605999947 4113.5000000  -999.250000 0.0099999998 358.10101318  -999.250000
 162.55099487 291.67199707 5.6139998436  -999.250000  -999.250000  -999.250000
 0.0000000000  -999.250000  -999.250000  -999.250000 2.3110001087  -999.250000
  -999.250000 19.959999084
 4114.0083008
 11.293000221 4114.0000000  -999.250000 0.0010000000 284.21600342  -999.250000
 179.02400208 301.60400391 43.228000641  -999.250000  -999.250000  -999.250000
 0.0000000000  -999.250000  -999.250000  -999.250000 2.5539999008  -999.250000
  -999.250000 10.281000137
 4114.5083008
 11.097999573 4114.5000000  -999.250000 -0.003000000 140.86500549  -999.250000
 293.42199707 323.83200073 2000.0000000  -999.250000  -999.250000  -999.250000
 0.0000000000  -999.250000  -999.250000  -999.250000 2.7969999313  -999.250000
  -999.250000 8.4989995956
 4115.0083008
 11.097999573 4115.0000000  -999.250000 0.0089999996 147.71899414  -999.250000
 715.13897705 437.14801025 1806.4720459  -999.250000  -999.250000  -999.250000
 0.0000000000  -999.250000  -999.250000  -999.250000 2.8099999428  -999.250000
  -999.250000 8.3219995499
 4115.5083008
 11.097999573 4115.5000000  -999.250000 -0.005000000 133.79499817  -999.250000
 1030.3489990 510.87899780 1008.4429932  -999.250000  -999.250000  -999.250000
 0.0000000000  -999.250000  -999.250000  -999.250000 2.3510000706  -999.250000
  -999.250000 8.4750003815
