# LAS format log file from PETREL
# Project units are specified as depth units
#==================================================================
~Version information
VERS.   2.0:
WRAP.   YES:
#==================================================================
~Well
STRT .ft      4000.0080566 :
STOP .ft      5460.0107422 :
STEP .ft     0.00000000 :
NULL .        -999.250000 :
COMP.           : COMPANY
WELL.  ROBERTS UNIT WI-3724A   : WELL
FLD.            : FIELD
LOC.            : LOCATION
SRVC.           : SERVICE COMPANY
DATE.  Thursday, June 28 2007 12:58:20   : DATE
PROV.           : PROVINCE
UWI.   42501337600000   : UNIQUE WELL ID
API.            : API NUMBER
#==================================================================
~Curve
DEPT .ft                   : DEPTH
CALI .in                  : CALI
DEPT .ft                  : DEPT
DPHI .ft3/ft3             : DPHI
DRHO .g/cm3               : DRHO
EATT .                    : EATT
GR .gAPI                  : GR
LLD .ohm.m                : LLD
LLS .ohm.m                : LLS
MSFL .ohm.m               : MSFL
NPHI .ft3/ft3             : NPHI
NPHI_>8% .                : NPHI_>8%
PEF .                     : PEF
PERFFLAG .                : PERFFLAG
PHI_EFF_TRANSFORM .       : PHI_EFF_TRANSFORM
PHIDIFF .                 : PHIDIFF
PHIEFF_EST .              : PHIEFF_EST
RHOB .g/cm3               : RHOB
SW_NPHI .                 : SW_NPHI
SW_PHIEFF_EST .           : SW_PHIEFF_EST
TPL .                     : TPL
~Parameter
#==================================================================
~Ascii
# ...
 5450.0107422
 7.8610000610 5450.0000000 -0.004408820 0.0030000000 235.50900269 29.939516068
 139.55700684 143.34800720 28.708000183 0.0569138303  -999.250000 3.1362268925
 0.0000000000 0.0219210051 0.0613226518 0.0364729464 2.7190001011 0.5571243763
 0.9418540001 11.383999825
 5450.5107422
 7.8610000610 5450.5000000  -999.250000 0.0010000000 221.79400635  -999.250000
 139.55999756 143.42100525 14.088000298  -999.250000  -999.250000  -999.250000
 0.0000000000  -999.250000  -999.250000  -999.250000 2.7320001125  -999.250000
  -999.250000 11.295999527
 5451.0107422
 7.8610000610 5451.0000000  -999.250000 0.0020000001 232.81500244  -999.250000
 139.39599609 143.27000427 132.21000671  -999.250000  -999.250000  -999.250000
 0.0000000000  -999.250000  -999.250000  -999.250000 2.7420001030  -999.250000
  -999.250000 11.333000183
 5451.5107422
 7.8610000610 5451.5000000  -999.250000 0.0040000002 229.09599304  -999.250000
 139.50199890 143.19200134 20.573999405  -999.250000  -999.250000  -999.250000
 0.0000000000  -999.250000  -999.250000  -999.250000 2.7699999809  -999.250000
  -999.250000 11.307999611
 5452.0107422
 7.8610000610 5452.0000000  -999.250000 0.0060000001 227.01699829  -999.250000
 139.57800293 143.25700378 28.143999100  -999.250000  -999.250000  -999.250000
 0.0000000000  -999.250000  -999.250000  -999.250000 2.7869999409  -999.250000
  -999.250000 11.309000015
 5452.5107422
 7.8220000267 5452.5000000  -999.250000 0.0049999999 227.13499451  -999.250000
 139.74699402 143.43499756 12.168999672  -999.250000  -999.250000  -999.250000
 0.0000000000  -999.250000  -999.250000  -999.250000 2.7950000763  -999.250000
  -999.250000 11.258000374
 5453.0107422
 7.9390001297 5453.0000000  -999.250000 0.0030000000 227.25399780  -999.250000
 139.68299866 143.23100281 12.062000275  -999.250000  -999.250000  -999.250000
 0.0000000000  -999.250000  -999.250000  -999.250000 2.7599999905  -999.250000
  -999.250000 11.282999992
 5453.5107422
 7.9000000954 5453.5000000  -999.250000 0.0060000001 225.22200012  -999.250000
 139.46299744 143.08500671 11.612999916  -999.250000  -999.250000  -999.250000
 0.0000000000  -999.250000  -999.250000  -999.250000 2.7290000916  -999.250000
  -999.250000 11.258000374
 5454.0107422
 7.8220000267 5454.0000000  -999.250000 0.0109999999 222.93699646  -999.250000
 139.65199280 142.37300110 9.5030002594  -999.250000  -999.250000  -999.250000
 0.0000000000  -999.250000  -999.250000  -999.250000 2.7149999142  -999.250000
  -999.250000 11.309000015
 5454.5107422
 7.7439999580 5454.5000000  -999.250000 0.0260000005 227.75399780  -999.250000
 139.03900146 142.46899414 19.613000870  -999.250000  -999.250000  -999.250000
 0.0000000000  -999.250000  -999.250000  -999.250000 2.7339999676  -999.250000
  -999.250000 11.309000015
 5455.0107422
 7.7829999924 5455.0000000  -999.250000 0.0520000011 226.20599365  -999.250000
 139.20899963 142.16700745 15.383000374  -999.250000  -999.250000  -999.250000
 0.0000000000  -999.250000  -999.250000  -999.250000 2.7170000076  -999.250000
  -999.250000 11.282999992
 5455.5107422
 7.2760000229 5455.5000000  -999.250000 0.0649999976 232.10200500  -999.250000
 139.09300232 142.39799500 8.7829999924  -999.250000  -999.250000  -999.250000
 0.0000000000  -999.250000  -999.250000  -999.250000 2.6340000629  -999.250000
  -999.250000 11.220000267
 5456.0107422
 5.6370000839 5456.0000000  -999.250000 0.0649999976 232.65499878  -999.250000
 139.21099854 141.96400452 13.055999756  -999.250000  -999.250000  -999.250000
 0.0000000000  -999.250000  -999.250000  -999.250000 2.5460000038  -999.250000
  -999.250000 11.321000099
 5456.5107422
 5.6760001183 5456.5000000  -999.250000 0.0710000023 227.79499817  -999.250000
 140.11399841 139.80700684 21.420000076  -999.250000  -999.250000  -999.250000
 0.0000000000  -999.250000  -999.250000  -999.250000 2.5009999275  -999.250000
  -999.250000 11.206999779
 5457.0107422
 5.5980000496 5457.0000000  -999.250000 0.0869999975 226.60499573  -999.250000
 138.73599243 134.83999634 25.690999985  -999.250000  -999.250000  -999.250000
 0.0000000000  -999.250000  -999.250000  -999.250000 2.5000000000  -999.250000
  -999.250000 11.309000015
 5457.5107422
 5.5199999809 5457.5000000  -999.250000 0.0900000036 224.22799683  -999.250000
 60.520000458 98.599998474 31.173999786  -999.250000  -999.250000  -999.250000
 0.0000000000  -999.250000  -999.250000  -999.250000 2.4920001030  -999.250000
  -999.250000 11.201000214
 5458.0107422
 5.4809999466 5458.0000000  -999.250000 0.0820000023 229.65499878  -999.250000
 60.520000458 98.599998474 41.895999908  -999.250000  -999.250000  -999.250000
 0.0000000000  -999.250000  -999.250000  -999.250000 2.4779999256  -999.250000
  -999.250000 11.321000099
 5458.5107422
 5.4419999123 5458.5000000  -999.250000 0.0780000016 223.71099854  -999.250000
 60.520000458 98.599998474 5.5840001106  -999.250000  -999.250000  -999.250000
 0.0000000000  -999.250000  -999.250000  -999.250000 2.4649999142  -999.250000
  -999.250000 11.170000076
 5459.0107422
 5.4029998779 5459.0000000  -999.250000 0.0890000015 226.30200195  -999.250000
 60.520000458 98.599998474 3.8699998856  -999.250000  -999.250000  -999.250000
 0.0000000000  -999.250000  -999.250000  -999.250000 2.4679999352  -999.250000
  -999.250000 11.270999908
 5459.5107422
 5.4419999123 5459.5000000  -999.250000 0.0949999988 228.84599304  -999.250000
 60.520000458 98.599998474 8.2840003967  -999.250000  -999.250000  -999.250000
 0.0000000000  -999.250000  -999.250000  -999.250000 2.4660000801  -999.250000
  -999.250000 11.383999825
 5460.0107422
 5.4809999466 5460.0000000  -999.250000 0.0949999988 230.40699768  -999.250000
 60.520000458 98.599998474 8.4549999237  -999.250000  -999.250000  -999.250000
 0.0000000000  -999.250000  -999.250000  -999.250000 2.4660000801  -999.250000
  -999.250000 11.220000267
