# LAS format log file from PETREL
# Project units are specified as depth units
#==================================================================
~Version information
VERS.   2.0:
WRAP.   YES:
#==================================================================
~Well
STRT .ft      4000.0080566 :
STOP .ft      5460.0107422 :
STEP .ft     0.00000000 :
NULL .        -999.250000 :
COMP.           : COMPANY
WELL.  ROBERTS UNIT WI-3724A   : WELL
FLD.            : FIELD
LOC.            : LOCATION
SRVC.           : SERVICE COMPANY
DATE.  Thursday, June 28 2007 12:58:20   : DATE
PROV.           : PROVINCE
UWI.   42501337600000   : UNIQUE WELL ID
API.            : API NUMBER
#==================================================================
~Curve
DEPT .ft                   : DEPTH
CALI .in                  : CALI
DEPT .ft                  : DEPT
DPHI .ft3/ft3             : DPHI
DRHO .g/cm3               : DRHO
EATT .                    : EATT
GR .gAPI                  : GR
LLD .ohm.m                : LLD
LLS .ohm.m                : LLS
MSFL .ohm.m               : MSFL
NPHI .ft3/ft3             : NPHI
NPHI_>8% .                : NPHI_>8%
PEF .                     : PEF
PERFFLAG .                : PERFFLAG
PHI_EFF_TRANSFORM .       : PHI_EFF_TRANSFORM
PHIDIFF .                 : PHIDIFF
PHIEFF_EST .              : PHIEFF_EST
RHOB .g/cm3               : RHOB
SW_NPHI .                 : SW_NPHI
SW_PHIEFF_EST .           : SW_PHIEFF_EST
TPL .                     : TPL
~Parameter
#==================================================================
~Ascii
# ...
 5160.0102539
 8.2510004044 5160.0000000 -0.035270538 0.0010000000 179.07400513 45.271148682
 343.39099121 290.79199219 607.84301758 0.0593186393  -999.250000 3.1921308041
 0.0000000000 0.0242204834 0.0945891812 0.0277889129 2.7699999809 0.3382399976
 0.8276031017 9.6079998016
 5160.5102539
 8.2899999619 5160.5000000 -0.037274551 0.0049999999 158.17199707 42.117542267
 358.60800171 308.10198975 257.32598877 0.0577154309  -999.250000 3.1973519325
 0.0000000000 0.0226874948 0.0949899778 0.0260521024 2.7780001163 0.3418617547
 0.8739377856 9.3690004349
 5161.0102539
 8.2899999619 5161.0000000 -0.033667330 0.0060000001 250.73300171 36.871868134
 261.65701294 237.03599548 455.82800293 0.0577154309  -999.250000 3.3012104034
 0.0000000000 0.0226874948 0.0913827568 0.0272545107 2.7630000114 0.4002158940
 0.9700665474 10.461000443
 5161.5102539
 8.2510004044 5161.5000000 -0.031262528 0.0060000001 207.32699585 32.182464600
 193.30299377 178.74400330 140.98399353 0.0605210401  -999.250000 3.3787181377
 0.0000000000 0.0253702179 0.0917835683 0.0299265161 2.7599999905 0.4402670264
 1.0106934309 10.173999786
 5162.0102539
 8.2510004044 5162.0000000 -0.026416469 0.0080000004 206.18600464 28.648981094
 135.44799805 125.43099976 313.41598511 0.0661322623  -999.250000 3.4561028481
 0.0000000000 0.0307356678 0.0925487280 0.0352826826 2.7620000839 0.4737082422
 0.9942051768 10.338000298
 5162.5102539
 8.2510004044 5162.5000000 -0.016032061 0.0140000004 212.98300171 25.957803726
 90.589996338 86.496002197 534.97198486 0.0708110109  -999.250000 3.5061430931
 0.0000000000 0.0352094881 0.0868430734 0.0418633185 2.7539999485 0.5343501568
 0.9935303926 9.9589996338
 5163.0102539
 8.3290004730 5163.0000000 0.0006012000 0.0120000001 263.12200928 23.789232254
 75.766998291 72.421997070 36.713001251 0.0773338974  -999.250000 3.5696089268
 0.0000000000 0.0414466746 0.0767327026 0.0517563336 2.7109999657 0.5265849829
 0.8458006978 11.060000420
 5163.5102539
 8.2899999619 5163.5000000 0.0100200400 0.0130000003 232.41200256 21.625085831
 75.958999634 72.757003784 13.720000267 0.0866649672  -999.250000 3.5506911278
 0.0000000000 0.0503690429 0.0766449273 0.0611166582 2.6860001087 0.4597692788
 0.6942678094 10.399000168
 5164.0102539
 8.1730003357 5164.0000000 0.0140280602 0.0219999999 248.90499878 19.352151871
 85.237998962 81.700996399 31.073999405 0.0800634325  -999.250000 3.4431231022
 0.0000000000 0.0440566503 0.0660353675 0.0580516383 2.6900000572 0.4765582979
 0.6964136362 10.864999771
 5164.5102539
 8.1339998245 5164.5000000 0.0156312604 0.0189999994 271.03601074 17.801477432
 105.40799713 99.163002014 237.05700684 0.0737474933  -999.250000 3.2892096043
 0.0000000000 0.0380173512 0.0581162311 0.0543754138 2.6849999428 0.4721787870
 0.6765083671 10.901000023
 5165.0102539
 8.1730003357 5165.0000000 0.0192384794 0.0240000002 276.62600708 18.170911789
 149.14599609 138.43099976 155.18600464 0.0685370713  -999.250000 3.2183878422
 0.0000000000 0.0330351479 0.0492985882 0.0521042049 2.6840000153 0.4327998161
 0.5980938077 11.758999825
 5165.5102539
 8.1730003357 5165.5000000 0.0248496998 0.0500000007 206.39399719 19.758695602
 156.30700684 143.31599426 59.057998657 0.0661322623  -999.250000 3.2588317394
 0.0000000000 0.0307356678 0.0412825607 0.0523714051 2.6749999523 0.4409689605
 0.5807170868 9.8959999084
 5166.0102539
 8.2119998932 5166.0000000 0.0276553109 0.0719999969 206.34300232 21.337163925
 124.35500336 115.86000061 173.26199341 0.0793199316  -999.250000 3.2745854855
 0.0000000000 0.0433457159 0.0516646206 0.0620983914 2.6630001068 0.3989167213
 0.5324987173 10.211999893
 5166.5102539
 8.2119998932 5166.5000000 0.0212424807 0.0920000002 165.17799377 22.277019501
 111.51000214 100.85099792 24.672000885 0.0932402387  -999.250000 3.1956071854
 0.0000000000 0.0566563159 0.0719977617 0.0692409873 2.6549999714 0.3480936587
 0.4945377707 9.3559999466
 5167.0102539
 8.3290004730 5167.0000000 -0.0000000000 0.1099999994 173.80099487 24.306581497
 113.09899902 100.38200378 30.819999695 0.1046092212  -999.250000 3.1206326485
 0.0000000000 0.0675273389 0.1046092212 0.0697394833 2.6960000992 0.3017609715
 0.4869123101 9.1660003662
 5167.5102539
 8.4069995880 5167.5000000 -0.028056109 0.1070000008 248.57000732 28.653053284
 121.60700226 106.16300201 21.531000137 0.1062124223  -999.250000 3.0467910767
 0.0000000000 0.0690603182 0.1342685372 0.0614562444 2.7490000725 0.2858372629
 0.5451271534 10.739000320
 5168.0102539
 8.4069995880 5168.0000000 -0.041683368 0.0890000015 201.82699585 32.251293182
 141.14999390 119.51399994 223.54400635 0.0953130871  -999.250000 2.9746594429
 0.0000000000 0.0586383753 0.1369964629 0.0496476032 2.7939999104 0.3014703095
 0.6508554816 10.515000343
 5168.5102539
 8.4069995880 5168.5000000 -0.038677350 0.0570000000 167.90400696 34.935070038
 185.17700195 150.69500732 2000.0000000 0.0882763416  -999.250000 2.9055082798
 0.0000000000 0.0519098379 0.1269536912 0.0459584445 2.7839999199 0.2881344557
 0.6224442124 9.6840000153
 5169.0102539
 8.3680000305 5169.0000000 -0.028256509 0.0240000002 228.54800415 34.091835022
 226.57299805 187.89599609 80.735000610 0.0793891996  -999.250000 2.7592375278
 0.0000000000 0.0434119515 0.1076457128 0.0435072966 2.7539999485 0.2952313423
 0.6003128886 10.425000191
 5169.5102539
 8.3680000305 5169.5000000 -0.024048099 0.0109999999 183.36399841 33.486938477
 164.23100281 136.97700500 234.90600586 0.0792445317  -999.250000 2.7120480537
 0.0000000000 0.0432736203 0.1032926291 0.0448136516 2.7439999580 0.3475150764
 0.6809154749 10.213000298
 5170.0102539
 8.3680000305 5170.0000000 -0.023053000 0.0209999997 177.31700134 32.488670349
 122.24900055 103.47399902 478.88400269 0.0793587193  -999.250000 2.7731244564
 0.0000000000 0.0433828086 0.1024117172 0.0452214815 2.7550001144 0.4021061063
 0.7808282375 10.012000084
 5170.5102539
 8.4069995880 5170.5000000 -0.018436870 0.0209999997 190.13600159 32.365768433
 106.61599731 91.624000549 290.87399292 0.0845691413  -999.250000 2.9156763554
 0.0000000000 0.0483650118 0.1030060127 0.0502338037 2.7469999790 0.3994512260
 0.7385815382 10.093000412
 5171.0102539
 8.4460000992 5171.0000000 -0.010020040 0.0170000009 230.93600464 33.018955231
 82.720001221 71.942001343 64.676002502 0.0917835683  -999.250000 3.0550301075
 0.0000000000 0.0552634485 0.1018036082 0.0578490347 2.7230000496 0.4117343426
 0.7098561525 10.512999535
 5171.5102539
 8.4460000992 5171.5000000 -0.009218440 0.0149999997 192.83200073 35.145957947
 76.667999268 67.154998779 36.501998901 0.0969939902  -999.250000 3.1944329739
 0.0000000000 0.0602456518 0.1062124297 0.0615898483 2.7209999561 0.4006997347
 0.6847895980 9.9980001450
 5172.0102539
 8.4849996567 5172.0000000 -0.016544200 0.0189999994 188.63000488 38.526344299
 84.766998291 72.617996216 30.385999680 0.0945891812  -999.250000 3.3382561207
 0.0000000000 0.0579461753 0.1111333817 0.0575447194 2.7279999256 0.3925352693
 0.7056106329 9.1780004501
 5172.5102539
 8.5240001678 5172.5000000 -0.025250500 0.0170000009 245.06300354 40.571018219
 85.172996521 73.055000305 108.12100220 0.0893787593  -999.250000 3.4117491245
 0.0000000000 0.0529639721 0.1146292612 0.0511690080 2.7460000515 0.4186754823
 0.8085479736 10.359999657
 5173.0102539
 8.5240001678 5173.0000000 -0.032865729 0.0340000018 200.79899597 37.803791046
 94.236999512 79.428001404 151.19700623 0.0837675408  -999.250000 3.4730398655
 0.0000000000 0.0475985222 0.1166332737 0.0448897816 2.7699999809 0.4296797514
 0.8970986605 10.173999786
 5173.5102539
 8.5629997253 5173.5000000 -0.030060120 0.0439999998 209.69799805 31.377407074
 105.12899780 87.512001038 284.48001099 0.0817635283  -999.250000 3.5182616711
 0.0000000000 0.0456822887 0.1118236482 0.0444889814 2.7739999294 0.4186039865
 0.8583923578 9.9589996338
 5174.0102539
 8.5240001678 5174.0000000 -0.023647290 0.0390000008 335.66900635 21.066852570
 102.00599670 84.318000793 20.746000290 0.0857362375  -999.250000 3.5358161926
 0.0000000000 0.0494809933 0.1093835309 0.0492750630 2.7379999161 0.4018260837
 0.7724530101 12.347999573
