# LAS format log file from PETREL
# Project units are specified as depth units
#==================================================================
~Version information
VERS.   2.0:
WRAP.   YES:
#==================================================================
~Well
STRT .ft      4000.0080566 :
STOP .ft      5460.0107422 :
STEP .ft     0.00000000 :
NULL .        -999.250000 :
COMP.           : COMPANY
WELL.  ROBERTS UNIT WI-3724A   : WELL
FLD.            : FIELD
LOC.            : LOCATION
SRVC.           : SERVICE COMPANY
DATE.  Thursday, June 28 2007 12:58:20   : DATE
PROV.           : PROVINCE
UWI.   42501337600000   : UNIQUE WELL ID
API.            : API NUMBER
#==================================================================
~Curve
DEPT .ft                   : DEPTH
CALI .in                  : CALI
DEPT .ft                  : DEPT
DPHI .ft3/ft3             : DPHI
DRHO .g/cm3               : DRHO
EATT .                    : EATT
GR .gAPI                  : GR
LLD .ohm.m                : LLD
LLS .ohm.m                : LLS
MSFL .ohm.m               : MSFL
NPHI .ft3/ft3             : NPHI
NPHI_>8% .                : NPHI_>8%
PEF .                     : PEF
PERFFLAG .                : PERFFLAG
PHI_EFF_TRANSFORM .       : PHI_EFF_TRANSFORM
PHIDIFF .                 : PHIDIFF
PHIEFF_EST .              : PHIEFF_EST
RHOB .g/cm3               : RHOB
SW_NPHI .                 : SW_NPHI
SW_PHIEFF_EST .           : SW_PHIEFF_EST
TPL .                     : TPL
~Parameter
#==================================================================
~Ascii
# ...
 4870.0097656
 8.3290004730 4870.0000000 -0.056684159 0.0350000001 201.76400757 16.293581009
 122.94499969 109.34300232 105.10199738 0.0332665294  -999.250000 3.2166237831
 0.0000000000 -0.000690544 0.0899506882 0.0032829666 2.8059999943 1.1185636520
 17.196304321 10.135999680
 4870.5097656
 8.2899999619 4870.5000000 -0.061519939 0.0450000018 196.79499817 15.492225647
 136.36000061 118.86699677 116.45099640 0.0332665294  -999.250000 3.2019550800
 0.0000000000 -0.000690544 0.0947864726 0.0016710400 2.8099999428 1.0621176958
 36.225719452 10.060999870
 4871.0097656
 8.2899999619 4871.0000000 -0.066769347 0.0500000007 196.02000427 15.612657547
 174.22000122 148.26199341 87.858001709 0.0324649289  -999.250000 3.1042189598
 0.0000000000 -0.001457034 0.0992342830 -0.000613163 2.8199999332 0.9670900702
  -999.250000 9.9980001450
 4871.5097656
 8.2899999619 4871.5000000 -0.072961822 0.0570000000 187.69099426 15.604580879
 194.73300171 163.96800232 150.77900696 0.0324649289  -999.250000 3.0432794094
 0.0000000000 -0.001457034 0.1054267511 -0.002677320 2.8410000801 0.9147368073
  -999.250000 9.9479999542
 4872.0097656
 8.2899999619 4872.0000000 -0.078523681 0.0460000001 174.32000732 16.051425934
 193.91600037 162.66400146 484.78601074 0.0324649289  -999.250000 3.1018676758
 0.0000000000 -0.001457034 0.1109886095 -0.004531273 2.8399999142 0.9166617393
  -999.250000 9.5450000763
 4872.5097656
 8.2899999619 4872.5000000 -0.072914727 0.0289999992 176.57499695 17.530649185
 167.99400330 145.94099426 227.05700684 0.0332665294  -999.250000 3.2245550156
 0.0000000000 -0.000690544 0.1061812565 -0.002127223 2.8239998817 0.9569059610
  -999.250000 9.7209997177
 4873.0097656
 8.2899999619 4873.0000000 -0.061731432 0.0170000009 192.87800598 20.738258362
 110.81099701 101.57499695 86.161003113 0.0480961911  -999.250000 3.2880823612
 0.0000000000 0.0134895770 0.1098276228 0.0114869829 2.7990000248 0.7626108527
 4.1319065094 9.9600000381
 4873.5097656
 8.2899999619 4873.5000000 -0.050501000 0.0130000003 216.37100220 25.481073380
 69.959999084 63.721000671 61.596000671 0.0533066094  -999.250000 3.2268383503
 0.0000000000 0.0184717812 0.1038076133 0.0187040735 2.7909998894 0.8500773311
 2.9253334999 10.324999809
 4874.0097656
 8.2899999619 4874.0000000 -0.044488981 0.0109999999 204.83900452 32.664703369
 59.472000122 53.469001770 58.084999084 0.0697394833  -999.250000 3.2202219963
 0.0000000000 0.0341848917 0.1142284572 0.0316633284 2.7760000229 0.6714657545
 1.7047944069 10.413999557
 4874.5097656
 8.2899999619 4874.5000000 -0.043286569 0.0120000001 237.43699646 40.022228241
 51.252998352 46.141998291 25.111999512 0.0809619203  -999.250000 3.2214646339
 0.0000000000 0.0449157879 0.1242484897 0.0395457558 2.7739999294 0.6065323949
 1.4126919508 10.954000473
 4875.0097656
 8.2899999619 4875.0000000 -0.046492990 0.0209999997 201.97999573 43.938446045
 49.036998749 43.772998810 55.021999359 0.0821643323  -999.250000 3.2254657745
 0.0000000000 0.0460655317 0.1286573261 0.0392785557 2.7850000858 0.6093919873
 1.4558597803 10.602999687
 4875.5097656
 8.2899999619 4875.5000000 -0.049298599 0.0219999999 222.19700623 42.161651611
 58.931999207 52.328998566 36.946998596 0.0723564774  -999.250000 3.2298746109
 0.0000000000 0.0366872661 0.1216550767 0.0318047851 2.7920000553 0.6458416581
 1.7036025524 10.652000427
 4876.0097656
 8.2899999619 4876.0000000 -0.050100200 0.0160000008 232.86099243 36.572368622
 73.489997864 65.810997009 44.840999603 0.0589178391  -999.250000 3.2353641987
 0.0000000000 0.0238372386 0.1090180427 0.0225784928 2.7969999313 0.7370206118
 2.2856557369 10.942000389
 4876.5097656
 8.2899999619 4876.5000000 -0.045783881 0.0149999997 180.07699585 29.139190674
 112.26599884 96.998001099 105.81800079 0.0454791896  -999.250000 3.2645390034
 0.0000000000 0.0109872017 0.0912630707 0.0150581663 2.7869999409 0.8093602657
 2.9825642109 9.8100004196
 4877.0097656
 8.2899999619 4877.0000000 -0.039617699 0.0120000001 182.79499817 21.921213150
 211.58999634 178.52499390 245.12100220 0.0312625282  -999.250000 3.3332743645
 0.0000000000 -0.002606769 0.0708802268 0.0076357867 2.7750000954 0.9175060987
 4.8413887024 9.8090000153
 4877.5097656
 8.2899999619 4877.5000000 -0.034030382 0.0120000001 169.33099365 16.630104065
 279.56298828 230.28199768 348.86801147 0.0334669314  -999.250000 3.2691795826
 0.0000000000 -0.000498922 0.0674973130 0.0109678265 2.7550001144 0.7365435362
 2.7472796440 9.5069999695
 4878.0097656
 8.2899999619 4878.0000000 -0.033212610 0.0240000002 157.55000305 14.595641136
 308.89099121 250.99400330 653.78002930 0.0352705382  -999.250000 3.1144182682
 0.0000000000 0.0012256904 0.0684831515 0.0124428235 2.7679998875 0.6586217880
 2.2520499229 9.2559995651
 4878.5097656
 8.2899999619 4878.5000000 -0.032426622 0.0270000007 166.85600281 14.347426414
 271.94900513 227.65400696 145.08700562 0.0360721387  -999.250000 3.0917122364
 0.0000000000 0.0019921802 0.0684987605 0.0132392198 2.7590000629 0.6835628152
 2.2307126522 9.5200004578
 4879.0097656
 8.2899999619 4879.0000000 -0.034081280 0.0230000000 178.92599487 16.064218521
 224.86700439 191.55700684 152.67599487 0.0368737504  -999.250000 3.1871802807
 0.0000000000 0.0027586797 0.0709550306 0.0132220732 2.7660000324 0.7324799299
 2.4569065571 9.5629997253
 4879.5097656
 8.3290004730 4879.5000000 -0.036873750 0.0289999992 163.16700745 19.059539795
 199.68200684 173.32800293 182.11099243 0.0368737504  -999.250000 3.3514125347
 0.0000000000 0.0027586797 0.0737475008 0.0122912498 2.7660000324 0.7773008347
 2.8417913914 8.8009996414
 4880.0097656
 8.3290004730 4880.0000000 -0.036272548 0.0260000005 185.14799500 21.316295624
 206.10499573 181.48800659 196.98800659 0.0390781611  -999.250000 3.3876545429
 0.0000000000 0.0048665367 0.0753507093 0.0139612565 2.7750000954 0.7144280672
 2.4067435265 9.1400003433
 4880.5097656
 8.3290004730 4880.5000000 -0.034669340 0.0099999998 172.07000732 24.052480698
 135.38800049 125.13999939 130.46099854 0.0418837704  -999.250000 3.3068275452
 0.0000000000 0.0075492607 0.0765531063 0.0163660664 2.7620000839 0.8122335076
 2.4617311954 9.3809995651
 4881.0097656
 8.3290004730 4881.0000000 -0.034669340 0.0089999996 176.01499939 28.036903381
 91.926002502 86.632003784 444.79699707 0.0478957891  -999.250000 3.3689727783
 0.0000000000 0.0132979546 0.0825651288 0.0203740802 2.7650001049 0.8414241076
 2.3070328236 9.7469997406
 4881.5097656
 8.3290004730 4881.5000000 -0.035663590 0.0070000002 171.88699341 30.904045105
 79.535003662 76.927001953 62.377998352 0.0525050089  -999.250000 3.5059721470
 0.0000000000 0.0177052896 0.0881685987 0.0231154766 2.7690000534 0.8116503358
 2.1369800568 9.4689998627
 4882.0097656
 8.3290004730 4882.0000000 -0.038284879 0.0060000001 257.92700195 31.597831726
 64.885002136 64.540000916 41.083000183 0.0577154309  -999.250000 3.6724812984
 0.0000000000 0.0226874948 0.0960003063 0.0257153269 2.7730000019 0.8036895990
 2.0863454342 11.381999969
 4882.5097656
 8.3290004730 4882.5000000 -0.047242641 0.0120000001 201.02299500 28.306692123
 60.113998413 59.644001007 117.33100128 0.0476953909  -999.250000 3.7122669220
 0.0000000000 0.0131063322 0.0949380323 0.0160493795 2.8059999943 1.0456708670
 3.7805626392 9.9720001221
 4883.0097656
 8.3290004730 4883.0000000 -0.066015907 0.0130000003 197.33500671 24.451940536
 73.342002869 73.426002502 54.581001282 0.0400801599  -999.250000 3.7173762321
 0.0000000000 0.0058246488 0.1060960665 0.0047148033 2.8250000477 1.1623899937
 14.525182724 9.8839998245
 4883.5097656
 8.3680000305 4883.5000000 -0.074537851 0.0109999999 214.98500061 22.259086609
 85.602996826 85.607002258 53.498001099 0.0309925191  -999.250000 3.6951408386
 0.0000000000 -0.002864952 0.1055303663 -0.004184270 2.8340001106 1.4573282003
  -999.250000 10.425999641
 4884.0097656
 8.3290004730 4884.0000000 -0.077592537 0.0109999999 186.97200012 20.126192093
 90.674003601 90.380996704 100.16699982 0.0254347492  -999.250000 3.7017579079
 0.0000000000 -0.008179292 0.1030272916 -0.008907680 2.8320000172 1.7878834009
  -999.250000 9.4809999466
