# LAS format log file from PETREL
# Project units are specified as depth units
#==================================================================
~Version information
VERS.   2.0:
WRAP.   YES:
#==================================================================
~Well
STRT .ft      4000.0080566 :
STOP .ft      5460.0107422 :
STEP .ft     0.00000000 :
NULL .        -999.250000 :
COMP.           : COMPANY
WELL.  ROBERTS UNIT WI-3724A   : WELL
FLD.            : FIELD
LOC.            : LOCATION
SRVC.           : SERVICE COMPANY
DATE.  Thursday, June 28 2007 12:58:20   : DATE
PROV.           : PROVINCE
UWI.   42501337600000   : UNIQUE WELL ID
API.            : API NUMBER
#==================================================================
~Curve
DEPT .ft                   : DEPTH
CALI .in                  : CALI
DEPT .ft                  : DEPT
DPHI .ft3/ft3             : DPHI
DRHO .g/cm3               : DRHO
EATT .                    : EATT
GR .gAPI                  : GR
LLD .ohm.m                : LLD
LLS .ohm.m                : LLS
MSFL .ohm.m               : MSFL
NPHI .ft3/ft3             : NPHI
NPHI_>8% .                : NPHI_>8%
PEF .                     : PEF
PERFFLAG .                : PERFFLAG
PHI_EFF_TRANSFORM .       : PHI_EFF_TRANSFORM
PHIDIFF .                 : PHIDIFF
PHIEFF_EST .              : PHIEFF_EST
RHOB .g/cm3               : RHOB
SW_NPHI .                 : SW_NPHI
SW_PHIEFF_EST .           : SW_PHIEFF_EST
TPL .                     : TPL
~Parameter
#==================================================================
~Ascii
# ...
 5058.5102539
 8.5629997253 5058.5000000 -0.007615230 0.0130000003 191.76300049 45.348442078
 1639.2889404 995.06701660 1878.5209961 0.0838575289 1.0000000000 3.4622294903
 1.0000000000 0.0476845689 0.0914727598 0.0533666089 2.7320001125 0.1028910503
 0.1753796041 10.010999680
 5059.0102539
 8.5240001678 5059.0000000 0.0012024000 0.0060000001 161.95899963 44.198886871
 1313.1180420 820.92901611 954.42999268 0.0891680196 1.0000000000 3.7106659412
 1.0000000000 0.0527624600 0.0879656225 0.0598461479 2.7149999142 0.1069267467
 0.1711710840 8.6619997025
 5059.5102539
 8.5240001678 5059.5000000 0.0164328702 0.0080000004 304.24200439 43.442508698
 1005.6409912 641.29998779 146.01800537 0.0944785029 1.0000000000 3.6723873615
 1.0000000000 0.0578403398 0.0780456290 0.0684632882 2.6800000668 0.1141223162
 0.1668873280 11.744999886
 5060.0102539
 8.4849996567 5060.0000000 0.0234686993 0.0060000001 190.02099609 42.277248383
 947.01599121 598.54199219 238.94400024 0.0977955908 1.0000000000 3.5980129242
 1.0000000000 0.0610121414 0.0743268877 0.0730199590 2.6619999409 0.1129092723
 0.1593842059 9.8210000992
 5060.5102539
 8.5240001678 5060.5000000 0.0228456892 0.0089999996 214.17399597 40.270931244
 967.68499756 616.19799805 84.109001160 0.0863727480 1.0000000000 3.5243113041
 1.0000000000 0.0500896238 0.0635270625 0.0651970655 2.6649999619 0.1293282658
 0.1802307665 10.489000320
 5061.0102539
 8.5240001678 5061.0000000 0.0126252500 0.0199999996 188.82099915 38.770805359
 781.48498535 528.56597900 67.531997681 0.0785571113 0.0000000000 3.4533910751
 1.0000000000 0.0426163077 0.0659318566 0.0565798245 2.6919999123 0.1609554887
 0.2370740473 9.6829996109
 5061.5102539
 8.5240001678 5061.5000000 -0.003006010 0.0419999994 180.17300415 37.762340546
 744.51702881 489.28399658 112.76599884 0.0777555108 0.0000000000 3.3829391003
 1.0000000000 0.0418498181 0.0807615221 0.0508350022 2.7139999866 0.1669109762
 0.2755976617 9.0270004272
 5062.0102539
 8.5240001678 5062.0000000 -0.013026050 0.0509999990 235.33000183 36.967365265
 644.54602051 430.26599121 187.75300598 0.0938161984 1.0000000000 3.3123102188
 1.0000000000 0.0572070517 0.1068422496 0.0582021177 2.7349998951 0.1437375396
 0.2524819076 11.119000435
 5062.5102539
 8.5240001678 5062.5000000 -0.017034071 0.0710000023 226.27000427 36.110248566
 502.45700073 335.86401367 90.669998169 0.1084168330 1.0000000000 3.2811222076
 1.0000000000 0.0711681694 0.1254508942 0.0665998608 2.7460000515 0.1372528672
 0.2439141572 10.526000023
 5063.0102539
 8.5240001678 5063.0000000 -0.011623250 0.0659999996 222.93600464 36.339500427
 432.10699463 292.48699951 96.723999023 0.1202404797 1.0000000000 3.3316946030
 1.0000000000 0.0824739486 0.1318637282 0.0762859061 2.7360000610 0.1309874058
 0.2240810245 10.362000465
 5063.5102539
 8.5240001678 5063.5000000 -0.000505670 0.0419999994 247.96699524 37.375251770
 409.59500122 281.97198486 127.25599670 0.1175839677 1.0000000000 3.4101991653
 1.0000000000 0.0799337924 0.1180896387 0.0782207549 2.6970000267 0.1381328255
 0.2234537750 10.663000107
 5064.0102539
 8.5240001678 5064.0000000 0.0032575999 0.0340000018 247.13299561 38.448577881
 391.83401489 271.58700562 57.955001831 0.1090392470 1.0000000000 3.3803689480
 1.0000000000 0.0717633292 0.1057816520 0.0737786964 2.7009999752 0.1543782651
 0.2447796762 11.319999695
 5064.5102539
 8.4849996567 5064.5000000 0.0016027500 0.0260000005 206.43400574 38.789890289
 418.55700684 291.11599731 45.081001282 0.0945915133 1.0000000000 3.2422223091
 1.0000000000 0.0579484031 0.0929887593 0.0635952577 2.7139999866 0.1766453236
 0.2822061777 10.199000359
 5065.0102539
 8.5240001678 5065.0000000 0.0027997000 0.0109999999 197.02499390 38.064525604
 400.89401245 275.50698853 44.935001373 0.0900878087 1.0000000000 3.1604466438
 1.0000000000 0.0536419638 0.0872881114 0.0609917715 2.7060000896 0.1911896169
 0.3029354811 9.7390003204
 5065.5102539
 8.5240001678 5065.5000000 0.0060120202 0.0120000001 212.02499390 37.365375519
 367.92700195 248.79699707 176.40600586 0.0893787593 1.0000000000 3.1373033524
 1.0000000000 0.0529639721 0.0833667368 0.0615898483 2.7019999027 0.2014409006
 0.3125959933 10.918000221
 5066.0102539
 8.5240001678 5066.0000000 0.0090031903 0.0219999999 165.42999268 36.381320953
 303.98001099 216.59800720 24.620000839 0.0968193263 1.0000000000 3.1170179844
 1.0000000000 0.0600786433 0.0878161415 0.0675472841 2.6940000057 0.2016634792
 0.3084076941 9.4189996719
 5066.5102539
 8.5240001678 5066.5000000 0.0124248499 0.0199999996 256.65798950 35.503936768
 207.19999695 151.70300293 73.239997864 0.1054999903 1.0000000000 3.1309535503
 1.0000000000 0.0683790892 0.0930751413 0.0744749457 2.6930000782 0.2207253724
 0.3329032958 9.7790002823
 5067.0102539
 8.4849996567 5067.0000000 0.0152304601 0.0149999997 173.43600464 34.944374084
 172.48399353 125.66999817 162.18299866 0.1141806468 1.0000000000 3.1437082291
 1.0000000000 0.0766795352 0.0989501923 0.0811972544 2.6800000668 0.2203694731
 0.3294972777 10.352999687
 5067.5102539
 8.4849996567 5067.5000000 0.0180360693 0.0219999999 210.51600647 33.913524628
 155.23699951 113.30500031 42.486000061 0.1178356707 1.0000000000 3.1563820839
 1.0000000000 0.0801744685 0.0997996032 0.0845691338 2.6870000362 0.2238106728
 0.3310376108 10.223999977
 5068.0102539
 8.5240001678 5068.0000000 0.0210638903 0.0089999996 223.89999390 31.598081589
 132.19299316 96.373001099 115.65499878 0.1134268492 1.0000000000 3.1688010693
 1.0000000000 0.0759587511 0.0923629627 0.0826391950 2.6719999313 0.2536974251
 0.3686389327 10.260999680
 5068.5102539
 8.4849996567 5068.5000000 0.0220440906 0.0060000001 235.37199402 29.105979919
 141.99699402 102.90200043 51.070999146 0.1108216420 1.0000000000 3.1629121304
 1.0000000000 0.0734676495 0.0887775496 0.0812291205 2.6730000973 0.2515871227
 0.3629823625 9.9320001602
 5069.0102539
 8.4849996567 5069.0000000 0.0186372697 0.0070000002 205.82000732 28.535499573
 169.53399658 120.05599976 47.895000458 0.1090180427 1.0000000000 3.1122140884
 1.0000000000 0.0717430487 0.0903807729 0.0788911134 2.6819999218 0.2347515821
 0.3438455760 9.9589996338
 5069.5102539
 8.4849996567 5069.5000000 0.0124248499 0.0099999998 215.15800476 30.746915817
 176.40199280 115.93699646 13.576000214 0.1080160290 1.0000000000 3.0453786850
 1.0000000000 0.0707849264 0.0955911800 0.0761523023 2.6909999847 0.2326575518
 0.3514368236 10.475999832
 5070.0102539
 8.5240001678 5070.0000000 0.0067134299 0.0089999996 313.70800781 34.653938293
 184.44099426 113.05000305 21.850000381 0.1102204397 1.0000000000 2.9984982014
 1.0000000000 0.0728927851 0.1035070121 0.0757181048 2.7030000687 0.2221707851
 0.3460195065 11.340000153
 5070.5102539
 8.5240001678 5070.5000000 0.0010019999 0.0120000001 197.09300232 37.610195160
 203.89100647 125.04000092 19.872999191 0.1142284572 1.0000000000 2.9171061516
 1.0000000000 0.0767252520 0.1132264584 0.0764863044 2.7070000172 0.2025873214
 0.3252049983 9.9600000381
 5071.0102539
 8.4849996567 5071.0000000 -0.002204410 0.0080000004 272.88299561 38.611839294
 199.23199463 131.54600525 7.9629998207 0.1148296595 1.0000000000 2.9141757488
 1.0000000000 0.0773001239 0.1170340702 0.0758183002 2.7149999142 0.2036768347
 0.3324084580 11.430999756
 5071.5102539
 8.5240001678 5071.5000000 -0.005714840 0.0109999999 353.36099243 40.124637604
 179.65400696 125.18299866 10.298999786 0.1146292612 1.0000000000 2.9349765778
 1.0000000000 0.0771084949 0.1203441024 0.0745145604 2.7239999771 0.2149304152
 0.3572909534 12.435000420
 5072.0102539
 8.5240001678 5072.0000000 -0.002784880 0.0099999998 299.88198853 43.395801544
 158.51499939 121.42900085 10.906000137 0.1211640686 1.0000000000 2.9228227139
 1.0000000000 0.0833570808 0.1239489466 0.0798477530 2.7249999046 0.2143229544
 0.3505741060 10.987000465
 5072.5102539
 8.5240001678 5072.5000000 0.0062089101 0.0080000004 381.53799438 46.590732574
 98.863998413 85.083999634 15.593999863 0.1342336833 1.0000000000 2.9820735455
 1.0000000000 0.0958542451 0.1280247718 0.0915587544 2.6970000267 0.2404857427
 0.3777113557 13.784000397
