# LAS format log file from PETREL
# Project units are specified as depth units
#==================================================================
~Version information
VERS.   2.0:
WRAP.   YES:
#==================================================================
~Well
STRT .ft      4000.0080566 :
STOP .ft      5460.0107422 :
STEP .ft     0.00000000 :
NULL .        -999.250000 :
COMP.           : COMPANY
WELL.  ROBERTS UNIT WI-3724A   : WELL
FLD.            : FIELD
LOC.            : LOCATION
SRVC.           : SERVICE COMPANY
DATE.  Thursday, June 28 2007 12:58:20   : DATE
PROV.           : PROVINCE
UWI.   42501337600000   : UNIQUE WELL ID
API.            : API NUMBER
#==================================================================
~Curve
DEPT .ft                   : DEPTH
CALI .in                  : CALI
DEPT .ft                  : DEPT
DPHI .ft3/ft3             : DPHI
DRHO .g/cm3               : DRHO
EATT .                    : EATT
GR .gAPI                  : GR
LLD .ohm.m                : LLD
LLS .ohm.m                : LLS
MSFL .ohm.m               : MSFL
NPHI .ft3/ft3             : NPHI
NPHI_>8% .                : NPHI_>8%
PEF .                     : PEF
PERFFLAG .                : PERFFLAG
PHI_EFF_TRANSFORM .       : PHI_EFF_TRANSFORM
PHIDIFF .                 : PHIDIFF
PHIEFF_EST .              : PHIEFF_EST
RHOB .g/cm3               : RHOB
SW_NPHI .                 : SW_NPHI
SW_PHIEFF_EST .           : SW_PHIEFF_EST
TPL .                     : TPL
~Parameter
#==================================================================
~Ascii
# ...
 4971.5097656
 8.7580003738 4971.5000000 0.0184368696 0.0080000004 183.70899963 43.275432587
 267.76098633 261.55599976 326.02398682 0.1050375775 1.0000000000 3.0351071358
 1.0000000000 0.0679369345 0.0866007134 0.0761706755 2.6689999104 0.1951751858
 0.2851686180 9.3549995422
 4972.0097656
 8.7580003738 4972.0000000 0.0281243902 0.0140000004 143.02699280 45.663028717
 623.90100098 549.08197021 448.92401123 0.1080360711 1.0000000000 3.0945897102
 1.0000000000 0.0708040893 0.0799116790 0.0813988447 2.7019999027 0.1236847043
 0.1727418751 9.2320003510
 4972.5097656
 8.7969999313 4972.5000000 0.0484681800 0.0099999998 150.31799316 47.948768616
 793.68798828 748.72399902 791.01800537 0.1120340675 1.0000000000 3.1549646854
 1.0000000000 0.0746269748 0.0635658875 0.0908454433 2.6570000648 0.1050574780
 0.1345434040 9.0039997101
 4973.0097656
 8.7969999313 4973.0000000 0.0645290613 0.0070000002 140.56799316 49.740146637
 594.46997070 561.50500488 646.19000244 0.1160320565 1.0000000000 3.1736967564
 1.0000000000 0.0784498528 0.0515029989 0.0988643914 2.6089999676 0.1164710522
 0.1406931430 8.8020000458
 4973.5097656
 8.7969999313 4973.5000000 0.0705410764 0.0049999999 154.44900513 47.774829865
 393.81100464 395.81900024 439.77099609 0.1202404797 1.0000000000 3.1073269844
 1.0000000000 0.0824739486 0.0496993996 0.1036740169 2.5769999027 0.1372085810
 0.1634370834 8.7760000229
 4974.0097656
 8.7969999313 4974.0000000 0.0561826490 0.0049999999 207.75100708 44.108783722
 332.42599487 331.35699463 210.21699524 0.1194388792 1.0000000000 3.0381753445
 1.0000000000 0.0817074552 0.0632562265 0.0983534679 2.6099998951 0.1505239308
 0.1892978549 9.5550003052
 4974.5097656
 8.7969999313 4974.5000000 0.0403244682 0.0040000002 188.79200745 41.368701935
 319.14401245 319.80599976 34.269001007 0.1193890870 1.0000000000 2.9773685932
 1.0000000000 0.0816598460 0.0790646225 0.0930342153 2.6359999180 0.1536998302
 0.2062971741 9.5310001373
 4975.0097656
 8.8360004425 4975.0000000 0.0260521006 0.0040000002 172.50799561 43.458465576
 348.43600464 338.83499146 143.21499634 0.1221706197 1.0000000000 3.0210411549
 1.0000000000 0.0843195468 0.0961185172 0.0901311114 2.6630001068 0.1431537420
 0.2049610317 9.5579996109
 4975.5097656
 8.8360004425 4975.5000000 0.0272545107 0.0080000004 160.42700195 47.524314880
 399.76098633 380.88198853 255.61599731 0.1252514869 1.0000000000 3.0711851120
 1.0000000000 0.0872654766 0.0979969800 0.0925858319 2.6749999523 0.1297779679
 0.1853797287 9.1920003891
 4976.0097656
 8.8360004425 4976.0000000 0.0348697416 0.0010000000 171.26300049 50.296787262
 443.07400513 412.39401245 207.40899658 0.1286368817 1.0000000000 3.1212983131
 1.0000000000 0.0905025825 0.0937671363 0.0973811671 2.6630001068 0.1194525957
 0.1659000069 10.201999664
 4976.5097656
 8.8750000000 4976.5000000 0.0424592793 0.0030000000 176.70399475 50.553371429
 451.01901245 433.27200317 92.023002625 0.1294589192 1.0000000000 3.1712415218
 1.0000000000 0.0912886187 0.0869996399 0.1004590392 2.6540000439 0.1175091937
 0.1585041136 9.9490003586
 4977.0097656
 8.9139995575 4977.0000000 0.0438687988 0.0070000002 181.50399780 47.963314056
 466.19799805 438.65701294 124.40000153 0.1296593249 1.0000000000 3.2158169746
 1.0000000000 0.0914802402 0.0857905224 0.1010624766 2.6459999084 0.1153696030
 0.1548045278 10.251000404
 4977.5097656
 8.9139995575 4977.5000000 0.0445220582 0.0049999999 187.74899292 43.510650635
 525.04199219 473.74499512 550.05798340 0.1310621202 1.0000000000 3.2167336941
 1.0000000000 0.0928215981 0.0865400583 0.1022154316 2.6370000839 0.1073408201
 0.1439323872 10.237999916
 4978.0097656
 8.9139995575 4978.0000000 0.0413986407 0.0030000000 182.94700623 38.619155884
 698.04602051 608.47497559 198.50100708 0.1294589192 1.0000000000 3.2166302204
 1.0000000000 0.0912886187 0.0880602822 0.1001054943 2.6400001049 0.0944554955
 0.1279389113 9.8470001221
 4978.5097656
 8.9139995575 4978.5000000 0.0319438912 0.0060000001 180.08399963 34.288631439
 928.94000244 754.92199707 725.93798828 0.1254508942 1.0000000000 3.2159833908
 1.0000000000 0.0874561518 0.0935070068 0.0942818969 2.6540000439 0.0849751830
 0.1190325543 9.9230003357
 4979.0097656
 8.9139995575 4979.0000000 0.0195190404 0.0030000000 159.12300110 30.620708466
 1133.9580078 878.94000244 274.01800537 0.0859719366 1.0000000000 3.2312893867
 1.0000000000 0.0497063696 0.0664528981 0.0638209730 2.6700000763 0.1201283708
 0.1707378030 10.468000412
 4979.5097656
 8.9919996262 4979.5000000 0.0070941900 -0.003000000 172.13999939 28.055500031
 1358.4859619 1046.4680176 59.363998413 0.0799599215 0.0000000000 3.5732719898
 1.0000000000 0.0439576767 0.0728657320 0.0556713417 2.6809999943 0.1195550859
 0.1832787097 9.4569997787
 4980.0097656
 8.9530000687 4980.0000000 -0.005611220 -0.002000000 155.11700439 26.680803299
 1508.4570313 1095.2130127 184.09899902 0.0733466893 0.0000000000 3.9562773705
 1.0000000000 0.0376341045 0.0789579079 0.0470273867 2.7039999962 0.1256231070
 0.2122484595 9.2180004120
 4980.5097656
 8.9530000687 4980.5000000 -0.011010090 -0.002000000 185.40100098 26.082775116
 1597.1500244 1146.8809814 101.82199860 0.0665330663 0.0000000000 4.0537948608
 1.0000000000 0.0311189219 0.0775431618 0.0406853482 2.7309999466 0.1369707435
 0.2447232604 9.8719997406
 4981.0097656
 9.0310001373 4981.0000000 -0.029414169 0.0000000000 154.12800598 25.890159607
 1837.0670166 1304.1140137 569.42102051 0.0577154309 0.0000000000 4.0689592361
 1.0000000000 0.0226874948 0.0871296003 0.0286722295 2.7569999695 0.1510421038
 0.3448402584 8.2589998245
 4981.5097656
 9.0699996948 4981.5000000 -0.021076281 0.0049999999 162.00599670 25.924047470
 2140.2109375 1413.2399902 880.74700928 0.0577154309 0.0000000000 3.8689818382
 1.0000000000 0.0226874948 0.0787917078 0.0314515270 2.7699999809 0.1399368942
 0.2864438295 9.1099996567
 4982.0097656
 9.0699996948 4982.0000000 -0.001703410 0.0070000002 143.21699524 25.714275360
 1796.0699463 1188.4260254 1609.0830078 0.0787442103 0.0000000000 3.7149736881
 1.0000000000 0.0427952148 0.0804476216 0.0519283377 2.7269999981 0.1058730409
 0.1730398685 8.8280000687
 4982.5097656
 9.0310001373 4982.5000000 0.0175851695 0.0070000002 154.18899536 25.946958542
 1305.2130127 932.88000488 1038.6149902 0.0988171399 1.0000000000 3.5604991913
 1.0000000000 0.0619889498 0.0812319666 0.0717398152 2.6860001087 0.0950040743
 0.1386267990 9.4829998016
 4983.0097656
 9.0310001373 4983.0000000 0.0368737504 0.0070000002 173.65299988 26.733636856
 976.39898682 702.28302002 1132.5400391 0.1092346311 1.0000000000 3.3948361874
 1.0000000000 0.0719501525 0.0723608807 0.0851143375 2.6449999809 0.0975901857
 0.1309990436 9.8859996796
 4983.5097656
 9.0310001373 4983.5000000 0.0441140309 0.0080000004 176.31500244 28.365943909
 727.32098389 541.97601318 422.08099365 0.1140197814 1.0000000000 3.3156611919
 1.0000000000 0.0765257105 0.0699057505 0.0907178670 2.6370000839 0.1074942648
 0.1407811195 9.7340002060
 4984.0097656
 9.0310001373 4984.0000000 0.0512888618 0.0099999998 158.78999329 29.599935532
 619.87799072 467.68499756 441.27099609 0.1188049316 1.0000000000 3.2759807110
 1.0000000000 0.0811012760 0.0675160736 0.0962995738 2.6380000114 0.1109244376
 0.1421199888 9.7229995728
 4984.5097656
 9.0699996948 4984.5000000 0.0592375509 0.0060000001 164.83700562 30.338533401
 474.20300293 384.59201050 446.34500122 0.1202404797 1.0000000000 3.3073987961
 1.0000000000 0.0824739486 0.0610029288 0.0999061689 2.6199998856 0.1250382960
 0.1555908024 9.4820003510
 4985.0097656
 9.0699996948 4985.0000000 0.0625096783 0.0040000002 170.56100464 31.044551849
 429.17700195 350.07101440 865.04699707 0.1202404797 1.0000000000 3.3165073395
 1.0000000000 0.0824739486 0.0577308014 0.1009968817 2.6089999676 0.1314337701
 0.1614668518 9.9370002747
 4985.5097656
 9.0699996948 4985.5000000 0.0648888126 0.0000000000 170.47300720 31.266990662
 389.50500488 336.80801392 260.76699829 0.1194388792 1.0000000000 3.3165898323
 1.0000000000 0.0817074552 0.0545500703 0.1012555212 2.5929999352 0.1390581727
 0.1689796448 9.5200004578
