# LAS format log file from PETREL
# Project units are specified as depth units
#==================================================================
~Version information
VERS.   2.0:
WRAP.   YES:
#==================================================================
~Well
STRT .ft      4000.0080566 :
STOP .ft      5460.0107422 :
STEP .ft     0.00000000 :
NULL .        -999.250000 :
COMP.           : COMPANY
WELL.  ROBERTS UNIT WI-3724A   : WELL
FLD.            : FIELD
LOC.            : LOCATION
SRVC.           : SERVICE COMPANY
DATE.  Thursday, June 28 2007 12:58:20   : DATE
PROV.           : PROVINCE
UWI.   42501337600000   : UNIQUE WELL ID
API.            : API NUMBER
#==================================================================
~Curve
DEPT .ft                   : DEPTH
CALI .in                  : CALI
DEPT .ft                  : DEPT
DPHI .ft3/ft3             : DPHI
DRHO .g/cm3               : DRHO
EATT .                    : EATT
GR .gAPI                  : GR
LLD .ohm.m                : LLD
LLS .ohm.m                : LLS
MSFL .ohm.m               : MSFL
NPHI .ft3/ft3             : NPHI
NPHI_>8% .                : NPHI_>8%
PEF .                     : PEF
PERFFLAG .                : PERFFLAG
PHI_EFF_TRANSFORM .       : PHI_EFF_TRANSFORM
PHIDIFF .                 : PHIDIFF
PHIEFF_EST .              : PHIEFF_EST
RHOB .g/cm3               : RHOB
SW_NPHI .                 : SW_NPHI
SW_PHIEFF_EST .           : SW_PHIEFF_EST
TPL .                     : TPL
~Parameter
#==================================================================
~Ascii
# ...
 5348.5107422
 8.0170001984 5348.5000000 -0.042437930 0.0500000007 220.98899841 28.737474442
 100.09200287 100.98999786 38.198001862 0.0460921787  -999.250000 3.2860946655
 0.0000000000 0.0115733426 0.0885301083 0.0165821426 2.7990000248 0.8437332511
 2.8190925121 10.892000198
 5349.0107422
 8.0170001984 5349.0000000 -0.044535730 0.0450000018 321.41000366 27.566558838
 122.19200134 121.36699677 50.724998474 0.0396793596  -999.250000 3.4240477085
 0.0000000000 0.0054414039 0.0842150897 0.0116076637 2.7809998989 0.9112914801
 3.8865544796 11.781000137
 5349.5107422
 7.9390001297 5349.5000000 -0.036922321 0.0270000007 181.62600708 26.274051666
 152.56900024 149.47700500 56.243999481 0.0384769514  -999.250000 3.5637340546
 0.0000000000 0.0042916597 0.0753992721 0.0133438604 2.7620000839 0.8456975818
 2.9506635666 9.8979997635
 5350.0107422
 7.9780001640 5350.0000000 -0.042459141 0.0280000009 204.65400696 24.984130859
 180.86900330 175.97300720 202.87800598 0.0434749797  -999.250000 3.6034343243
 0.0000000000 0.0090707755 0.0859341174 0.0148302736 2.7679998875 0.6724816561
 2.3924722672 10.034999847
 5350.5107422
 8.0170001984 5350.5000000 -0.053707410 0.0560000017 186.78199768 23.834121704
 168.15400696 163.44799805 321.48599243 0.0497037917  -999.250000 3.5345566273
 0.0000000000 0.0150267640 0.1034111977 0.0152333900 2.8120000362 0.5955137610
 2.4039833546 10.048999786
 5351.0107422
 8.0170001984 5351.0000000 -0.065330662 0.0489999987 200.26100159 23.274654388
 170.45700073 166.26499939 112.87000275 0.0559721105  -999.250000 3.2630357742
 0.0000000000 0.0210205317 0.1213027686 0.0155378534 2.8239998817 0.5141276717
 2.3325779438 10.470999718
 5351.5107422
 8.0170001984 5351.5000000 -0.062925853 0.0340000018 217.96200562 23.529537201
 151.07800293 147.90199280 95.654998779 0.0622316711  -999.250000 3.1385321617
 0.0000000000 0.0270059220 0.1251575202 0.0205124971 2.8110001087 0.4818932712
 1.7852643728 10.727999687
 5352.0107422
 8.0559997559 5352.0000000 -0.056913830 0.0280000009 198.87199402 25.050254822
 126.43299866 123.20899963 173.81199646 0.0628313869  -999.250000 3.3722686768
 0.0000000000 0.0275793746 0.1197452173 0.0229163170 2.7969999313 0.5208423734
 1.7123159170 10.211999893
 5352.5107422
 8.1339998245 5352.5000000 -0.040080160 0.0289999992 202.92199707 28.307889938
 127.13500214 123.90000153 164.39100647 0.0608616099  -999.250000 3.4779665470
 0.0000000000 0.0256958716 0.1009417698 0.0272143539 2.7709999084 0.5392959714
 1.3940899372 10.741999626
 5353.0107422
 8.0950002670 5353.0000000 -0.027254511 0.0340000018 209.40499878 31.955701828
 114.08000183 111.77700043 151.02600098 0.0589247905  -999.250000 3.4750132561
 0.0000000000 0.0238438845 0.0861793011 0.0301983561 2.7490000725 0.5914643407
 1.3016670942 10.628000259
 5353.5107422
 8.0170001984 5353.5000000 -0.017635269 0.0570000000 194.93699646 35.061595917
 104.45200348 102.07299805 256.66198730 0.0611082800  -999.250000 3.4052362442
 0.0000000000 0.0259317365 0.0787435472 0.0348604284 2.7309999466 0.5921456814
 1.1483492851 10.250000000
 5354.0107422
 7.9780001640 5354.0000000 -0.015631260 0.0839999989 199.44299316 36.158313751
 112.15100098 110.76499939 199.84899902 0.0681416616  -999.250000 3.3324415684
 0.0000000000 0.0326570570 0.0837729201 0.0402173549 2.7360000610 0.5025235415
 0.9362148046 10.427000046
 5354.5107422
 8.0170001984 5354.5000000 -0.026187630 0.0900000036 232.33500671 36.125148773
 106.66600037 104.64700317 125.29100037 0.0751750395  -999.250000 3.2872960567
 0.0000000000 0.0393823721 0.1013626680 0.0413874835 2.7460000515 0.4588862658
 0.9280397296 10.828000069
 5355.0107422
 8.0950002670 5355.0000000 -0.042954549 0.0920000002 249.60099792 36.369560242
 96.418998718 93.404998779 294.20001221 0.0822084099  -999.250000 3.2510409355
 0.0000000000 0.0461076833 0.1251629591 0.0404874235 2.7899999619 0.4343127012
 1.0017651320 11.269000053
 5355.5107422
 8.0950002670 5355.5000000 -0.054695211 0.0939999968 179.82800293 37.254089355
 77.685997009 76.087997437 54.148998260 0.0892417878  -999.250000 3.2012917995
 0.0000000000 0.0528329983 0.1439370066 0.0412627906 2.8199999332 0.4391805232
 1.0913259983 10.012000084
 5356.0107422
 8.0950002670 5356.0000000 -0.049258519 0.0599999987 230.07899475 37.152435303
 62.171001434 61.896999359 83.175003052 0.0962314829  -999.250000 3.1554517746
 0.0000000000 0.0595165417 0.1454900056 0.0477348119 2.7850000858 0.4491349161
 1.0272247791 10.159000397
 5356.5107422
 8.0559997559 5356.5000000 -0.034468941 0.0160000008 243.44999695 36.036891937
 56.326999664 56.865001678 15.364999771 0.1023361981  -999.250000 3.1560494900
 0.0000000000 0.0653538778 0.1368051469 0.0567344874 2.7490000725 0.4388257861
 0.8802115917 11.055000305
 5357.0107422
 8.0950002670 5357.0000000 -0.032064129 0.0109999999 285.79199219 33.907936096
 51.018001556 51.615001678 14.076999664 0.0985359773  -999.250000 3.1564061642
 0.0000000000 0.0617201030 0.1306001097 0.0550026111 2.7620000839 0.4821491241
 0.9593365788 11.758999825
 5357.5107422
 8.1339998245 5357.5000000 -0.032665331 0.0160000008 355.74600220 32.145046234
 42.717998505 43.337001801 56.007999420 0.0997387916  -999.250000 3.1564261913
 0.0000000000 0.0628702343 0.1324041188 0.0556040816 2.7760000229 0.5194215178
 1.0350316763 12.555000305
 5358.0107422
 8.2119998932 5358.0000000 -0.022633800 0.0060000001 240.91700745 32.155162811
 41.117000580 41.333999634 26.395000458 0.1025394127  -999.250000 3.1560399532
 0.0000000000 0.0655481815 0.1251732111 0.0608150065 2.7460000515 0.5124165416
 0.9491647482 11.055000305
 5358.5107422
 8.3290004730 5358.5000000 -0.011222440 0.0020000001 286.82598877 33.879947662
 38.851001740 39.472999573 22.347999573 0.1025647298  -999.250000 3.1545102596
 0.0000000000 0.0655723959 0.1137871668 0.0646356717 2.7149999142 0.5269946456
 0.9087127447 11.557000160
 5359.0107422
 8.2899999619 5359.0000000 -0.004809620 0.0120000001 294.61898804 35.903526306
 34.625999451 34.994998932 19.405000687 0.1010214388  -999.250000 3.1761095524
 0.0000000000 0.0640967041 0.1058310568 0.0657444224 2.7200000286 0.5682976246
 0.9434314370 11.605999947
 5359.5107422
 8.2510004044 5359.5000000 -0.003607210 0.0199999996 240.81399536 35.429748535
 37.916000366 37.639999390 27.617000580 0.0978500620  -999.250000 3.2021856308
 0.0000000000 0.0610642284 0.1014572680 0.0640309677 2.7190001011 0.5639123917
 0.9301081300 10.777000427
 5360.0107422
 8.2510004044 5360.0000000 -0.001309090 0.0250000004 268.19000244 32.592731476
 42.216999054 41.852001190 30.760999680 0.0949899778  -999.250000 3.2215299606
 0.0000000000 0.0583294183 0.0962990671 0.0628902912 2.7119998932 0.5534539819
 0.9003527164 11.204000473
 5360.5107422
 8.0950002670 5360.5000000 -0.000526780 0.0379999988 275.54598999 28.670957565
 42.564998627 42.207000732 59.474998474 0.0907815620  -999.250000 3.2202064991
 0.0000000000 0.0543053262 0.0913083404 0.0603454448 2.7100000381 0.5814621449
 0.9414519668 11.114999771
 5361.0107422
 8.0950002670 5361.0000000 0.0001040000 0.0469999984 242.71099854 25.699495316
 48.375000000 47.723999023 71.358001709 0.0817635283  -999.250000 3.2199993134
 0.0000000000 0.0456822887 0.0816595331 0.0545436852 2.7049999237 0.6170980334
 0.9949837923 11.180999756
 5361.5107422
 7.9390001297 5361.5000000 -0.007869860 0.0460000001 240.59899902 24.071151733
 60.599998474 60.299999237 67.793998718 0.0813627318  -999.250000 3.2691655159
 0.0000000000 0.0452990420 0.0892325863 0.0516185351 2.7179999352 0.5545575023
 0.9487199187 10.701000214
 5362.0107422
 7.9780001640 5362.0000000 -0.020784430 0.0560000017 265.63500977 23.111940384
 64.896003723 63.460998535 131.53100586 0.0902357325  -999.250000 3.3358716965
 0.0000000000 0.0537834056 0.1110201627 0.0532290116 2.7490000725 0.4742740393
 0.8841397762 11.380999565
 5362.5107422
 8.0170001984 5362.5000000 -0.034468941 0.0500000007 197.08500671 22.667369843
 60.962001801 59.318000793 69.319000244 0.0918459520  -999.250000 3.3036465645
 0.0000000000 0.0553230979 0.1263148934 0.0497409850 2.7769999504 0.4792306423
 0.9881716967 10.288000107
