# LAS format log file from PETREL
# Project units are specified as depth units
#==================================================================
~Version information
VERS.   2.0:
WRAP.   YES:
#==================================================================
~Well
STRT .ft      4000.0080566 :
STOP .ft      5460.0107422 :
STEP .ft     0.00000000 :
NULL .        -999.250000 :
COMP.           : COMPANY
WELL.  ROBERTS UNIT WI-3724A   : WELL
FLD.            : FIELD
LOC.            : LOCATION
SRVC.           : SERVICE COMPANY
DATE.  Thursday, June 28 2007 12:58:20   : DATE
PROV.           : PROVINCE
UWI.   42501337600000   : UNIQUE WELL ID
API.            : API NUMBER
#==================================================================
~Curve
DEPT .ft                   : DEPTH
CALI .in                  : CALI
DEPT .ft                  : DEPT
DPHI .ft3/ft3             : DPHI
DRHO .g/cm3               : DRHO
EATT .                    : EATT
GR .gAPI                  : GR
LLD .ohm.m                : LLD
LLS .ohm.m                : LLS
MSFL .ohm.m               : MSFL
NPHI .ft3/ft3             : NPHI
NPHI_>8% .                : NPHI_>8%
PEF .                     : PEF
PERFFLAG .                : PERFFLAG
PHI_EFF_TRANSFORM .       : PHI_EFF_TRANSFORM
PHIDIFF .                 : PHIDIFF
PHIEFF_EST .              : PHIEFF_EST
RHOB .g/cm3               : RHOB
SW_NPHI .                 : SW_NPHI
SW_PHIEFF_EST .           : SW_PHIEFF_EST
TPL .                     : TPL
~Parameter
#==================================================================
~Ascii
# ...
 4580.0092773
 8.8750000000 4580.0000000  -999.250000 0.0099999998 285.59201050  -999.250000
 64.360000610 74.000000000 16.656999588  -999.250000  -999.250000  -999.250000
 0.0000000000  -999.250000  -999.250000  -999.250000 2.8320000172  -999.250000
  -999.250000 11.076999664
 4580.5092773
 8.8750000000 4580.5000000  -999.250000 0.0140000004 218.74299622  -999.250000
 78.948997498 87.510002136 560.33099365  -999.250000  -999.250000  -999.250000
 0.0000000000  -999.250000  -999.250000  -999.250000 2.8759999275  -999.250000
  -999.250000 10.222999573
 4581.0092773
 8.8750000000 4581.0000000  -999.250000 0.0140000004 148.08900452  -999.250000
 184.38400269 183.96200562 1000.9619751  -999.250000  -999.250000  -999.250000
 0.0000000000  -999.250000  -999.250000  -999.250000 2.9130001068  -999.250000
  -999.250000 8.5749998093
 4581.5092773
 8.9139995575 4581.5000000  -999.250000 0.0070000002 135.34599304  -999.250000
 937.37902832 823.39202881 2000.0000000  -999.250000  -999.250000  -999.250000
 0.0000000000  -999.250000  -999.250000  -999.250000 2.9400000572  -999.250000
  -999.250000 9.0930004120
 4582.0092773
 8.9530000687 4582.0000000  -999.250000 0.0060000001 135.67399597  -999.250000
 2366.9499512 1698.5889893 1851.4820557  -999.250000  -999.250000  -999.250000
 0.0000000000  -999.250000  -999.250000  -999.250000 2.9440000057  -999.250000
  -999.250000 8.1079998016
 4582.5092773
 8.9530000687 4582.5000000  -999.250000 0.0080000004 145.27799988  -999.250000
 16802.925781 5527.8217773 1723.2750244  -999.250000  -999.250000  -999.250000
 0.0000000000  -999.250000  -999.250000  -999.250000 2.9749999046  -999.250000
  -999.250000 8.3100004196
 4583.0092773
 8.9919996262 4583.0000000  -999.250000 0.0040000002 131.53399658  -999.250000
 11128.890625 4766.3769531 2000.0000000  -999.250000  -999.250000  -999.250000
 0.0000000000  -999.250000  -999.250000  -999.250000 2.9700000286  -999.250000
  -999.250000 8.2729997635
 4583.5092773
 8.9919996262 4583.5000000  -999.250000 0.0030000000 122.83699799  -999.250000
 3050.7700195 2483.8139648 1930.6669922  -999.250000  -999.250000  -999.250000
 0.0000000000  -999.250000  -999.250000  -999.250000 2.9500000477  -999.250000
  -999.250000 8.7659997940
 4584.0092773
 9.0310001373 4584.0000000  -999.250000 0.0049999999 154.61399841  -999.250000
 1409.3620605 1416.5739746 1706.6090088  -999.250000  -999.250000  -999.250000
 0.0000000000  -999.250000  -999.250000  -999.250000 2.9119999409  -999.250000
  -999.250000 9.0410003662
 4584.5092773
 9.0310001373 4584.5000000  -999.250000 0.0030000000 151.03399658  -999.250000
 723.85900879 789.45599365 1198.7709961  -999.250000  -999.250000  -999.250000
 0.0000000000  -999.250000  -999.250000  -999.250000 2.8959999084  -999.250000
  -999.250000 9.1300001144
 4585.0092773
 9.0310001373 4585.0000000  -999.250000 0.0020000001 156.28100586  -999.250000
 311.28298950 358.35900879 397.83401489  -999.250000  -999.250000  -999.250000
 0.0000000000  -999.250000  -999.250000  -999.250000 2.8789999485  -999.250000
  -999.250000 9.3690004349
 4585.5092773
 9.0699996948 4585.5000000  -999.250000 0.0020000001 157.64799500  -999.250000
 231.02200317 260.45300293 301.92199707  -999.250000  -999.250000  -999.250000
 0.0000000000  -999.250000  -999.250000  -999.250000 2.8729999065  -999.250000
  -999.250000 9.2180004120
 4586.0092773
 9.0699996948 4586.0000000  -999.250000 0.0020000001 179.16700745  -999.250000
 231.12699890 263.86199951 90.752998352  -999.250000  -999.250000  -999.250000
 0.0000000000  -999.250000  -999.250000  -999.250000 2.8699998856  -999.250000
  -999.250000 9.6829996109
 4586.5092773
 9.1090002060 4586.5000000  -999.250000 0.0030000000 246.83000183  -999.250000
 218.94200134 247.76499939 163.40600586  -999.250000  -999.250000  -999.250000
 0.0000000000  -999.250000  -999.250000  -999.250000 2.9030001163  -999.250000
  -999.250000 10.473999977
 4587.0092773
 9.1090002060 4587.0000000  -999.250000 0.0030000000 136.89500427  -999.250000
 295.60699463 327.56201172 1898.5660400  -999.250000  -999.250000  -999.250000
 0.0000000000  -999.250000  -999.250000  -999.250000 2.9370000362  -999.250000
  -999.250000 8.7139997482
 4587.5092773
 9.1479997635 4587.5000000  -999.250000 0.0020000001 138.29299927  -999.250000
 645.97601318 691.87701416 2000.0000000  -999.250000  -999.250000  -999.250000
 0.0000000000  -999.250000  -999.250000  -999.250000 2.9500000477  -999.250000
  -999.250000 8.4239997864
 4588.0092773
 9.1090002060 4588.0000000  -999.250000 0.0030000000 138.19700623  -999.250000
 817.53100586 885.26898193 1702.1199951  -999.250000  -999.250000  -999.250000
 0.0000000000  -999.250000  -999.250000  -999.250000 2.9630000591  -999.250000
  -999.250000 8.4490003586
 4588.5092773
 9.1479997635 4588.5000000  -999.250000 0.0010000000 146.35000610  -999.250000
 1727.4949951 1633.0129395 1887.4890137  -999.250000  -999.250000  -999.250000
 0.0000000000  -999.250000  -999.250000  -999.250000 2.9600000381  -999.250000
  -999.250000 8.4860000610
 4589.0092773
 9.1479997635 4589.0000000  -999.250000 0.0010000000 137.52799988  -999.250000
 6295.3750000 4444.9658203 2000.0000000  -999.250000  -999.250000  -999.250000
 0.0000000000  -999.250000  -999.250000  -999.250000 2.9570000172  -999.250000
  -999.250000 8.2349996567
 4589.5092773
 9.1870002747 4589.5000000  -999.250000 0.0020000001 131.28300476  -999.250000
 2995.8200684 2829.0800781 2000.0000000  -999.250000  -999.250000  -999.250000
 0.0000000000  -999.250000  -999.250000  -999.250000 2.9260001183  -999.250000
  -999.250000 8.2860002518
 4590.0092773
 9.2259998322 4590.0000000  -999.250000 0.0010000000 145.15299988  -999.250000
 904.23101807 1189.1850586 1752.8409424  -999.250000  -999.250000  -999.250000
 0.0000000000  -999.250000  -999.250000  -999.250000 2.8859999180  -999.250000
  -999.250000 8.9919996262
 4590.5092773
 9.1870002747 4590.5000000  -999.250000 0.0049999999 150.55299377  -999.250000
 357.95098877 484.75000000 739.68597412  -999.250000  -999.250000  -999.250000
 0.0000000000  -999.250000  -999.250000  -999.250000 2.8919999599  -999.250000
  -999.250000 9.1929998398
 4591.0092773
 9.1870002747 4591.0000000  -999.250000 0.0040000002 155.62899780  -999.250000
 143.65499878 195.10099792 280.94699097  -999.250000  -999.250000  -999.250000
 0.0000000000  -999.250000  -999.250000  -999.250000 2.8719999790  -999.250000
  -999.250000 9.3439998627
 4591.5092773
 9.1870002747 4591.5000000  -999.250000 0.0080000004 172.36199951  -999.250000
 79.240997314 106.84999847 101.92800140  -999.250000  -999.250000  -999.250000
 0.0000000000  -999.250000  -999.250000  -999.250000 2.8710000515  -999.250000
  -999.250000 9.1280002594
 4592.0092773
 9.2259998322 4592.0000000  -999.250000 0.0020000001 195.04100037  -999.250000
 67.968002319 91.176002502 36.416000366  -999.250000  -999.250000  -999.250000
 0.0000000000  -999.250000  -999.250000  -999.250000 2.8280000687  -999.250000
  -999.250000 9.6700000763
 4592.5092773
 9.2259998322 4592.5000000  -999.250000 0.0040000002 219.44400024  -999.250000
 75.067001343 99.470001221 26.150999069  -999.250000  -999.250000  -999.250000
 0.0000000000  -999.250000  -999.250000  -999.250000 2.8489999771  -999.250000
  -999.250000 10.274000168
 4593.0092773
 9.2259998322 4593.0000000  -999.250000 0.0060000001 217.35200500  -999.250000
 107.04399872 140.64999390 144.54499817  -999.250000  -999.250000  -999.250000
 0.0000000000  -999.250000  -999.250000  -999.250000 2.8780000210  -999.250000
  -999.250000 10.008999825
 4593.5092773
 9.2650003433 4593.5000000  -999.250000 0.0089999996 135.62399292  -999.250000
 319.41299438 354.64700317 1928.7490234  -999.250000  -999.250000  -999.250000
 0.0000000000  -999.250000  -999.250000  -999.250000 2.9270000458  -999.250000
  -999.250000 8.6389999390
 4594.0092773
 9.2259998322 4594.0000000  -999.250000 0.0049999999 129.48199463  -999.250000
 3902.4719238 2804.2849121 2000.0000000  -999.250000  -999.250000  -999.250000
 0.0000000000  -999.250000  -999.250000  -999.250000 2.9330000877  -999.250000
  -999.250000 8.3109998703
