# LAS format log file from PETREL
# Project units are specified as depth units
#==================================================================
~Version information
VERS.   2.0:
WRAP.   YES:
#==================================================================
~Well
STRT .ft      4000.0080566 :
STOP .ft      5460.0107422 :
STEP .ft     0.00000000 :
NULL .        -999.250000 :
COMP.           : COMPANY
WELL.  ROBERTS UNIT WI-3724A   : WELL
FLD.            : FIELD
LOC.            : LOCATION
SRVC.           : SERVICE COMPANY
DATE.  Thursday, June 28 2007 12:58:20   : DATE
PROV.           : PROVINCE
UWI.   42501337600000   : UNIQUE WELL ID
API.            : API NUMBER
#==================================================================
~Curve
DEPT .ft                   : DEPTH
CALI .in                  : CALI
DEPT .ft                  : DEPT
DPHI .ft3/ft3             : DPHI
DRHO .g/cm3               : DRHO
EATT .                    : EATT
GR .gAPI                  : GR
LLD .ohm.m                : LLD
LLS .ohm.m                : LLS
MSFL .ohm.m               : MSFL
NPHI .ft3/ft3             : NPHI
NPHI_>8% .                : NPHI_>8%
PEF .                     : PEF
PERFFLAG .                : PERFFLAG
PHI_EFF_TRANSFORM .       : PHI_EFF_TRANSFORM
PHIDIFF .                 : PHIDIFF
PHIEFF_EST .              : PHIEFF_EST
RHOB .g/cm3               : RHOB
SW_NPHI .                 : SW_NPHI
SW_PHIEFF_EST .           : SW_PHIEFF_EST
TPL .                     : TPL
~Parameter
#==================================================================
~Ascii
 4000.0080566
 12.347000122 4000.0000000  -999.250000 0.0010000000 191.33700562  -999.250000
 58.097000122 43.472000122 50.292999268  -999.250000  -999.250000  -999.250000
 0.0000000000  -999.250000  -999.250000  -999.250000 2.7090001106  -999.250000
  -999.250000 8.5209999084
 4000.5080566
 12.425000191 4000.5000000  -999.250000 -0.002000000 188.46000671  -999.250000
 54.323001862 40.724998474 42.812000275  -999.250000  -999.250000  -999.250000
 0.0000000000  -999.250000  -999.250000  -999.250000 2.6570000648  -999.250000
  -999.250000 8.4829998016
 4001.0080566
 12.385999680 4001.0000000  -999.250000 -0.010000000 195.07899475  -999.250000
 48.560001373 36.806999207 47.131000519  -999.250000  -999.250000  -999.250000
 0.0000000000  -999.250000  -999.250000  -999.250000 2.5569999218  -999.250000
  -999.250000 8.4320001602
 4001.5080566
 12.463999748 4001.5000000  -999.250000 -0.012000000 199.63900757  -999.250000
 38.804000854 29.548000336 36.800998688  -999.250000  -999.250000  -999.250000
 0.0000000000  -999.250000  -999.250000  -999.250000 2.4790000916  -999.250000
  -999.250000 8.2299995422
 4002.0080566
 12.463999748 4002.0000000  -999.250000 -0.017000001 227.74899292  -999.250000
 29.841999054 23.128000259 23.787000656  -999.250000  -999.250000  -999.250000
 0.0000000000  -999.250000  -999.250000  -999.250000 2.4449999332  -999.250000
  -999.250000 8.6569995880
 4002.5080566
 12.503000259 4002.5000000  -999.250000 -0.016000001 231.10000610  -999.250000
 24.993000031 19.486999512 19.777000427  -999.250000  -999.250000  -999.250000
 0.0000000000  -999.250000  -999.250000  -999.250000 2.4860000610  -999.250000
  -999.250000 8.9600000381
 4003.0080566
 12.541999817 4003.0000000  -999.250000 -0.009000000 266.87500000  -999.250000
 22.507999420 17.712999344 13.880000114  -999.250000  -999.250000  -999.250000
 0.0000000000  -999.250000  -999.250000  -999.250000 2.5499999523  -999.250000
  -999.250000 9.5380001068
 4003.5080566
 12.581000328 4003.5000000  -999.250000 -0.007000000 268.92199707  -999.250000
 21.982000351 17.340000153 17.349000931  -999.250000  -999.250000  -999.250000
 0.0000000000  -999.250000  -999.250000  -999.250000 2.5720000267  -999.250000
  -999.250000 9.7779998779
 4004.0080566
 12.581000328 4004.0000000  -999.250000 -0.013000000 265.56100464  -999.250000
 23.097000122 18.160999298 17.764999390  -999.250000  -999.250000  -999.250000
 0.0000000000  -999.250000  -999.250000  -999.250000 2.5199999809  -999.250000
  -999.250000 9.9289999008
 4004.5080566
 12.581000328 4004.5000000  -999.250000 -0.013000000 241.29100037  -999.250000
 24.757999420 19.427999496 19.041999817  -999.250000  -999.250000  -999.250000
 0.0000000000  -999.250000  -999.250000  -999.250000 2.4900000095  -999.250000
  -999.250000 9.2370004654
 4005.0080566
 12.581000328 4005.0000000  -999.250000 -0.008000000 243.73699951  -999.250000
 25.576000214 19.837999344 19.628999710  -999.250000  -999.250000  -999.250000
 0.0000000000  -999.250000  -999.250000  -999.250000 2.4939999580  -999.250000
  -999.250000 9.3000001907
 4005.5080566
 12.581000328 4005.5000000  -999.250000 -0.006000000 253.52400208  -999.250000
 25.038000107 19.361999512 20.729999542  -999.250000  -999.250000  -999.250000
 0.0000000000  -999.250000  -999.250000  -999.250000 2.5339999199  -999.250000
  -999.250000 9.2360000610
 4006.0080566
 12.619999886 4006.0000000  -999.250000 -0.001000000 242.02099609  -999.250000
 25.879999161 19.649000168 18.763000488  -999.250000  -999.250000  -999.250000
 0.0000000000  -999.250000  -999.250000  -999.250000 2.5539999008  -999.250000
  -999.250000 9.1610002518
 4006.5080566
 12.619999886 4006.5000000  -999.250000 -0.002000000 252.79699707  -999.250000
 28.424999237 21.334999084 14.270999908  -999.250000  -999.250000  -999.250000
 0.0000000000  -999.250000  -999.250000  -999.250000 2.5269999504  -999.250000
  -999.250000 9.6400003433
 4007.0080566
 12.659000397 4007.0000000  -999.250000 -0.004000000 259.90200806  -999.250000
 33.011001587 24.304000854 24.076000214  -999.250000  -999.250000  -999.250000
 0.0000000000  -999.250000  -999.250000  -999.250000 2.4809999466  -999.250000
  -999.250000 9.3360004425
 4007.5080566
 12.697999954 4007.5000000  -999.250000 -0.006000000 216.06799316  -999.250000
 40.021999359 28.635999680 29.231000900  -999.250000  -999.250000  -999.250000
 0.0000000000  -999.250000  -999.250000  -999.250000 2.4489998817  -999.250000
  -999.250000 8.9230003357
 4008.0080566
 12.697999954 4008.0000000  -999.250000 -0.002000000 226.05099487  -999.250000
 46.206001282 32.465000153 30.684000015  -999.250000  -999.250000  -999.250000
 0.0000000000  -999.250000  -999.250000  -999.250000 2.4370000362  -999.250000
  -999.250000 8.8210000992
 4008.5080566
 12.737000465 4008.5000000  -999.250000 -0.003000000 198.29899597  -999.250000
 47.948001862 32.969001770 29.483999252  -999.250000  -999.250000  -999.250000
 0.0000000000  -999.250000  -999.250000  -999.250000 2.4230000973  -999.250000
  -999.250000 8.5329999924
 4009.0080566
 12.697999954 4009.0000000  -999.250000 -0.007000000 219.47099304  -999.250000
 45.561000824 31.009000778 32.441001892  -999.250000  -999.250000  -999.250000
 0.0000000000  -999.250000  -999.250000  -999.250000 2.4089999199  -999.250000
  -999.250000 8.8090000153
 4009.5080566
 12.697999954 4009.5000000  -999.250000 -0.005000000 217.18400574  -999.250000
 41.915000916 28.500000000 24.964000702  -999.250000  -999.250000  -999.250000
 0.0000000000  -999.250000  -999.250000  -999.250000 2.4140000343  -999.250000
  -999.250000 8.8219995499
 4010.0080566
 12.697999954 4010.0000000  -999.250000 -0.004000000 230.84100342  -999.250000
 40.161998749 27.149000168 22.650999069  -999.250000  -999.250000  -999.250000
 0.0000000000  -999.250000  -999.250000  -999.250000 2.4240000248  -999.250000
  -999.250000 8.7329998016
 4010.5080566
 12.697999954 4010.5000000  -999.250000 -0.004000000 226.41400146  -999.250000
 39.374000549 26.702999115 23.306999207  -999.250000  -999.250000  -999.250000
 0.0000000000  -999.250000  -999.250000  -999.250000 2.4279999733  -999.250000
  -999.250000 8.8719997406
 4011.0080566
 12.697999954 4011.0000000  -999.250000 -0.006000000 223.70300293  -999.250000
 38.210998535 25.965000153 24.076999664  -999.250000  -999.250000  -999.250000
 0.0000000000  -999.250000  -999.250000  -999.250000 2.4470000267  -999.250000
  -999.250000 9.0869998932
 4011.5080566
 12.697999954 4011.5000000  -999.250000 -0.006000000 230.94799805  -999.250000
 36.548999786 25.274000168 27.016000748  -999.250000  -999.250000  -999.250000
 0.0000000000  -999.250000  -999.250000  -999.250000 2.4739999771  -999.250000
  -999.250000 8.7069997787
 4012.0080566
 12.659000397 4012.0000000  -999.250000 -0.012000000 246.85099792  -999.250000
 33.701000214 23.923000336 24.215000153  -999.250000  -999.250000  -999.250000
 0.0000000000  -999.250000  -999.250000  -999.250000 2.4909999371  -999.250000
  -999.250000 9.3369998932
 4012.5080566
 12.659000397 4012.5000000  -999.250000 -0.015000000 235.61199951  -999.250000
 29.908000946 22.145000458 23.238000870  -999.250000  -999.250000  -999.250000
 0.0000000000  -999.250000  -999.250000  -999.250000 2.5060000420  -999.250000
  -999.250000 8.9720001221
 4013.0080566
 12.659000397 4013.0000000  -999.250000 -0.017999999 249.56700134  -999.250000
 24.849000931 19.399000168 17.861000061  -999.250000  -999.250000  -999.250000
 0.0000000000  -999.250000  -999.250000  -999.250000 2.5209999084  -999.250000
  -999.250000 9.3999996185
 4013.5080566
 12.619999886 4013.5000000  -999.250000 -0.015000000 264.36199951  -999.250000
 20.000999451 16.728000641 18.832000732  -999.250000  -999.250000  -999.250000
 0.0000000000  -999.250000  -999.250000  -999.250000 2.5439999104  -999.250000
  -999.250000 9.5129995346
 4014.0080566
 12.659000397 4014.0000000  -999.250000 -0.011000000 274.69299316  -999.250000
 16.179000854 14.597999573 13.472999573  -999.250000  -999.250000  -999.250000
 0.0000000000  -999.250000  -999.250000  -999.250000 2.5390000343  -999.250000
  -999.250000 9.8020000458
