# LAS format log file from PETREL
# Project units are specified as depth units
#==================================================================
~Version information
VERS.   2.0:
WRAP.   YES:
#==================================================================
~Well
STRT .ft      4000.0080566 :
STOP .ft      5460.0107422 :
STEP .ft     0.00000000 :
NULL .        -999.250000 :
COMP.           : COMPANY
WELL.  ROBERTS UNIT WI-3724A   : WELL
FLD.            : FIELD
LOC.            : LOCATION
SRVC.           : SERVICE COMPANY
DATE.  Thursday, June 28 2007 12:58:20   : DATE
PROV.           : PROVINCE
UWI.   42501337600000   : UNIQUE WELL ID
API.            : API NUMBER
#==================================================================
~Curve
DEPT .ft                   : DEPTH
CALI .in                  : CALI
DEPT .ft                  : DEPT
DPHI .ft3/ft3             : DPHI
DRHO .g/cm3               : DRHO
EATT .                    : EATT
GR .gAPI                  : GR
LLD .ohm.m                : LLD
LLS .ohm.m                : LLS
MSFL .ohm.m               : MSFL
NPHI .ft3/ft3             : NPHI
NPHI_>8% .                : NPHI_>8%
PEF .                     : PEF
PERFFLAG .                : PERFFLAG
PHI_EFF_TRANSFORM .       : PHI_EFF_TRANSFORM
PHIDIFF .                 : PHIDIFF
PHIEFF_EST .              : PHIEFF_EST
RHOB .g/cm3               : RHOB
SW_NPHI .                 : SW_NPHI
SW_PHIEFF_EST .           : SW_PHIEFF_EST
TPL .                     : TPL
~Parameter
#==================================================================
~Ascii
# ...
 4391.5087891
 8.4069995880 4391.5000000  -999.250000 0.0140000004 171.53700256  -999.250000
 419.44900513 391.27999878 281.54998779  -999.250000  -999.250000  -999.250000
 0.0000000000  -999.250000  -999.250000  -999.250000 2.8510000706  -999.250000
  -999.250000 9.4949998856
 4392.0087891
 8.4069995880 4392.0000000  -999.250000 0.0130000003 144.95799255  -999.250000
 348.68200684 321.97100830 1049.5600586  -999.250000  -999.250000  -999.250000
 0.0000000000  -999.250000  -999.250000  -999.250000 2.8499999046  -999.250000
  -999.250000 9.2189998627
 4392.5087891
 8.4069995880 4392.5000000  -999.250000 0.0089999996 164.08200073  -999.250000
 371.19400024 339.59600830 354.25601196  -999.250000  -999.250000  -999.250000
 0.0000000000  -999.250000  -999.250000  -999.250000 2.8229999542  -999.250000
  -999.250000 9.6339998245
 4393.0087891
 8.3680000305 4393.0000000  -999.250000 0.0089999996 191.04800415  -999.250000
 379.72100830 346.39599609 153.69900513  -999.250000  -999.250000  -999.250000
 0.0000000000  -999.250000  -999.250000  -999.250000 2.8129999638  -999.250000
  -999.250000 10.376999855
 4393.5087891
 8.4069995880 4393.5000000  -999.250000 0.0109999999 160.05099487  -999.250000
 422.39999390 374.30999756 378.05999756  -999.250000  -999.250000  -999.250000
 0.0000000000  -999.250000  -999.250000  -999.250000 2.8269999027  -999.250000
  -999.250000 9.2049999237
 4394.0087891
 8.4069995880 4394.0000000  -999.250000 0.0109999999 159.62199402  -999.250000
 505.95001221 443.45800781 439.22399902  -999.250000  -999.250000  -999.250000
 0.0000000000  -999.250000  -999.250000  -999.250000 2.8420000076  -999.250000
  -999.250000 9.4580001831
 4394.5087891
 8.4069995880 4394.5000000  -999.250000 0.0109999999 166.00300598  -999.250000
 614.26300049 533.30700684 460.58801270  -999.250000  -999.250000  -999.250000
 0.0000000000  -999.250000  -999.250000  -999.250000 2.8480000496  -999.250000
  -999.250000 9.0780000687
 4395.0087891
 8.4069995880 4395.0000000  -999.250000 0.0089999996 161.62399292  -999.250000
 619.30401611 540.89398193 787.64697266  -999.250000  -999.250000  -999.250000
 0.0000000000  -999.250000  -999.250000  -999.250000 2.8310000896  -999.250000
  -999.250000 9.3310003281
 4395.5087891
 8.4460000992 4395.5000000  -999.250000 0.0070000002 164.77699280  -999.250000
 574.41400146 490.38598633 601.06896973  -999.250000  -999.250000  -999.250000
 0.0000000000  -999.250000  -999.250000  -999.250000 2.8210000992  -999.250000
  -999.250000 9.5579996109
 4396.0087891
 8.4460000992 4396.0000000  -999.250000 0.0080000004 157.06799316  -999.250000
 541.24298096 472.87200928 553.11297607  -999.250000  -999.250000  -999.250000
 0.0000000000  -999.250000  -999.250000  -999.250000 2.8129999638  -999.250000
  -999.250000 9.7360000610
 4396.5087891
 8.4849996567 4396.5000000  -999.250000 0.0120000001 150.59399414  -999.250000
 564.42199707 464.89498901 466.67898560  -999.250000  -999.250000  -999.250000
 0.0000000000  -999.250000  -999.250000  -999.250000 2.8139998913  -999.250000
  -999.250000 9.4460000992
 4397.0087891
 8.4849996567 4397.0000000  -999.250000 0.0099999998 158.22900391  -999.250000
 580.21997070 479.66900635 797.35400391  -999.250000  -999.250000  -999.250000
 0.0000000000  -999.250000  -999.250000  -999.250000 2.8050000668  -999.250000
  -999.250000 9.5839996338
 4397.5087891
 8.5240001678 4397.5000000  -999.250000 0.0109999999 157.69400024  -999.250000
 704.06500244 571.12902832 525.41699219  -999.250000  -999.250000  -999.250000
 0.0000000000  -999.250000  -999.250000  -999.250000 2.8239998817  -999.250000
  -999.250000 9.6470003128
 4398.0087891
 8.5240001678 4398.0000000  -999.250000 0.0140000004 144.94599915  -999.250000
 941.63500977 751.59802246 1610.2819824  -999.250000  -999.250000  -999.250000
 0.0000000000  -999.250000  -999.250000  -999.250000 2.8499999046  -999.250000
  -999.250000 9.5850000381
 4398.5087891
 8.5240001678 4398.5000000  -999.250000 0.0179999992 147.37399292  -999.250000
 1424.6779785 1083.0100098 1422.6250000  -999.250000  -999.250000  -999.250000
 0.0000000000  -999.250000  -999.250000  -999.250000 2.8699998856  -999.250000
  -999.250000 9.0920000076
 4399.0087891
 8.5240001678 4399.0000000  -999.250000 0.0109999999 142.71899414  -999.250000
 1955.4589844 1435.8489990 1176.8210449  -999.250000  -999.250000  -999.250000
 0.0000000000  -999.250000  -999.250000  -999.250000 2.8610000610  -999.250000
  -999.250000 8.9659996033
 4399.5087891
 8.6020002365 4399.5000000  -999.250000 0.0080000004 145.66099548  -999.250000
 1870.4420166 1365.5629883 1856.7230225  -999.250000  -999.250000  -999.250000
 0.0000000000  -999.250000  -999.250000  -999.250000 2.8559999466  -999.250000
  -999.250000 9.0039997101
 4400.0087891
 8.6020002365 4400.0000000  -999.250000 0.0070000002 144.24400330  -999.250000
 1803.3439941 1325.2180176 1666.9790039  -999.250000  -999.250000  -999.250000
 0.0000000000  -999.250000  -999.250000  -999.250000 2.8499999046  -999.250000
  -999.250000 9.6479997635
 4400.5087891
 8.5629997253 4400.5000000  -999.250000 0.0020000001 154.59199524  -999.250000
 1658.9229736 1221.8520508 557.08197021  -999.250000  -999.250000  -999.250000
 0.0000000000  -999.250000  -999.250000  -999.250000 2.8380000591  -999.250000
  -999.250000 9.1929998398
 4401.0087891
 8.6409997940 4401.0000000  -999.250000 -0.006000000 155.53399658  -999.250000
 1175.0520020 902.80999756 401.51998901  -999.250000  -999.250000  -999.250000
 0.0000000000  -999.250000  -999.250000  -999.250000 2.8199999332  -999.250000
  -999.250000 9.5719995499
 4401.5087891
 8.6409997940 4401.5000000  -999.250000 -0.011000000 153.26400757  -999.250000
 991.74401855 760.99102783 1662.6960449  -999.250000  -999.250000  -999.250000
 0.0000000000  -999.250000  -999.250000  -999.250000 2.8050000668  -999.250000
  -999.250000 9.1680002213
 4402.0087891
 8.6409997940 4402.0000000  -999.250000 -0.011000000 143.07200623  -999.250000
 627.82299805 510.46398926 358.17800903  -999.250000  -999.250000  -999.250000
 0.0000000000  -999.250000  -999.250000  -999.250000 2.8090000153  -999.250000
  -999.250000 9.2950000763
 4402.5087891
 8.6800003052 4402.5000000  -999.250000 -0.014000000 152.23500061  -999.250000
 551.73297119 447.56201172 588.31701660  -999.250000  -999.250000  -999.250000
 0.0000000000  -999.250000  -999.250000  -999.250000 2.7969999313  -999.250000
  -999.250000 9.3190002441
 4403.0087891
 8.6800003052 4403.0000000  -999.250000 -0.013000000 150.11399841  -999.250000
 597.68902588 475.76098633 268.50299072  -999.250000  -999.250000  -999.250000
 0.0000000000  -999.250000  -999.250000  -999.250000 2.8199999332  -999.250000
  -999.250000 9.2939996719
 4403.5087891
 8.7189998627 4403.5000000  -999.250000 -0.014000000 150.00199890  -999.250000
 666.56097412 540.25000000 2000.0000000  -999.250000  -999.250000  -999.250000
 0.0000000000  -999.250000  -999.250000  -999.250000 2.8199999332  -999.250000
  -999.250000 9.4460000992
 4404.0087891
 8.7580003738 4404.0000000  -999.250000 -0.011000000 150.80000305  -999.250000
 937.53997803 717.66198730 1674.1679688  -999.250000  -999.250000  -999.250000
 0.0000000000  -999.250000  -999.250000  -999.250000 2.8369998932  -999.250000
  -999.250000 9.3830003738
 4404.5087891
 8.7969999313 4404.5000000  -999.250000 -0.010000000 151.92999268  -999.250000
 1018.1610107 808.40997314 1703.5529785  -999.250000  -999.250000  -999.250000
 0.0000000000  -999.250000  -999.250000  -999.250000 2.8499999046  -999.250000
  -999.250000 9.4709997177
 4405.0087891
 8.8360004425 4405.0000000  -999.250000 -0.009000000 155.84100342  -999.250000
 757.19500732 648.56298828 1911.5770264  -999.250000  -999.250000  -999.250000
 0.0000000000  -999.250000  -999.250000  -999.250000 2.8559999466  -999.250000
  -999.250000 9.2180004120
 4405.5087891
 8.8360004425 4405.5000000  -999.250000 -0.010000000 155.65600586  -999.250000
 431.07199097 367.19601440 549.20098877  -999.250000  -999.250000  -999.250000
 0.0000000000  -999.250000  -999.250000  -999.250000 2.8469998837  -999.250000
  -999.250000 9.2559995651
