# LAS format log file from PETREL
# Project units are specified as depth units
#==================================================================
~Version information
VERS.   2.0:
WRAP.   YES:
#==================================================================
~Well
STRT .ft      4000.0080566 :
STOP .ft      5460.0107422 :
STEP .ft     0.00000000 :
NULL .        -999.250000 :
COMP.           : COMPANY
WELL.  ROBERTS UNIT WI-3724A   : WELL
FLD.            : FIELD
LOC.            : LOCATION
SRVC.           : SERVICE COMPANY
DATE.  Thursday, June 28 2007 12:58:20   : DATE
PROV.           : PROVINCE
UWI.   42501337600000   : UNIQUE WELL ID
API.            : API NUMBER
#==================================================================
~Curve
DEPT .ft                   : DEPTH
CALI .in                  : CALI
DEPT .ft                  : DEPT
DPHI .ft3/ft3             : DPHI
DRHO .g/cm3               : DRHO
EATT .                    : EATT
GR .gAPI                  : GR
LLD .ohm.m                : LLD
LLS .ohm.m                : LLS
MSFL .ohm.m               : MSFL
NPHI .ft3/ft3             : NPHI
NPHI_>8% .                : NPHI_>8%
PEF .                     : PEF
PERFFLAG .                : PERFFLAG
PHI_EFF_TRANSFORM .       : PHI_EFF_TRANSFORM
PHIDIFF .                 : PHIDIFF
PHIEFF_EST .              : PHIEFF_EST
RHOB .g/cm3               : RHOB
SW_NPHI .                 : SW_NPHI
SW_PHIEFF_EST .           : SW_PHIEFF_EST
TPL .                     : TPL
~Parameter
#==================================================================
~Ascii
# ...
 4681.5092773
 8.3680000305 4681.5000000  -999.250000 0.0099999998 152.71299744  -999.250000
 1292.0419922 998.67102051 1257.0460205  -999.250000  -999.250000  -999.250000
 0.0000000000  -999.250000  -999.250000  -999.250000 2.8550000191  -999.250000
  -999.250000 9.3070001602
 4682.0092773
 8.3680000305 4682.0000000  -999.250000 0.0099999998 132.88499451  -999.250000
 2108.0920410 1582.9949951 1712.6519775  -999.250000  -999.250000  -999.250000
 0.0000000000  -999.250000  -999.250000  -999.250000 2.8610000610  -999.250000
  -999.250000 9.1440000534
 4682.5092773
 8.4069995880 4682.5000000  -999.250000 0.0080000004 143.50000000  -999.250000
 3908.9741211 2877.2648926 2000.0000000  -999.250000  -999.250000  -999.250000
 0.0000000000  -999.250000  -999.250000  -999.250000 2.8529999256  -999.250000
  -999.250000 9.1180000305
 4683.0092773
 8.4069995880 4683.0000000  -999.250000 0.0070000002 143.47300720  -999.250000
 3221.7309570 2661.9838867 1721.7669678  -999.250000  -999.250000  -999.250000
 0.0000000000  -999.250000  -999.250000  -999.250000 2.8580000401  -999.250000
  -999.250000 9.1049995422
 4683.5092773
 8.4069995880 4683.5000000  -999.250000 0.0040000002 142.25999451  -999.250000
 1555.1519775 1417.2969971 1898.5899658  -999.250000  -999.250000  -999.250000
 0.0000000000  -999.250000  -999.250000  -999.250000 2.8619999886  -999.250000
  -999.250000 9.0299997330
 4684.0092773
 8.4069995880 4684.0000000  -999.250000 0.0080000004 144.89199829  -999.250000
 716.23901367 695.51501465 1651.4560547  -999.250000  -999.250000  -999.250000
 0.0000000000  -999.250000  -999.250000  -999.250000 2.8819999695  -999.250000
  -999.250000 8.9919996262
 4684.5092773
 8.4069995880 4684.5000000  -999.250000 0.0089999996 151.01600647  -999.250000
 336.48999023 327.65499878 494.65798950  -999.250000  -999.250000  -999.250000
 0.0000000000  -999.250000  -999.250000  -999.250000 2.8529999256  -999.250000
  -999.250000 9.2440004349
 4685.0092773
 8.4069995880 4685.0000000  -999.250000 0.0080000004 164.38200378  -999.250000
 211.61900330 206.36700439 368.04400635  -999.250000  -999.250000  -999.250000
 0.0000000000  -999.250000  -999.250000  -999.250000 2.8359999657  -999.250000
  -999.250000 9.4069995880
 4685.5092773
 8.3680000305 4685.5000000  -999.250000 0.0120000001 185.15800476  -999.250000
 210.52499390 205.53199768 149.21299744  -999.250000  -999.250000  -999.250000
 0.0000000000  -999.250000  -999.250000  -999.250000 2.8359999657  -999.250000
  -999.250000 9.7589998245
 4686.0092773
 8.4069995880 4686.0000000  -999.250000 0.0299999993 193.91799927  -999.250000
 234.49000549 228.03100586 78.862998962  -999.250000  -999.250000  -999.250000
 0.0000000000  -999.250000  -999.250000  -999.250000 2.8919999599  -999.250000
  -999.250000 10.060999870
 4686.5092773
 8.4069995880 4686.5000000  -999.250000 0.0289999992 120.08000183  -999.250000
 302.00201416 293.13101196 2000.0000000  -999.250000  -999.250000  -999.250000
 0.0000000000  -999.250000  -999.250000  -999.250000 2.8959999084  -999.250000
  -999.250000 9.1579999924
 4687.0092773
 8.4069995880 4687.0000000  -999.250000 0.0320000015 144.36300659  -999.250000
 543.40997314 511.16699219 1830.5529785  -999.250000  -999.250000  -999.250000
 0.0000000000  -999.250000  -999.250000  -999.250000 2.8989999294  -999.250000
  -999.250000 8.9540004730
 4687.5092773
 8.4069995880 4687.5000000  -999.250000 0.0219999999 150.11900330  -999.250000
 592.19000244 587.54797363 913.81799316  -999.250000  -999.250000  -999.250000
 0.0000000000  -999.250000  -999.250000  -999.250000 2.8659999371  -999.250000
  -999.250000 9.2819995880
 4688.0092773
 8.4069995880 4688.0000000  -999.250000 0.0160000008 156.40199280  -999.250000
 465.92999268 481.24600220 244.96299744  -999.250000  -999.250000  -999.250000
 0.0000000000  -999.250000  -999.250000  -999.250000 2.8489999771  -999.250000
  -999.250000 9.2559995651
 4688.5092773
 8.4069995880 4688.5000000  -999.250000 0.0130000003 153.27200317  -999.250000
 222.27400208 236.41700745 333.28799438  -999.250000  -999.250000  -999.250000
 0.0000000000  -999.250000  -999.250000  -999.250000 2.8450000286  -999.250000
  -999.250000 9.3190002441
 4689.0092773
 8.4460000992 4689.0000000  -999.250000 0.0160000008 157.10699463  -999.250000
 150.99400330 159.85400391 688.54101563  -999.250000  -999.250000  -999.250000
 0.0000000000  -999.250000  -999.250000  -999.250000 2.8489999771  -999.250000
  -999.250000 9.1549997330
 4689.5092773
 8.4069995880 4689.5000000  -999.250000 0.0140000004 140.30000305  -999.250000
 138.22099304 147.45599365 82.569000244  -999.250000  -999.250000  -999.250000
 0.0000000000  -999.250000  -999.250000  -999.250000 2.8589999676  -999.250000
  -999.250000 9.2320003510
 4690.0092773
 8.3680000305 4690.0000000  -999.250000 0.0130000003 225.63299561  -999.250000
 116.27400208 125.01799774 93.170997620  -999.250000  -999.250000  -999.250000
 0.0000000000  -999.250000  -999.250000  -999.250000 2.8510000706  -999.250000
  -999.250000 9.7620000839
 4690.5092773
 8.4069995880 4690.5000000  -999.250000 0.0109999999 190.48399353  -999.250000
 107.74299622 114.76599884 162.85800171  -999.250000  -999.250000  -999.250000
 0.0000000000  -999.250000  -999.250000  -999.250000 2.8550000191  -999.250000
  -999.250000 9.6190004349
 4691.0092773
 8.4069995880 4691.0000000  -999.250000 0.0099999998 180.90299988  -999.250000
 151.96400452 159.82800293 100.92099762  -999.250000  -999.250000  -999.250000
 0.0000000000  -999.250000  -999.250000  -999.250000 2.8559999466  -999.250000
  -999.250000 9.4560003281
 4691.5092773
 8.4460000992 4691.5000000  -999.250000 0.0140000004 179.85600281  -999.250000
 176.14199829 181.34899902 106.07800293  -999.250000  -999.250000  -999.250000
 0.0000000000  -999.250000  -999.250000  -999.250000 2.8789999485  -999.250000
  -999.250000 9.4940004349
 4692.0092773
 8.4849996567 4692.0000000  -999.250000 0.0219999999 142.15400696  -999.250000
 205.85400391 203.29100037 470.10000610  -999.250000  -999.250000  -999.250000
 0.0000000000  -999.250000  -999.250000  -999.250000 2.9030001163  -999.250000
  -999.250000 8.4989995956
 4692.5092773
 8.4849996567 4692.5000000  -999.250000 0.0340000018 136.50100708  -999.250000
 286.82199097 274.47500610 155.30099487  -999.250000  -999.250000  -999.250000
 0.0000000000  -999.250000  -999.250000  -999.250000 2.9300000668  -999.250000
  -999.250000 8.7779998779
 4693.0092773
 8.4849996567 4693.0000000  -999.250000 0.0370000005 172.88499451  -999.250000
 313.77099609 292.75299072 357.86599731  -999.250000  -999.250000  -999.250000
 0.0000000000  -999.250000  -999.250000  -999.250000 2.9179999828  -999.250000
  -999.250000 9.7089996338
 4693.5092773
 8.4849996567 4693.5000000  -999.250000 0.0350000001 162.23699951  -999.250000
 396.84201050 360.39001465 268.51400757  -999.250000  -999.250000  -999.250000
 0.0000000000  -999.250000  -999.250000  -999.250000 2.9059998989  -999.250000
  -999.250000 9.4949998856
 4694.0092773
 8.4849996567 4694.0000000  -999.250000 0.0299999993 172.50000000  -999.250000
 536.90698242 499.23999023 402.37500000  -999.250000  -999.250000  -999.250000
 0.0000000000  -999.250000  -999.250000  -999.250000 2.8989999294  -999.250000
  -999.250000 9.6210002899
 4694.5092773
 8.5240001678 4694.5000000  -999.250000 0.0189999994 155.69700623  -999.250000
 759.30902100 664.89398193 970.95599365  -999.250000  -999.250000  -999.250000
 0.0000000000  -999.250000  -999.250000  -999.250000 2.8959999084  -999.250000
  -999.250000 9.0790004730
 4695.0092773
 8.4849996567 4695.0000000  -999.250000 0.0130000003 145.59100342  -999.250000
 1052.0899658 796.72698975 1091.0159912  -999.250000  -999.250000  -999.250000
 0.0000000000  -999.250000  -999.250000  -999.250000 2.8789999485  -999.250000
  -999.250000 9.2309999466
 4695.5092773
 8.5240001678 4695.5000000  -999.250000 0.0049999999 156.42599487  -999.250000
 561.01599121 512.41198730 1622.4689941  -999.250000  -999.250000  -999.250000
 0.0000000000  -999.250000  -999.250000  -999.250000 2.8559999466  -999.250000
  -999.250000 9.1300001144
