# LAS format log file from PETREL
# Project units are specified as depth units
#==================================================================
~Version information
VERS.   2.0:
WRAP.   YES:
#==================================================================
~Well
STRT .ft      4000.0080566 :
STOP .ft      5460.0107422 :
STEP .ft     0.00000000 :
NULL .        -999.250000 :
COMP.           : COMPANY
WELL.  ROBERTS UNIT WI-3724A   : WELL
FLD.            : FIELD
LOC.            : LOCATION
SRVC.           : SERVICE COMPANY
DATE.  Thursday, June 28 2007 12:58:20   : DATE
PROV.           : PROVINCE
UWI.   42501337600000   : UNIQUE WELL ID
API.            : API NUMBER
#==================================================================
~Curve
DEPT .ft                   : DEPTH
CALI .in                  : CALI
DEPT .ft                  : DEPT
DPHI .ft3/ft3             : DPHI
DRHO .g/cm3               : DRHO
EATT .                    : EATT
GR .gAPI                  : GR
LLD .ohm.m                : LLD
LLS .ohm.m                : LLS
MSFL .ohm.m               : MSFL
NPHI .ft3/ft3             : NPHI
NPHI_>8% .                : NPHI_>8%
PEF .                     : PEF
PERFFLAG .                : PERFFLAG
PHI_EFF_TRANSFORM .       : PHI_EFF_TRANSFORM
PHIDIFF .                 : PHIDIFF
PHIEFF_EST .              : PHIEFF_EST
RHOB .g/cm3               : RHOB
SW_NPHI .                 : SW_NPHI
SW_PHIEFF_EST .           : SW_PHIEFF_EST
TPL .                     : TPL
~Parameter
#==================================================================
~Ascii
# ...
 5261.5107422
 8.0950002670 5261.5000000 -0.054108221 0.0109999999 187.95799255 30.751085281
 250.63000488 246.04400635 319.62799072 0.0577154309  -999.250000 3.3559296131
 0.0000000000 0.0226874948 0.1118236482 0.0204408802 2.8029999733 0.4089252949
 1.3918068409 9.4549999237
 5262.0107422
 8.1339998245 5262.0000000 -0.044108938 0.0049999999 190.57699585 27.629512787
 195.30900574 194.48500061 158.61399841 0.0577154309  -999.250000 3.3145525455
 0.0000000000 0.0226874948 0.1018243730 0.0237739738 2.7809998989 0.4632329047
 1.3192399740 9.4930000305
 5262.5107422
 8.1339998245 5262.5000000 -0.031863730 0.0040000002 208.56900024 24.020559311
 147.04899597 146.41200256 106.25800323 0.0585170314  -999.250000 3.0904948711
 0.0000000000 0.0234539844 0.0903807580 0.0283901095 2.7620000839 0.5252437592
 1.2331526279 9.6560001373
 5263.0107422
 8.1339998245 5263.0000000 -0.021843690 0.0049999999 204.50999451 21.721338272
 130.81900024 129.04299927 104.68199921 0.0577154309  -999.250000 3.0235025883
 0.0000000000 0.0226874948 0.0795591176 0.0311957225 2.7460000515 0.5660113096
 1.1698156595 10.086000443
 5263.5107422
 8.1339998245 5263.5000000 -0.015631260 0.0049999999 237.22099304 23.377220154
 140.08399963 136.63600159 32.590000153 0.0541082211  -999.250000 3.0754303932
 0.0000000000 0.0192382801 0.0697394833 0.0308617260 2.7339999676 0.5902555585
 1.1449192762 10.069999695
 5264.0107422
 8.0950002670 5264.0000000 -0.015230460 0.0020000001 227.62800598 27.705026627
 181.19999695 171.45300293 130.42599487 0.0472945906  -999.250000 3.1894166470
 0.0000000000 0.0127230873 0.0625250489 0.0264529064 2.7260000706 0.6083148122
 1.2075004578 10.727999687
 5264.5107422
 8.1339998245 5264.5000000 -0.028256509 0.0080000004 200.43800354 33.792232513
 309.54000854 284.59500122 224.58799744 0.0404809602  -999.250000 3.3364078999
 0.0000000000 0.0062078941 0.0687374696 0.0175684709 2.7550001144 0.5592045188
 1.4974094629 10.439000130
 5265.0107422
 8.1339998245 5265.0000000 -0.044490822 0.0240000002 178.43200684 35.846939087
 425.33898926 384.36401367 190.90499878 0.0358781219  -999.250000 3.4998185635
 0.0000000000 0.0018066583 0.0803689435 0.0090884734 2.7899999619 0.5500705242
 2.7803411484 9.9989995956
 5265.5107422
 8.0950002670 5265.5000000 -0.054590560 0.0370000005 176.84300232 33.708076477
 349.99398804 328.34399414 159.46099854 0.0328016989  -999.250000 3.6762819290
 0.0000000000 -0.001135014 0.0873922631 0.0036709467 2.8099999428 0.6740576029
 8.9333953857 10.050000191
 5266.0107422
 8.1730003357 5266.0000000 -0.051787909 0.0359999985 198.52600098 30.141185760
 257.97299194 243.20100403 186.86199951 0.0487929918  -999.250000 3.7487030029
 0.0000000000 0.0141558573 0.1005809009 0.0152660236 2.7929999828 0.4914010763
 1.9359818697 10.402000427
 5266.5107422
 8.1730003357 5266.5000000 -0.042140059 0.0340000018 189.83299255 26.244979858
 210.19599915 202.77799988 109.06400299 0.0623613000  -999.250000 3.6072795391
 0.0000000000 0.0271298755 0.1045013592 0.0275275130 2.7829999924 0.4075424969
 1.0696648359 10.642000198
 5267.0107422
 8.2119998932 5267.0000000 -0.032865271 0.0149999997 204.15400696 23.853446960
 169.92599487 162.46400452 177.30400085 0.0753507018  -999.250000 3.5142271519
 0.0000000000 0.0395503379 0.1082159728 0.0392787084 2.7590000629 0.3625701666
 0.7820770741 10.161000252
 5267.5107422
 8.2119998932 5267.5000000 -0.022788441 0.0080000004 202.94999695 23.289236069
 149.29100037 144.08399963 175.93800354 0.0721442923  -999.250000 3.3804094791
 0.0000000000 0.0364843719 0.0949327275 0.0405000448 2.7460000515 0.4071832299
 0.8047679663 9.9469995499
 5268.0107422
 8.1730003357 5268.0000000 -0.017126171 0.0030000000 259.29699707 24.359737396
 159.31100464 153.24800110 117.80100250 0.0677354708  -999.250000 3.3484706879
 0.0000000000 0.0322686546 0.0848616436 0.0394482575 2.7309999466 0.4246186614
 0.8036173582 10.661999702
 5268.5107422
 8.1339998245 5268.5000000 -0.018895520 0.0060000001 215.02000427 25.103954315
 164.22900391 158.20199585 57.138000488 0.0559118204  -999.250000 3.2291407585
 0.0000000000 0.0209628828 0.0748073384 0.0309760403 2.7330000401 0.5244520307
 1.0528088808 10.123000145
 5269.0107422
 8.1730003357 5269.0000000 -0.028657310 0.0109999999 189.50300598 24.702682495
 180.07499695 170.47300720 325.25201416 0.0524344891  -999.250000 2.9833927155
 0.0000000000 0.0176378600 0.0810917988 0.0254038908 2.7539999485 0.5402691364
 1.2705039978 9.8090000153
 5269.5107422
 8.1339998245 5269.5000000 -0.038476951 0.0179999992 195.51499939 22.856214523
 214.86300659 202.81599426 107.37500000 0.0497498401  -999.250000 3.1528663635
 0.0000000000 0.0150707969 0.0882267877 0.0203409102 2.7799999714 0.5262474418
 1.5119141340 9.9090003967
 5270.0107422
 8.1339998245 5270.0000000 -0.041282572 0.0230000000 186.89100647 21.602182388
 232.53100586 220.86900330 84.680000305 0.0593331493  -999.250000 2.9584529400
 0.0000000000 0.0242343582 0.1006157175 0.0257945769 2.7939999104 0.4109165370
 1.0980979204 9.9479999542
 5270.5107422
 8.1730003357 5270.5000000 -0.029659320 0.0089999996 215.97300720 20.890522003
 234.89100647 222.89900208 113.96299744 0.0590155311  -999.250000 3.3187520504
 0.0000000000 0.0239306502 0.0886748508 0.0294572469 2.7520000935 0.4114447832
 0.9341251850 10.059000015
 5271.0107422
 8.1339998245 5271.0000000 -0.022249430 0.0049999999 177.40299988 19.176404953
 262.22500610 247.92999268 221.25999451 0.0562066287  -999.250000 3.4986817837
 0.0000000000 0.0212447792 0.0784560591 0.0300546102 2.7379999161 0.4124759734
 0.8634016514 9.7849998474
 5271.5107422
 8.0559997559 5271.5000000 -0.027677430 0.0040000002 209.64999390 17.865005493
 303.68701172 289.76699829 1988.4830322 0.0517523102  -999.250000 3.7001440525
 0.0000000000 0.0169855580 0.0794297382 0.0252757296 2.7460000515 0.4225078821
 0.9841958284 10.046999931
 5272.0107422
 8.0950002670 5272.0000000 -0.035191130 0.0060000001 186.13299561 16.843606949
 323.84799194 312.03399658 293.75100708 0.0501187295  -999.250000 3.8352990150
 0.0000000000 0.0154235298 0.0853098631 0.0216821097 2.7730000019 0.4249269962
 1.1421275139 9.9989995956
 5272.5107422
 8.0559997559 5272.5000000 -0.041747469 0.0030000000 202.08500671 17.201671600
 311.62100220 307.43798828 294.64300537 0.0501023792  -999.250000 3.7185938358
 0.0000000000 0.0154078957 0.0918498486 0.0194857642 2.7829999924 0.4333499968
 1.3207027912 10.489999771
 5273.0107422
 8.0559997559 5273.0000000 -0.039330110 0.0020000001 192.34100342 19.914424896
 250.02099609 253.91299438 432.98999023 0.0590233095  -999.250000 3.5865917206
 0.0000000000 0.0239380896 0.0983534232 0.0262388363 2.7769999504 0.3987392187
 1.0378681421 10.060999870
 5273.5107422
 8.0559997559 5273.5000000 -0.032345150 -0.001000000 191.96099854 23.982980728
 186.58999634 195.29499817 149.97500610 0.0689378828  -999.250000 3.4552702904
 0.0000000000 0.0334184021 0.1012830287 0.0351768695 2.7660000324 0.3842912316
 0.8500751853 9.9600000381
 5274.0107422
 8.0170001984 5274.0000000 -0.023406859 -0.001000000 221.41200256 26.708843231
 138.10800171 146.99099731 95.915000916 0.0788524374  -999.250000 3.3223843575
 0.0000000000 0.0428987034 0.1022593006 0.0447660051 2.7479999065 0.3811831772
 0.7434581518 10.463000298
 5274.5107422
 8.0559997559 5274.5000000 -0.013870340 0.0030000000 235.12500000 26.825988770
 101.43800354 110.65100098 73.532997131 0.0879759490  -999.250000 3.2163558006
 0.0000000000 0.0516226031 0.1018462926 0.0540271848 2.7320001125 0.3908725679
 0.6948676109 10.284999847
 5275.0107422
 8.0559997559 5275.0000000 -0.006076890 0.0060000001 196.84399414 24.789382935
 76.758003235 85.247001648 43.534999847 0.0945891812  -999.250000 3.0459573269
 0.0000000000 0.0579461753 0.1006660685 0.0610338226 2.7209999561 0.4125059843
 0.6917511821 9.6949996948
 5275.5107422
 7.9780001640 5275.5000000 0.0004964700 0.0130000003 222.14599609 22.550899506
 63.763999939 72.390998840 29.740999222 0.0945891812  -999.250000 2.9986307621
 0.0000000000 0.0579461753 0.0940927118 0.0632249415 2.7130000591 0.4525893331
 0.7280293107 9.7559995651
