# LAS format log file from PETREL
# Project units are specified as depth units
#==================================================================
~Version information
VERS.   2.0:
WRAP.   YES:
#==================================================================
~Well
STRT .ft      4000.0080566 :
STOP .ft      5460.0107422 :
STEP .ft     0.00000000 :
NULL .        -999.250000 :
COMP.           : COMPANY
WELL.  ROBERTS UNIT WI-3724A   : WELL
FLD.            : FIELD
LOC.            : LOCATION
SRVC.           : SERVICE COMPANY
DATE.  Thursday, June 28 2007 12:58:20   : DATE
PROV.           : PROVINCE
UWI.   42501337600000   : UNIQUE WELL ID
API.            : API NUMBER
#==================================================================
~Curve
DEPT .ft                   : DEPTH
CALI .in                  : CALI
DEPT .ft                  : DEPT
DPHI .ft3/ft3             : DPHI
DRHO .g/cm3               : DRHO
EATT .                    : EATT
GR .gAPI                  : GR
LLD .ohm.m                : LLD
LLS .ohm.m                : LLS
MSFL .ohm.m               : MSFL
NPHI .ft3/ft3             : NPHI
NPHI_>8% .                : NPHI_>8%
PEF .                     : PEF
PERFFLAG .                : PERFFLAG
PHI_EFF_TRANSFORM .       : PHI_EFF_TRANSFORM
PHIDIFF .                 : PHIDIFF
PHIEFF_EST .              : PHIEFF_EST
RHOB .g/cm3               : RHOB
SW_NPHI .                 : SW_NPHI
SW_PHIEFF_EST .           : SW_PHIEFF_EST
TPL .                     : TPL
~Parameter
#==================================================================
~Ascii
# ...
 4478.5087891
 9.1870002747 4478.5000000  -999.250000 -0.001000000 231.78399658  -999.250000
 85.162002563 75.704002380 48.036998749  -999.250000  -999.250000  -999.250000
 0.0000000000  -999.250000  -999.250000  -999.250000 2.9159998894  -999.250000
  -999.250000 9.9820003510
 4479.0087891
 9.1870002747 4479.0000000  -999.250000 -0.002000000 252.24299622  -999.250000
 96.504997253 83.415000916 72.500000000  -999.250000  -999.250000  -999.250000
 0.0000000000  -999.250000  -999.250000  -999.250000 2.9149999619  -999.250000
  -999.250000 10.352999687
 4479.5087891
 9.1870002747 4479.5000000  -999.250000 0.0020000001 148.16499329  -999.250000
 150.06900024 124.46299744 1738.6750488  -999.250000  -999.250000  -999.250000
 0.0000000000  -999.250000  -999.250000  -999.250000 2.9349999428  -999.250000
  -999.250000 8.3470001221
 4480.0087891
 9.1479997635 4480.0000000  -999.250000 -0.002000000 187.75000000  -999.250000
 515.61199951 412.98199463 277.72698975  -999.250000  -999.250000  -999.250000
 0.0000000000  -999.250000  -999.250000  -999.250000 2.9240000248  -999.250000
  -999.250000 9.0509996414
 4480.5087891
 9.1479997635 4480.5000000  -999.250000 -0.004000000 148.24899292  -999.250000
 687.39001465 547.31402588 1553.6729736  -999.250000  -999.250000  -999.250000
 0.0000000000  -999.250000  -999.250000  -999.250000 2.9159998894  -999.250000
  -999.250000 8.4860000610
 4481.0087891
 9.1479997635 4481.0000000  -999.250000 0.0010000000 160.80000305  -999.250000
 990.37701416 792.87701416 1682.9029541  -999.250000  -999.250000  -999.250000
 0.0000000000  -999.250000  -999.250000  -999.250000 2.9289999008  -999.250000
  -999.250000 8.5609998703
 4481.5087891
 9.1479997635 4481.5000000  -999.250000 0.0040000002 186.95199585  -999.250000
 1667.2409668 1219.6629639 1046.7819824  -999.250000  -999.250000  -999.250000
 0.0000000000  -999.250000  -999.250000  -999.250000 2.9419999123  -999.250000
  -999.250000 9.0640001297
 4482.0087891
 9.1479997635 4482.0000000  -999.250000 0.0040000002 149.99800110  -999.250000
 2415.3181152 1722.2149658 2000.0000000  -999.250000  -999.250000  -999.250000
 0.0000000000  -999.250000  -999.250000  -999.250000 2.9639999866  -999.250000
  -999.250000 8.3599996567
 4482.5087891
 9.1479997635 4482.5000000  -999.250000 0.0060000001 133.82600403  -999.250000
 3947.8959961 2736.3200684 1955.9119873  -999.250000  -999.250000  -999.250000
 0.0000000000  -999.250000  -999.250000  -999.250000 2.9590001106  -999.250000
  -999.250000 8.3990001678
 4483.0087891
 9.1090002060 4483.0000000  -999.250000 0.0040000002 141.68499756  -999.250000
 4661.9970703 3351.6860352 1858.5329590  -999.250000  -999.250000  -999.250000
 0.0000000000  -999.250000  -999.250000  -999.250000 2.9460000992  -999.250000
  -999.250000 8.4359998703
 4483.5087891
 9.1090002060 4483.5000000  -999.250000 0.0030000000 150.74099731  -999.250000
 1283.6710205 1223.8000488 1572.5529785  -999.250000  -999.250000  -999.250000
 0.0000000000  -999.250000  -999.250000  -999.250000 2.9349999428  -999.250000
  -999.250000 9.0609998703
 4484.0087891
 9.1090002060 4484.0000000  -999.250000 0.0030000000 153.32499695  -999.250000
 505.37899780 536.16998291 2000.0000000  -999.250000  -999.250000  -999.250000
 0.0000000000  -999.250000  -999.250000  -999.250000 2.9289999008  -999.250000
  -999.250000 8.3970003128
 4484.5087891
 9.0699996948 4484.5000000  -999.250000 0.0049999999 149.41000366  -999.250000
 372.16400146 402.62399292 353.93899536  -999.250000  -999.250000  -999.250000
 0.0000000000  -999.250000  -999.250000  -999.250000 2.9010000229  -999.250000
  -999.250000 8.2969999313
 4485.0087891
 9.0699996948 4485.0000000  -999.250000 0.0030000000 187.26800537  -999.250000
 322.65200806 344.25601196 154.25000000  -999.250000  -999.250000  -999.250000
 0.0000000000  -999.250000  -999.250000  -999.250000 2.8789999485  -999.250000
  -999.250000 9.6070003510
 4485.5087891
 9.0699996948 4485.5000000  -999.250000 0.0060000001 156.29600525  -999.250000
 344.78100586 371.05801392 320.35198975  -999.250000  -999.250000  -999.250000
 0.0000000000  -999.250000  -999.250000  -999.250000 2.8880000114  -999.250000
  -999.250000 8.9280004501
 4486.0087891
 9.0699996948 4486.0000000  -999.250000 0.0080000004 190.16099548  -999.250000
 566.47497559 587.72998047 1793.2879639  -999.250000  -999.250000  -999.250000
 0.0000000000  -999.250000  -999.250000  -999.250000 2.9309999943  -999.250000
  -999.250000 9.2659997940
 4486.5087891
 9.0699996948 4486.5000000  -999.250000 0.0120000001 178.63200378  -999.250000
 1115.6440430 1073.3489990 1983.8990479  -999.250000  -999.250000  -999.250000
 0.0000000000  -999.250000  -999.250000  -999.250000 2.9479999542  -999.250000
  -999.250000 9.1149997711
 4487.0087891
 8.9919996262 4487.0000000  -999.250000 0.0049999999 146.50199890  -999.250000
 4097.6499023 2977.2539063 1781.7659912  -999.250000  -999.250000  -999.250000
 0.0000000000  -999.250000  -999.250000  -999.250000 2.9500000477  -999.250000
  -999.250000 8.3979997635
 4487.5087891
 9.0310001373 4487.5000000  -999.250000 0.0049999999 134.92399597  -999.250000
 11865.109375 5840.2260742 2000.0000000  -999.250000  -999.250000  -999.250000
 0.0000000000  -999.250000  -999.250000  -999.250000 2.9539999962  -999.250000
  -999.250000 8.3229999542
 4488.0087891
 9.0310001373 4488.0000000  -999.250000 0.0040000002 141.72099304  -999.250000
 8057.6108398 4777.7568359 2000.0000000  -999.250000  -999.250000  -999.250000
 0.0000000000  -999.250000  -999.250000  -999.250000 2.9570000172  -999.250000
  -999.250000 8.3859996796
 4488.5087891
 8.9530000687 4488.5000000  -999.250000 0.0049999999 144.43400574  -999.250000
 7386.5952148 4428.8730469 1940.2719727  -999.250000  -999.250000  -999.250000
 0.0000000000  -999.250000  -999.250000  -999.250000 2.9619998932  -999.250000
  -999.250000 8.5369997025
 4489.0087891
 8.9530000687 4489.0000000  -999.250000 0.0040000002 155.37199402  -999.250000
 7159.3139648 4402.2631836 1658.4599609  -999.250000  -999.250000  -999.250000
 0.0000000000  -999.250000  -999.250000  -999.250000 2.9509999752  -999.250000
  -999.250000 8.8900003433
 4489.5087891
 8.9530000687 4489.5000000  -999.250000 0.0099999998 145.64100647  -999.250000
 6850.8740234 4598.5151367 2000.0000000  -999.250000  -999.250000  -999.250000
 0.0000000000  -999.250000  -999.250000  -999.250000 2.9579999447  -999.250000
  -999.250000 8.2469997406
 4490.0087891
 8.9139995575 4490.0000000  -999.250000 0.0089999996 131.93800354  -999.250000
 8282.1816406 5314.6518555 2000.0000000  -999.250000  -999.250000  -999.250000
 0.0000000000  -999.250000  -999.250000  -999.250000 2.9360001087  -999.250000
  -999.250000 8.3739995956
 4490.5087891
 8.8750000000 4490.5000000  -999.250000 0.0120000001 136.20799255  -999.250000
 3662.2409668 3205.0869141 1659.8780518  -999.250000  -999.250000  -999.250000
 0.0000000000  -999.250000  -999.250000  -999.250000 2.9349999428  -999.250000
  -999.250000 8.2849998474
 4491.0087891
 8.8750000000 4491.0000000  -999.250000 0.0179999992 141.71200562  -999.250000
 1429.8339844 1659.2679443 2000.0000000  -999.250000  -999.250000  -999.250000
 0.0000000000  -999.250000  -999.250000  -999.250000 2.9179999828  -999.250000
  -999.250000 8.2089996338
 4491.5087891
 8.8750000000 4491.5000000  -999.250000 0.0199999996 157.74899292  -999.250000
 250.88499451 354.28601074 786.08197021  -999.250000  -999.250000  -999.250000
 0.0000000000  -999.250000  -999.250000  -999.250000 2.9070000648  -999.250000
  -999.250000 9.2180004120
 4492.0087891
 8.8750000000 4492.0000000  -999.250000 0.0140000004 163.43200684  -999.250000
 59.847999573 84.296997070 585.67102051  -999.250000  -999.250000  -999.250000
 0.0000000000  -999.250000  -999.250000  -999.250000 2.8640000820  -999.250000
  -999.250000 9.3310003281
 4492.5087891
 8.7969999313 4492.5000000  -999.250000 0.0179999992 192.50300598  -999.250000
 23.555000305 32.960998535 69.463996887  -999.250000  -999.250000  -999.250000
 0.0000000000  -999.250000  -999.250000  -999.250000 2.8280000687  -999.250000
  -999.250000 10.010999680
