# LAS format log file from PETREL
# Project units are specified as depth units
#==================================================================
~Version information
VERS.   2.0:
WRAP.   YES:
#==================================================================
~Well
STRT .ft      4000.0080566 :
STOP .ft      5460.0107422 :
STEP .ft     0.00000000 :
NULL .        -999.250000 :
COMP.           : COMPANY
WELL.  ROBERTS UNIT WI-3724A   : WELL
FLD.            : FIELD
LOC.            : LOCATION
SRVC.           : SERVICE COMPANY
DATE.  Thursday, June 28 2007 12:58:20   : DATE
PROV.           : PROVINCE
UWI.   42501337600000   : UNIQUE WELL ID
API.            : API NUMBER
#==================================================================
~Curve
DEPT .ft                   : DEPTH
CALI .in                  : CALI
DEPT .ft                  : DEPT
DPHI .ft3/ft3             : DPHI
DRHO .g/cm3               : DRHO
EATT .                    : EATT
GR .gAPI                  : GR
LLD .ohm.m                : LLD
LLS .ohm.m                : LLS
MSFL .ohm.m               : MSFL
NPHI .ft3/ft3             : NPHI
NPHI_>8% .                : NPHI_>8%
PEF .                     : PEF
PERFFLAG .                : PERFFLAG
PHI_EFF_TRANSFORM .       : PHI_EFF_TRANSFORM
PHIDIFF .                 : PHIDIFF
PHIEFF_EST .              : PHIEFF_EST
RHOB .g/cm3               : RHOB
SW_NPHI .                 : SW_NPHI
SW_PHIEFF_EST .           : SW_PHIEFF_EST
TPL .                     : TPL
~Parameter
#==================================================================
~Ascii
# ...
 4290.0087891
 12.347000122 4290.0000000  -999.250000 -0.001000000 292.33898926  -999.250000
 21.011999130 14.847999573 12.088999748  -999.250000  -999.250000  -999.250000
 0.0000000000  -999.250000  -999.250000  -999.250000 2.5290000439  -999.250000
  -999.250000 10.116999626
 4290.5087891
 12.347000122 4290.5000000  -999.250000 0.0000000000 303.86700439  -999.250000
 20.059000015 14.784000397 10.604999542  -999.250000  -999.250000  -999.250000
 0.0000000000  -999.250000  -999.250000  -999.250000 2.5510001183  -999.250000
  -999.250000 10.418999672
 4291.0087891
 12.347000122 4291.0000000  -999.250000 0.0010000000 309.45800781  -999.250000
 18.465000153 13.623000145 10.954999924  -999.250000  -999.250000  -999.250000
 0.0000000000  -999.250000  -999.250000  -999.250000 2.5699999332  -999.250000
  -999.250000 10.444000244
 4291.5087891
 12.347000122 4291.5000000  -999.250000 -0.004000000 310.51901245  -999.250000
 16.343000412 11.979000092 9.8210000992  -999.250000  -999.250000  -999.250000
 0.0000000000  -999.250000  -999.250000  -999.250000 2.5729999542  -999.250000
  -999.250000 10.468999863
 4292.0087891
 12.347000122 4292.0000000  -999.250000 -0.001000000 337.64498901  -999.250000
 13.906000137 10.130000114 8.2159996033  -999.250000  -999.250000  -999.250000
 0.0000000000  -999.250000  -999.250000  -999.250000 2.5889999866  -999.250000
  -999.250000 10.996999741
 4292.5087891
 12.347000122 4292.5000000  -999.250000 -0.001000000 379.86499023  -999.250000
 11.319000244 8.0769996643 6.9580001831  -999.250000  -999.250000  -999.250000
 0.0000000000  -999.250000  -999.250000  -999.250000 2.5869998932  -999.250000
  -999.250000 11.814999580
 4293.0087891
 12.347000122 4293.0000000  -999.250000 -0.003000000 362.73001099  -999.250000
 9.7629995346 6.8390002251 5.8400001526  -999.250000  -999.250000  -999.250000
 0.0000000000  -999.250000  -999.250000  -999.250000 2.5889999866  -999.250000
  -999.250000 11.196999550
 4293.5087891
 12.307999611 4293.5000000  -999.250000 -0.004000000 447.10400391  -999.250000
 10.390999794 7.0619997978 4.5560002327  -999.250000  -999.250000  -999.250000
 0.0000000000  -999.250000  -999.250000  -999.250000 2.6219999790  -999.250000
  -999.250000 13.274000168
 4294.0087891
 12.307999611 4294.0000000  -999.250000 -0.003000000 451.57400513  -999.250000
 12.336000443 8.0740003586 4.5710000992  -999.250000  -999.250000  -999.250000
 0.0000000000  -999.250000  -999.250000  -999.250000 2.6940000057  -999.250000
  -999.250000 13.159999847
 4294.5087891
 12.307999611 4294.5000000  -999.250000 -0.001000000 183.45700073  -999.250000
 11.868000031 8.5010004044 24.959999084  -999.250000  -999.250000  -999.250000
 0.0000000000  -999.250000  -999.250000  -999.250000 2.7660000324  -999.250000
  -999.250000 8.3190002441
 4295.0087891
 12.307999611 4295.0000000  -999.250000 -0.005000000 246.76899719  -999.250000
 11.814999580 9.6719999313 108.37400055  -999.250000  -999.250000  -999.250000
 0.0000000000  -999.250000  -999.250000  -999.250000 2.7829999924  -999.250000
  -999.250000 9.8680000305
 4295.5087891
 12.347000122 4295.5000000  -999.250000 -0.016000001 361.13598633  -999.250000
 13.760000229 12.105999947 5.8680000305  -999.250000  -999.250000  -999.250000
 0.0000000000  -999.250000  -999.250000  -999.250000 2.7579998970  -999.250000
  -999.250000 11.588999748
 4296.0087891
 12.307999611 4296.0000000  -999.250000 -0.017999999 520.67199707  -999.250000
 14.786999702 13.185000420 6.3949999809  -999.250000  -999.250000  -999.250000
 0.0000000000  -999.250000  -999.250000  -999.250000 2.7960000038  -999.250000
  -999.250000 14.253000259
 4296.5087891
 12.307999611 4296.5000000  -999.250000 -0.011000000 153.89700317  -999.250000
 21.709999084 18.441999435 1861.3449707  -999.250000  -999.250000  -999.250000
 0.0000000000  -999.250000  -999.250000  -999.250000 2.8610000610  -999.250000
  -999.250000 8.5740003586
 4297.0087891
 12.307999611 4297.0000000  -999.250000 -0.008000000 151.13499451  -999.250000
 62.854999542 49.783000946 1892.1899414  -999.250000  -999.250000  -999.250000
 0.0000000000  -999.250000  -999.250000  -999.250000 2.9189999104  -999.250000
  -999.250000 8.4169998169
 4297.5087891
 12.307999611 4297.5000000  -999.250000 -0.012000000 148.77600098  -999.250000
 90.822998047 73.348999023 489.38400269  -999.250000  -999.250000  -999.250000
 0.0000000000  -999.250000  -999.250000  -999.250000 2.8870000839  -999.250000
  -999.250000 8.3219995499
 4298.0087891
 12.307999611 4298.0000000  -999.250000 -0.017999999 174.65100098  -999.250000
 67.518997192 56.952999115 232.84800720  -999.250000  -999.250000  -999.250000
 0.0000000000  -999.250000  -999.250000  -999.250000 2.8570001125  -999.250000
  -999.250000 8.8760004044
 4298.5087891
 12.347000122 4298.5000000  -999.250000 -0.017000001 252.78999329  -999.250000
 60.568000793 51.606998444 12.298000336  -999.250000  -999.250000  -999.250000
 0.0000000000  -999.250000  -999.250000  -999.250000 2.8489999771  -999.250000
  -999.250000 9.9809999466
 4299.0087891
 12.307999611 4299.0000000  -999.250000 -0.013000000 186.43800354  -999.250000
 45.319999695 39.136001587 235.96200562  -999.250000  -999.250000  -999.250000
 0.0000000000  -999.250000  -999.250000  -999.250000 2.8420000076  -999.250000
  -999.250000 8.9510002136
 4299.5087891
 12.307999611 4299.5000000  -999.250000 -0.011000000 156.92799377  -999.250000
 34.810001373 30.100000381 125.75000000  -999.250000  -999.250000  -999.250000
 0.0000000000  -999.250000  -999.250000  -999.250000 2.7920000553  -999.250000
  -999.250000 8.5229997635
 4300.0087891
 12.347000122 4300.0000000  -999.250000 -0.012000000 245.90499878  -999.250000
 26.954000473 25.259000778 26.583000183  -999.250000  -999.250000  -999.250000
 0.0000000000  -999.250000  -999.250000  -999.250000 2.7149999142  -999.250000
  -999.250000 9.6529998779
 4300.5087891
 12.385999680 4300.5000000  -999.250000 -0.008000000 329.87500000  -999.250000
 19.850999832 19.504999161 12.142999649  -999.250000  -999.250000  -999.250000
 0.0000000000  -999.250000  -999.250000  -999.250000 2.6289999485  -999.250000
  -999.250000 11.111000061
 4301.0087891
 12.385999680 4301.0000000  -999.250000 -0.006000000 235.33200073  -999.250000
 17.239000320 17.204999924 14.218000412  -999.250000  -999.250000  -999.250000
 0.0000000000  -999.250000  -999.250000  -999.250000 2.5769999027  -999.250000
  -999.250000 9.4770002365
 4301.5087891
 12.425000191 4301.5000000  -999.250000 -0.003000000 372.43301392  -999.250000
 17.023000717 16.684000015 9.2379999161  -999.250000  -999.250000  -999.250000
 0.0000000000  -999.250000  -999.250000  -999.250000 2.5399999619  -999.250000
  -999.250000 11.373000145
 4302.0087891
 12.425000191 4302.0000000  -999.250000 -0.002000000 342.74200439  -999.250000
 16.540000916 16.283000946 12.237999916  -999.250000  -999.250000  -999.250000
 0.0000000000  -999.250000  -999.250000  -999.250000 2.5420000553  -999.250000
  -999.250000 10.958999634
 4302.5087891
 12.425000191 4302.5000000  -999.250000 -0.005000000 316.99301147  -999.250000
 16.781000137 16.326999664 14.456000328  -999.250000  -999.250000  -999.250000
 0.0000000000  -999.250000  -999.250000  -999.250000 2.5460000038  -999.250000
  -999.250000 10.203000069
 4303.0087891
 12.425000191 4303.0000000  -999.250000 -0.012000000 287.29598999  -999.250000
 19.125999451 18.155000687 15.416999817  -999.250000  -999.250000  -999.250000
 0.0000000000  -999.250000  -999.250000  -999.250000 2.5829999447  -999.250000
  -999.250000 10.407999992
 4303.5087891
 12.385999680 4303.5000000  -999.250000 -0.009000000 311.17999268  -999.250000
 24.038000107 21.760999680 10.664999962  -999.250000  -999.250000  -999.250000
 0.0000000000  -999.250000  -999.250000  -999.250000 2.6530001163  -999.250000
  -999.250000 11.112999916
 4304.0087891
 12.347000122 4304.0000000  -999.250000 -0.004000000 263.68301392  -999.250000
 29.961999893 23.525999069 44.484001160  -999.250000  -999.250000  -999.250000
 0.0000000000  -999.250000  -999.250000  -999.250000 2.7469999790  -999.250000
  -999.250000 9.8789997101
