# LAS format log file from PETREL
# Project units are specified as depth units
#==================================================================
~Version information
VERS.   2.0:
WRAP.   NO:
#==================================================================
~Well
STRT .ft      57.000000000 :
STOP .ft      5817.0000000 :
STEP .ft     0.50000000 :
NULL .        -999.250000 :
COMP.           : COMPANY
WELL.  71-1-X-4   : WELL
FLD.            : FIELD
LOC.            : LOCATION
SRVC.           : SERVICE COMPANY
DATE.  Tuesday, June 19 2007 20:47:13   : DATE
PROV.           : PROVINCE
UWI.   490252304800   : UNIQUE WELL ID
API.            : API NUMBER
#==================================================================
~Curve
DEPT .ft                   : DEPTH
DEPT .ft                  : DEPT
DT .us/ft                 : DT
DTnew .us/ft              : DTnew
GeneralTime1 .ms          : General Time 1
HCAL .in                  : HCAL
Zoneloglinkedto'WellTopsMain' .  : Zone log linked to 'Well Tops Main'
TWT[Final](Surfaces) .ms  : TWT [Final] (Surfaces)
Velocity[Final](Surfaces) .ft/s : Velocity [Final] (Surfaces)
Velocity[Final](VelocityModel1) .ft/s : Velocity [Final] (Velocity Model 1)
Continuous .              : Continuous
Zoneloglinkedto'Welltops(from3Dgrid)' .  : Zone log linked to 'Well tops (from 3D grid)'
IntensitySGS(8000x3000x30) .  : Intensity SGS (8000x3000x30)
Intensity .               : Intensity
Cumulative .              : Cumulative
GR[Derived]1 .gAPI        : GR [Derived] 1
Intensity .               : Intensity
Cumulative .              : Cumulative
~Parameter
#==================================================================
~Ascii
# ...
 4257.0000000 4257.0000000 69.466903687 138.93380737 657.24218750 10.203900337 3.0000000000 923.60198975 4240.8598633 4268.4667969  -999.250000  -999.250000  -999.250000  -999.250000  -999.250000  -999.250000  -999.250000  -999.250000
 4257.5000000 4257.5000000 69.316398621 138.63279724 657.31158447 10.204099655 3.0000000000 923.67382813 4240.8598633 4268.4667969  -999.250000  -999.250000  -999.250000  -999.250000  -999.250000  -999.250000  -999.250000  -999.250000
 4258.0000000 4258.0000000 69.015098572 138.03019714 657.38073730 10.204199791 3.0000000000 923.74572754 4240.8598633 4268.4667969  -999.250000  -999.250000  -999.250000  -999.250000  -999.250000  -999.250000  -999.250000  -999.250000
 4258.5000000 4258.5000000 68.864799500 137.72959900 657.44964600 10.189299583 3.0000000000 923.81756592 4240.8598633 4268.4667969  -999.250000  -999.250000  -999.250000  -999.250000  -999.250000  -999.250000  -999.250000  -999.250000
 4259.0000000 4259.0000000 69.016700745 138.03340149 657.51861572 10.189499855 3.0000000000 923.88946533 4240.8598633 4268.4667969  -999.250000  -999.250000  -999.250000  -999.250000  -999.250000  -999.250000  -999.250000  -999.250000
 4259.5000000 4259.5000000 69.470596313 138.94119263 657.58782959 10.204700470 3.0000000000 923.96130371 4240.8598633 4268.4667969  -999.250000  -999.250000  -999.250000  -999.250000  -999.250000  -999.250000  -999.250000  -999.250000
 4260.0000000 4260.0000000 70.311996460 140.62399292 657.65771484 10.219900131 3.0000000000 924.03320313 4240.8598633 4268.4667969  -999.250000  -999.250000  -999.250000  -999.250000  -999.250000  -999.250000  -999.250000  -999.250000
 4260.5000000 4260.5000000 70.076400757 140.15280151 657.72790527 10.220000267 3.0000000000 924.10510254 4240.8598633 4268.4667969  -999.250000  -999.250000  -999.250000  -999.250000  -999.250000  -999.250000  -999.250000  -999.250000
 4261.0000000 4261.0000000 68.944198608 137.88839722 657.79742432 10.250300407 3.0000000000 924.17694092 4240.8598633 4268.4667969  -999.250000  -999.250000  -999.250000  -999.250000  -999.250000  -999.250000  -999.250000  -999.250000
 4261.5000000 4261.5000000 67.120697021 134.24139404 657.86547852 10.265500069 3.0000000000 924.24884033 4240.8598633 4268.4667969  -999.250000  -999.250000  -999.250000  -999.250000  -999.250000  -999.250000  -999.250000  -999.250000
 4262.0000000 4262.0000000 66.453102112 132.90620422 657.93225098 10.265700340 3.0000000000 924.32067871 4240.8598633 4268.4667969  -999.250000  -999.250000  -999.250000  -999.250000  -999.250000  -999.250000  -999.250000  -999.250000
 4262.5000000 4262.5000000 66.454002380 132.90800476 657.99871826 10.280900002 3.0000000000 924.39257813 4240.8598633 4268.4667969  -999.250000  -999.250000  -999.250000  -999.250000  -999.250000  -999.250000  -999.250000  -999.250000
 4263.0000000 4263.0000000 66.756797791 133.51359558 658.06530762 10.311100006 3.0000000000 924.46441650 4240.8598633 4268.4667969  -999.250000  -999.250000  -999.250000  -999.250000  -999.250000  -999.250000  -999.250000  -999.250000
 4263.5000000 4263.5000000 67.966102600 135.93220520 658.13269043 10.326399803 3.0000000000 924.53631592 4240.8598633 4268.4667969  -999.250000  -999.250000  -999.250000  -999.250000  -999.250000  -999.250000  -999.250000  -999.250000
 4264.0000000 4264.0000000 70.534797668 141.06959534 658.20190430 10.371700287 3.0000000000 924.60815430 4240.8598633 4268.4667969  -999.250000  -999.250000  -999.250000  -999.250000  -999.250000  -999.250000  -999.250000  -999.250000
 4264.5000000 4264.5000000 73.330101013 146.66020203 658.27386475 10.401900291 3.0000000000 924.68005371 4240.8598633 4268.4667969  -999.250000  -999.250000  -999.250000  -999.250000  -999.250000  -999.250000  -999.250000  -999.250000
 4265.0000000 4265.0000000 79.222198486 158.44439697 658.35015869 10.447299957 3.0000000000 924.75195313 4240.8598633 4268.4667969  -999.250000  -999.250000  -999.250000  -999.250000  -999.250000  -999.250000  -999.250000  -999.250000
 4265.5000000 4265.5000000 79.298202515 158.59640503 658.42938232 10.462499619 3.0000000000 924.82379150 4240.8598633 4268.4667969  -999.250000  -999.250000  -999.250000  -999.250000  -999.250000  -999.250000  -999.250000  -999.250000
 4266.0000000 4266.0000000 77.033302307 154.06660461 658.50756836 10.402400017 3.0000000000 924.89569092 4240.8598633 4268.4667969  -999.250000  -999.250000  -999.250000  -999.250000  -999.250000  -999.250000  -999.250000  -999.250000
 4266.5000000 4266.5000000 73.301498413 146.60299683 658.58270264 10.357399940 3.0000000000 924.96752930 4240.8598633 4268.4667969  -999.250000  -999.250000  -999.250000  -999.250000  -999.250000  -999.250000  -999.250000  -999.250000
 4267.0000000 4267.0000000 68.197998047 136.39599609 658.65350342 10.357500076 3.0000000000 925.03942871 4240.8598633 4268.4667969  -999.250000  -999.250000  -999.250000  -999.250000  -999.250000  -999.250000  -999.250000  -999.250000
 4267.5000000 4267.5000000 67.820899963 135.64179993 658.72149658 10.387800217 3.0000000000 925.11126709 4240.8598633 4268.4667969  -999.250000  -999.250000  -999.250000  -999.250000  -999.250000  -999.250000  -999.250000  -999.250000
 4268.0000000 4268.0000000 69.648803711 139.29760742 658.79022217 10.410599709 3.0000000000 925.18316650 4240.8598633 4268.4667969  -999.250000  -999.250000  -999.250000  -999.250000  -999.250000  -999.250000  -999.250000  -999.250000
 4268.5000000 4268.5000000 71.674598694 143.34919739 658.86090088 10.448300362 3.0000000000 925.25500488 4240.8598633 4268.4667969  -999.250000  -999.250000  -999.250000  -999.250000  -999.250000  -999.250000  -999.250000  -999.250000
 4269.0000000 4269.0000000 72.959297180 145.91859436 658.93322754 10.463600159 3.0000000000 925.32690430 4240.8598633 4268.4667969  -999.250000  -999.250000  -999.250000  -999.250000  -999.250000  -999.250000  -999.250000  -999.250000
 4269.5000000 4269.5000000 73.262100220 146.52420044 659.00628662 10.493800163 3.0000000000 925.39874268 4240.8598633 4268.4667969  -999.250000  -999.250000  -999.250000  -999.250000  -999.250000  -999.250000  -999.250000  -999.250000
 4270.0000000 4270.0000000 72.960899353 145.92179871 659.07940674 10.508999825 3.0000000000 925.47064209 4240.8598633 4268.4667969  -999.250000  -999.250000  -999.250000  -999.250000  -999.250000  -999.250000  -999.250000  -999.250000
 4270.5000000 4270.5000000 71.904197693 143.80839539 659.15185547 10.524200439 3.0000000000 925.54254150 4240.8598633 4268.4667969  -999.250000  -999.250000  -999.250000  -999.250000  -999.250000  -999.250000  -999.250000  -999.250000
 4271.0000000 4271.0000000 70.620903015 141.24180603 659.22314453 10.524399757 3.0000000000 925.61437988 4240.8598633 4268.4667969  -999.250000  -999.250000  -999.250000  -999.250000  -999.250000  -999.250000  -999.250000  -999.250000
 4271.5000000 4271.5000000 70.394996643 140.78999329 659.29364014 10.569700241 3.0000000000 925.68627930 4240.8598633 4268.4667969  -999.250000  -999.250000  -999.250000  -999.250000  -999.250000  -999.250000  -999.250000  -999.250000
 4272.0000000 4272.0000000 71.906402588 143.81280518 659.36480713 10.584899902 3.0000000000 925.75811768 4240.8598633 4268.4667969  -999.250000  -999.250000  -999.250000  -999.250000  -999.250000  -999.250000  -999.250000  -999.250000
 4272.5000000 4272.5000000 74.172996521 148.34599304 659.43780518 10.585100174 3.0000000000 925.83001709 4240.8598633 4268.4667969  -999.250000  -999.250000  -999.250000  -999.250000  -999.250000  -999.250000  -999.250000  -999.250000
 4273.0000000 4273.0000000 77.926002502 155.85200500 659.51385498 10.585300446 3.0000000000 925.90185547 4240.8598633 4268.4667969  -999.250000  -999.250000  -999.250000  -999.250000  -999.250000  -999.250000  -999.250000  -999.250000
 4273.5000000 4273.5000000 82.633796692 165.26759338 659.59417725 10.585399628 3.0000000000 925.97375488 4240.8598633 4268.4667969  -999.250000  -999.250000  -999.250000  -999.250000  -999.250000  -999.250000  -999.250000  -999.250000
 4274.0000000 4274.0000000 83.540802002 167.08160400 659.67724609 10.570500374 3.0000000000 926.04559326 4240.8598633 4268.4667969  -999.250000  -999.250000  -999.250000  -999.250000  -999.250000  -999.250000  -999.250000  -999.250000
