# LAS format log file from PETREL
# Project units are specified as depth units
#==================================================================
~Version information
VERS.   2.0:
WRAP.   NO:
#==================================================================
~Well
STRT .ft      57.000000000 :
STOP .ft      5817.0000000 :
STEP .ft     0.50000000 :
NULL .        -999.250000 :
COMP.           : COMPANY
WELL.  71-1-X-4   : WELL
FLD.            : FIELD
LOC.            : LOCATION
SRVC.           : SERVICE COMPANY
DATE.  Tuesday, June 19 2007 20:47:13   : DATE
PROV.           : PROVINCE
UWI.   490252304800   : UNIQUE WELL ID
API.            : API NUMBER
#==================================================================
~Curve
DEPT .ft                   : DEPTH
DEPT .ft                  : DEPT
DT .us/ft                 : DT
DTnew .us/ft              : DTnew
GeneralTime1 .ms          : General Time 1
HCAL .in                  : HCAL
Zoneloglinkedto'WellTopsMain' .  : Zone log linked to 'Well Tops Main'
TWT[Final](Surfaces) .ms  : TWT [Final] (Surfaces)
Velocity[Final](Surfaces) .ft/s : Velocity [Final] (Surfaces)
Velocity[Final](VelocityModel1) .ft/s : Velocity [Final] (Velocity Model 1)
Continuous .              : Continuous
Zoneloglinkedto'Welltops(from3Dgrid)' .  : Zone log linked to 'Well tops (from 3D grid)'
IntensitySGS(8000x3000x30) .  : Intensity SGS (8000x3000x30)
Intensity .               : Intensity
Cumulative .              : Cumulative
GR[Derived]1 .gAPI        : GR [Derived] 1
Intensity .               : Intensity
Cumulative .              : Cumulative
~Parameter
#==================================================================
~Ascii
# ...
 2489.5000000 2489.5000000 84.728797913 169.45759583 351.23916626 11.466400146 0.0000000000 589.34069824 2889.5300293 2887.9843750  -999.250000  -999.250000  -999.250000  -999.250000  -999.250000  -999.250000  -999.250000  -999.250000
 2490.0000000 2490.0000000 84.954597473 169.90919495 351.32403564 11.918600082 0.0000000000 589.44616699 2889.5300293 2887.9843750  -999.250000  -999.250000  -999.250000  -999.250000  -999.250000  -999.250000  -999.250000  -999.250000
 2490.5000000 2490.5000000 85.558097839 171.11619568 351.40927124 11.224399567 0.0000000000 589.55163574 2889.5300293 2887.9843750  -999.250000  -999.250000  -999.250000  -999.250000  -999.250000  -999.250000  -999.250000  -999.250000
 2491.0000000 2491.0000000 85.557296753 171.11459351 351.49484253 11.028100014 0.0000000000 589.65710449 2889.5300293 2887.9843750  -999.250000  -999.250000  -999.250000  -999.250000  -999.250000  -999.250000  -999.250000  -999.250000
 2491.5000000 2491.5000000 85.556602478 171.11320496 351.58038330 11.435000420 0.0000000000 589.76263428 2889.5300293 2887.9843750  -999.250000  -999.250000  -999.250000  -999.250000  -999.250000  -999.250000  -999.250000  -999.250000
 2492.0000000 2492.0000000 86.029296875 172.05859375 351.66619873 12.053099632 0.0000000000 589.86810303 2889.5300293 2887.9843750  -999.250000  -999.250000  -999.250000  -999.250000  -999.250000  -999.250000  -999.250000  -999.250000
 2492.5000000 2492.5000000 88.878303528 177.75660706 351.75363159 12.052800179 0.0000000000 589.97357178 2889.5300293 2887.9843750  -999.250000  -999.250000  -999.250000  -999.250000  -999.250000  -999.250000  -999.250000  -999.250000
 2493.0000000 2493.0000000 89.713500977 179.42700195 351.84292603 11.434100151 0.0000000000 590.07910156 2889.5300293 2887.9843750  -999.250000  -999.250000  -999.250000  -999.250000  -999.250000  -999.250000  -999.250000  -999.250000
 2493.5000000 2493.5000000 88.423599243 176.84719849 351.93200684 10.604200363 0.0000000000 590.18457031 2889.5300293 2887.9843750  -999.250000  -999.250000  -999.250000  -999.250000  -999.250000  -999.250000  -999.250000  -999.250000
 2494.0000000 2494.0000000 87.441101074 174.88220215 352.01992798 10.754799843 0.0000000000 590.29003906 2889.5300293 2887.9843750  -999.250000  -999.250000  -999.250000  -999.250000  -999.250000  -999.250000  -999.250000  -999.250000
 2494.5000000 2494.5000000 86.307296753 172.61459351 352.10681152 11.176799774 0.0000000000 590.39550781 2889.5300293 2887.9843750  -999.250000  -999.250000  -999.250000  -999.250000  -999.250000  -999.250000  -999.250000  -999.250000
 2495.0000000 2495.0000000 85.702400208 171.40480042 352.19281006 11.131199837 0.0000000000 590.50097656 2889.5300293 2887.9843750  -999.250000  -999.250000  -999.250000  -999.250000  -999.250000  -999.250000  -999.250000  -999.250000
 2495.5000000 2495.5000000 85.082397461 170.16479492 352.27819824 11.311900139 0.0000000000 590.60650635 2889.5300293 2887.9843750  -999.250000  -999.250000  -999.250000  -999.250000  -999.250000  -999.250000  -999.250000  -999.250000
 2496.0000000 2496.0000000 84.794700623 169.58940125 352.36315918 11.371999741 0.0000000000 590.71197510 2889.5300293 2887.9843750  -999.250000  -999.250000  -999.250000  -999.250000  -999.250000  -999.250000  -999.250000  -999.250000
 2496.5000000 2496.5000000 85.020401001 170.04080200 352.44805908 11.552599907 0.0000000000 590.81744385 2889.5300293 2887.9843750  -999.250000  -999.250000  -999.250000  -999.250000  -999.250000  -999.250000  -999.250000  -999.250000
 2497.0000000 2497.0000000 85.397201538 170.79440308 352.53326416 11.854000092 0.0000000000 590.92297363 2889.5300293 2887.9843750  -999.250000  -999.250000  -999.250000  -999.250000  -999.250000  -999.250000  -999.250000  -999.250000
 2497.5000000 2497.5000000 85.698600769 171.39720154 352.61880493 11.883899689 0.0000000000 591.02844238 2889.5300293 2887.9843750  -999.250000  -999.250000  -999.250000  -999.250000  -999.250000  -999.250000  -999.250000  -999.250000
 2498.0000000 2498.0000000 86.150901794 172.30180359 352.70474243 11.250100136 0.0000000000 591.13391113 2889.5300293 2887.9843750  -999.250000  -999.250000  -999.250000  -999.250000  -999.250000  -999.250000  -999.250000  -999.250000
 2498.5000000 2498.5000000 86.352203369 172.70440674 352.79098511 11.445899963 0.0000000000 591.23937988 2889.5300293 2887.9843750  -999.250000  -999.250000  -999.250000  -999.250000  -999.250000  -999.250000  -999.250000  -999.250000
 2499.0000000 2499.0000000 86.871398926 173.74279785 352.87759399 11.732199669 0.0000000000 591.34484863 2889.5300293 2887.9843750  -999.250000  -999.250000  -999.250000  -999.250000  -999.250000  -999.250000  -999.250000  -999.250000
 2499.5000000 2499.5000000 87.322402954 174.64480591 352.96469116 12.305000305 0.0000000000 591.45037842 2889.5300293 2887.9843750  -999.250000  -999.250000  -999.250000  -999.250000  -999.250000  -999.250000  -999.250000  -999.250000
 2500.0000000 2500.0000000 87.547500610 175.09500122 353.05212402 12.410300255 0.0000000000 591.55584717 2889.5300293 2887.9843750  -999.250000  -999.250000  -999.250000  -999.250000  -999.250000  -999.250000  -999.250000  -999.250000
 2500.5000000 2500.5000000 87.696197510 175.39239502 353.13973999 11.188300133 0.0000000000 591.66131592 2889.5300293 2887.9843750  -999.250000  -999.250000  -999.250000  -999.250000  -999.250000  -999.250000  -999.250000  -999.250000
 2501.0000000 2501.0000000 87.618896484 175.23779297 353.22741699 11.338700294 0.0000000000 591.76684570 2889.5300293 2887.9843750  -999.250000  -999.250000  -999.250000  -999.250000  -999.250000  -999.250000  -999.250000  -999.250000
 2501.5000000 2501.5000000 87.314796448 174.62959290 353.31488037 10.991600037 0.0000000000 591.87231445 2889.5300293 2887.9843750  -999.250000  -999.250000  -999.250000  -999.250000  -999.250000  -999.250000  -999.250000  -999.250000
 2502.0000000 2502.0000000 86.860099792 173.72019958 353.40197754 10.719799995 0.0000000000 591.97778320 2889.5300293 2887.9843750  -999.250000  -999.250000  -999.250000  -999.250000  -999.250000  -999.250000  -999.250000  -999.250000
 2502.5000000 2502.5000000 86.179100037 172.35820007 353.48849487 10.227800369 0.0000000000 592.08325195 2889.5300293 2887.9843750  -999.250000  -999.250000  -999.250000  -999.250000  -999.250000  -999.250000  -999.250000  -999.250000
 2503.0000000 2503.0000000 85.649002075 171.29800415 353.57440186 10.475999832 0.0000000000 592.18872070 2889.5300293 2887.9843750  -999.250000  -999.250000  -999.250000  -999.250000  -999.250000  -999.250000  -999.250000  -999.250000
 2503.5000000 2503.5000000 84.891197205 169.78239441 353.65966797 10.942899704 0.0000000000 592.29425049 2889.5300293 2887.9843750  -999.250000  -999.250000  -999.250000  -999.250000  -999.250000  -999.250000  -999.250000  -999.250000
 2504.0000000 2504.0000000 84.361900330 168.72380066 353.74429321 10.701100349 0.0000000000 592.39971924 2889.5300293 2887.9843750  -999.250000  -999.250000  -999.250000  -999.250000  -999.250000  -999.250000  -999.250000  -999.250000
 2504.5000000 2504.5000000 84.285102844 168.57020569 353.82861328 10.775799751 0.0000000000 592.50518799 2889.5300293 2887.9843750  -999.250000  -999.250000  -999.250000  -999.250000  -999.250000  -999.250000  -999.250000  -999.250000
 2505.0000000 2505.0000000 84.811096191 169.62219238 353.91317749 10.850700378 0.0000000000 592.61071777 2889.5300293 2887.9843750  -999.250000  -999.250000  -999.250000  -999.250000  -999.250000  -999.250000  -999.250000  -999.250000
 2505.5000000 2505.5000000 86.847099304 173.69419861 353.99899292 9.9300003052 0.0000000000 592.71618652 2889.5300293 2887.9843750  -999.250000  -999.250000  -999.250000  -999.250000  -999.250000  -999.250000  -999.250000  -999.250000
 2506.0000000 2506.0000000 87.675498962 175.35099792 354.08624268 10.155699730 0.0000000000 592.82165527 2889.5300293 2887.9843750  -999.250000  -999.250000  -999.250000  -999.250000  -999.250000  -999.250000  -999.250000  -999.250000
 2506.5000000 2506.5000000 87.423301697 174.84660339 354.17379761 10.275699615 0.0000000000 592.92712402 2889.5300293 2887.9843750  -999.250000  -999.250000  -999.250000  -999.250000  -999.250000  -999.250000  -999.250000  -999.250000
