# LAS format log file from PETREL
# Project units are specified as depth units
#==================================================================
~Version information
VERS.   2.0:
WRAP.   NO:
#==================================================================
~Well
STRT .ft      57.000000000 :
STOP .ft      5817.0000000 :
STEP .ft     0.50000000 :
NULL .        -999.250000 :
COMP.           : COMPANY
WELL.  71-1-X-4   : WELL
FLD.            : FIELD
LOC.            : LOCATION
SRVC.           : SERVICE COMPANY
DATE.  Tuesday, June 19 2007 20:47:13   : DATE
PROV.           : PROVINCE
UWI.   490252304800   : UNIQUE WELL ID
API.            : API NUMBER
#==================================================================
~Curve
DEPT .ft                   : DEPTH
DEPT .ft                  : DEPT
DT .us/ft                 : DT
DTnew .us/ft              : DTnew
GeneralTime1 .ms          : General Time 1
HCAL .in                  : HCAL
Zoneloglinkedto'WellTopsMain' .  : Zone log linked to 'Well Tops Main'
TWT[Final](Surfaces) .ms  : TWT [Final] (Surfaces)
Velocity[Final](Surfaces) .ft/s : Velocity [Final] (Surfaces)
Velocity[Final](VelocityModel1) .ft/s : Velocity [Final] (Velocity Model 1)
Continuous .              : Continuous
Zoneloglinkedto'Welltops(from3Dgrid)' .  : Zone log linked to 'Well tops (from 3D grid)'
IntensitySGS(8000x3000x30) .  : Intensity SGS (8000x3000x30)
Intensity .               : Intensity
Cumulative .              : Cumulative
GR[Derived]1 .gAPI        : GR [Derived] 1
Intensity .               : Intensity
Cumulative .              : Cumulative
~Parameter
#==================================================================
~Ascii
# ...
 5132.0000000 5132.0000000 63.138900757 126.27780151 779.32110596 11.185000420 4.0000000000 1049.3782959 4240.8598633 4268.4667969  -999.250000  -999.250000  -999.250000  -999.250000  -999.250000  -999.250000  -999.250000  -999.250000
 5132.5000000 5132.5000000 63.062698364 126.12539673 779.38421631 11.199399948 4.0000000000 1049.4501953 4240.8598633 4268.4667969  -999.250000  -999.250000  -999.250000  -999.250000  -999.250000  -999.250000  -999.250000  -999.250000
 5133.0000000 5133.0000000 63.439399719 126.87879944 779.44744873 11.199000359 4.0000000000 1049.5220947 4240.8598633 4268.4667969  -999.250000  -999.250000  -999.250000  -999.250000  -999.250000  -999.250000  -999.250000  -999.250000
 5133.5000000 5133.5000000 64.042999268 128.08599854 779.51123047 11.228500366 4.0000000000 1049.5939941 4240.8598633 4268.4667969  -999.250000  -999.250000  -999.250000  -999.250000  -999.250000  -999.250000  -999.250000  -999.250000
 5134.0000000 5134.0000000 64.646499634 129.29299927 779.57556152 11.253199577 4.0000000000 1049.6657715 4240.8598633 4268.4667969  -999.250000  -999.250000  -999.250000  -999.250000  -999.250000  -999.250000  -999.250000  -999.250000
 5134.5000000 5134.5000000 64.721397400 129.44279480 779.64025879 11.272800446 4.0000000000 1049.7376709 4240.8598633 4268.4667969  -999.250000  -999.250000  -999.250000  -999.250000  -999.250000  -999.250000  -999.250000  -999.250000
 5135.0000000 5135.0000000 64.720497131 129.44099426 779.70495605 11.302399635 4.0000000000 1049.8095703 4240.8598633 4268.4667969  -999.250000  -999.250000  -999.250000  -999.250000  -999.250000  -999.250000  -999.250000  -999.250000
 5135.5000000 5135.5000000 65.033500671 130.06700134 779.76983643 11.332099915 4.0000000000 1049.8814697 4240.8598633 4268.4667969  -999.250000  -999.250000  -999.250000  -999.250000  -999.250000  -999.250000  -999.250000  -999.250000
 5136.0000000 5136.0000000 65.927398682 131.85479736 779.83532715 11.361599922 4.0000000000 1049.9533691 4240.8598633 4268.4667969  -999.250000  -999.250000  -999.250000  -999.250000  -999.250000  -999.250000  -999.250000  -999.250000
 5136.5000000 5136.5000000 66.681999207 133.36399841 779.90161133 11.391300201 4.0000000000 1050.0251465 4240.8598633 4268.4667969  -999.250000  -999.250000  -999.250000  -999.250000  -999.250000  -999.250000  -999.250000  -999.250000
 5137.0000000 5137.0000000 66.832397461 133.66479492 779.96838379 11.420900345 4.0000000000 1050.0970459 4240.8598633 4268.4667969  -999.250000  -999.250000  -999.250000  -999.250000  -999.250000  -999.250000  -999.250000  -999.250000
 5137.5000000 5137.5000000 66.529403687 133.05880737 780.03503418 11.435500145 4.0000000000 1050.1689453 4240.8598633 4268.4667969  -999.250000  -999.250000  -999.250000  -999.250000  -999.250000  -999.250000  -999.250000  -999.250000
 5138.0000000 5138.0000000 65.924499512 131.84899902 780.10125732 11.465200424 4.0000000000 1050.2408447 4240.8598633 4268.4667969  -999.250000  -999.250000  -999.250000  -999.250000  -999.250000  -999.250000  -999.250000  -999.250000
 5138.5000000 5138.5000000 65.092796326 130.18559265 780.16680908 11.479700089 4.0000000000 1050.3127441 4240.8598633 4268.4667969  -999.250000  -999.250000  -999.250000  -999.250000  -999.250000  -999.250000  -999.250000  -999.250000
 5139.0000000 5139.0000000 64.638900757 129.27780151 780.23162842 11.494299889 4.0000000000 1050.3845215 4240.8598633 4268.4667969  -999.250000  -999.250000  -999.250000  -999.250000  -999.250000  -999.250000  -999.250000  -999.250000
 5139.5000000 5139.5000000 64.411598206 128.82319641 780.29620361 11.493700027 4.0000000000 1050.4564209 4240.8598633 4268.4667969  -999.250000  -999.250000  -999.250000  -999.250000  -999.250000  -999.250000  -999.250000  -999.250000
 5140.0000000 5140.0000000 64.410797119 128.82159424 780.36059570 11.493200302 4.0000000000 1050.5283203 4240.8598633 4268.4667969  -999.250000  -999.250000  -999.250000  -999.250000  -999.250000  -999.250000  -999.250000  -999.250000
 5140.5000000 5140.5000000 64.410102844 128.82020569 780.42498779 11.507800102 4.0000000000 1050.6002197 4240.8598633 4268.4667969  -999.250000  -999.250000  -999.250000  -999.250000  -999.250000  -999.250000  -999.250000  -999.250000
 5141.0000000 5141.0000000 64.409202576 128.81840515 780.48937988 11.507200241 4.0000000000 1050.6721191 4240.8598633 4268.4667969  -999.250000  -999.250000  -999.250000  -999.250000  -999.250000  -999.250000  -999.250000  -999.250000
 5141.5000000 5141.5000000 64.559600830 129.11920166 780.55389404 11.506699562 4.0000000000 1050.7438965 4240.8598633 4268.4667969  -999.250000  -999.250000  -999.250000  -999.250000  -999.250000  -999.250000  -999.250000  -999.250000
 5142.0000000 5142.0000000 64.785499573 129.57099915 780.61859131 11.536299706 4.0000000000 1050.8157959 4240.8598633 4268.4667969  -999.250000  -999.250000  -999.250000  -999.250000  -999.250000  -999.250000  -999.250000  -999.250000
 5142.5000000 5142.5000000 65.162300110 130.32460022 780.68353271 11.535799980 4.0000000000 1050.8876953 4240.8598633 4268.4667969  -999.250000  -999.250000  -999.250000  -999.250000  -999.250000  -999.250000  -999.250000  -999.250000
 5143.0000000 5143.0000000 65.614799500 131.22959900 780.74890137 11.565500259 4.0000000000 1050.9595947 4240.8598633 4268.4667969  -999.250000  -999.250000  -999.250000  -999.250000  -999.250000  -999.250000  -999.250000  -999.250000
 5143.5000000 5143.5000000 66.074996948 132.14999390 780.81475830 11.579999924 4.0000000000 1051.0314941 4240.8598633 4268.4667969  -999.250000  -999.250000  -999.250000  -999.250000  -999.250000  -999.250000  -999.250000  -999.250000
 5144.0000000 5144.0000000 66.066398621 132.13279724 780.88085938 11.594599724 4.0000000000 1051.1032715 4240.8598633 4268.4667969  -999.250000  -999.250000  -999.250000  -999.250000  -999.250000  -999.250000  -999.250000  -999.250000
 5144.5000000 5144.5000000 65.763603210 131.52720642 780.94677734 11.593999863 4.0000000000 1051.1751709 4240.8598633 4268.4667969  -999.250000  -999.250000  -999.250000  -999.250000  -999.250000  -999.250000  -999.250000  -999.250000
 5145.0000000 5145.0000000 65.007400513 130.01480103 781.01214600 11.578499794 4.0000000000 1051.2470703 4240.8598633 4268.4667969  -999.250000  -999.250000  -999.250000  -999.250000  -999.250000  -999.250000  -999.250000  -999.250000
 5145.5000000 5145.5000000 64.855697632 129.71139526 781.07708740 11.572899818 4.0000000000 1051.3189697 4240.8598633 4268.4667969  -999.250000  -999.250000  -999.250000  -999.250000  -999.250000  -999.250000  -999.250000  -999.250000
 5146.0000000 5146.0000000 65.005996704 130.01199341 781.14202881 11.562299728 4.0000000000 1051.3908691 4240.8598633 4268.4667969  -999.250000  -999.250000  -999.250000  -999.250000  -999.250000  -999.250000  -999.250000  -999.250000
 5146.5000000 5146.5000000 66.364700317 132.72940063 781.20770264 11.561800003 4.0000000000 1051.4626465 4240.8598633 4268.4667969  -999.250000  -999.250000  -999.250000  -999.250000  -999.250000  -999.250000  -999.250000  -999.250000
 5147.0000000 5147.0000000 67.119499207 134.23899841 781.27441406 11.546099663 4.0000000000 1051.5345459 4240.8598633 4268.4667969  -999.250000  -999.250000  -999.250000  -999.250000  -999.250000  -999.250000  -999.250000  -999.250000
 5147.5000000 5147.5000000 66.958801270 133.91760254 781.34149170 11.545700073 4.0000000000 1051.6064453 4240.8598633 4268.4667969  -999.250000  -999.250000  -999.250000  -999.250000  -999.250000  -999.250000  -999.250000  -999.250000
 5148.0000000 5148.0000000 66.513496399 133.02699280 781.40820313 11.545100212 4.0000000000 1051.6783447 4240.8598633 4268.4667969  -999.250000  -999.250000  -999.250000  -999.250000  -999.250000  -999.250000  -999.250000  -999.250000
 5148.5000000 5148.5000000 65.908599854 131.81719971 781.47442627 11.544599533 4.0000000000 1051.7502441 4240.8598633 4268.4667969  -999.250000  -999.250000  -999.250000  -999.250000  -999.250000  -999.250000  -999.250000  -999.250000
 5149.0000000 5149.0000000 65.001403809 130.00280762 781.53985596 11.543999672 4.0000000000 1051.8220215 4240.8598633 4268.4667969  -999.250000  -999.250000  -999.250000  -999.250000  -999.250000  -999.250000  -999.250000  -999.250000
