# LAS format log file from PETREL
# Project units are specified as depth units
#==================================================================
~Version information
VERS.   2.0:
WRAP.   NO:
#==================================================================
~Well
STRT .ft      57.000000000 :
STOP .ft      5817.0000000 :
STEP .ft     0.50000000 :
NULL .        -999.250000 :
COMP.           : COMPANY
WELL.  71-1-X-4   : WELL
FLD.            : FIELD
LOC.            : LOCATION
SRVC.           : SERVICE COMPANY
DATE.  Tuesday, June 19 2007 20:47:13   : DATE
PROV.           : PROVINCE
UWI.   490252304800   : UNIQUE WELL ID
API.            : API NUMBER
#==================================================================
~Curve
DEPT .ft                   : DEPTH
DEPT .ft                  : DEPT
DT .us/ft                 : DT
DTnew .us/ft              : DTnew
GeneralTime1 .ms          : General Time 1
HCAL .in                  : HCAL
Zoneloglinkedto'WellTopsMain' .  : Zone log linked to 'Well Tops Main'
TWT[Final](Surfaces) .ms  : TWT [Final] (Surfaces)
Velocity[Final](Surfaces) .ft/s : Velocity [Final] (Surfaces)
Velocity[Final](VelocityModel1) .ft/s : Velocity [Final] (Velocity Model 1)
Continuous .              : Continuous
Zoneloglinkedto'Welltops(from3Dgrid)' .  : Zone log linked to 'Well tops (from 3D grid)'
IntensitySGS(8000x3000x30) .  : Intensity SGS (8000x3000x30)
Intensity .               : Intensity
Cumulative .              : Cumulative
GR[Derived]1 .gAPI        : GR [Derived] 1
Intensity .               : Intensity
Cumulative .              : Cumulative
~Parameter
#==================================================================
~Ascii
# ...
 2699.5000000 2699.5000000 81.619796753 163.23959351 386.45187378 14.610300064 0.0000000000 633.64410400 2889.5300293 2887.9843750  -999.250000  -999.250000  -999.250000  -999.250000  -999.250000  -999.250000  -999.250000  -999.250000
 2700.0000000 2700.0000000 81.465103149 162.93020630 386.53341675 12.706899643 0.0000000000 633.74957275 2889.5300293 2887.9843750  -999.250000  -999.250000  -999.250000  -999.250000  -999.250000  -999.250000  -999.250000  -999.250000
 2700.5000000 2700.5000000 80.482597351 160.96519470 386.61441040 11.589099884 0.0000000000 633.85504150 2889.5300293 2887.9843750  -999.250000  -999.250000  -999.250000  -999.250000  -999.250000  -999.250000  -999.250000  -999.250000
 2701.0000000 2701.0000000 79.348899841 158.69779968 386.69430542 11.528699875 0.0000000000 633.96057129 2889.5300293 2887.9843750  -999.250000  -999.250000  -999.250000  -999.250000  -999.250000  -999.250000  -999.250000  -999.250000
 2701.5000000 2701.5000000 78.441703796 156.88340759 386.77319336 11.513600349 0.0000000000 634.06604004 2889.5300293 2887.9843750  -999.250000  -999.250000  -999.250000  -999.250000  -999.250000  -999.250000  -999.250000  -999.250000
 2702.0000000 2702.0000000 78.670700073 157.34140015 386.85177612 11.498499870 0.0000000000 634.17150879 2889.5300293 2887.9843750  -999.250000  -999.250000  -999.250000  -999.250000  -999.250000  -999.250000  -999.250000  -999.250000
 2702.5000000 2702.5000000 79.577003479 159.15400696 386.93087769 11.468299866 0.0000000000 634.27697754 2889.5300293 2887.9843750  -999.250000  -999.250000  -999.250000  -999.250000  -999.250000  -999.250000  -999.250000  -999.250000
 2703.0000000 2703.0000000 81.087600708 162.17520142 387.01123047 11.438099861 0.0000000000 634.38244629 2889.5300293 2887.9843750  -999.250000  -999.250000  -999.250000  -999.250000  -999.250000  -999.250000  -999.250000  -999.250000
 2703.5000000 2703.5000000 81.994003296 163.98800659 387.09277344 11.362500191 0.0000000000 634.48797607 2889.5300293 2887.9843750  -999.250000  -999.250000  -999.250000  -999.250000  -999.250000  -999.250000  -999.250000  -999.250000
 2704.0000000 2704.0000000 81.994003296 163.98800659 387.17474365 11.256799698 0.0000000000 634.59344482 2889.5300293 2887.9843750  -999.250000  -999.250000  -999.250000  -999.250000  -999.250000  -999.250000  -999.250000  -999.250000
 2704.5000000 2704.5000000 81.767402649 163.53480530 387.25662231 11.211500168 0.0000000000 634.69891357 2889.5300293 2887.9843750  -999.250000  -999.250000  -999.250000  -999.250000  -999.250000  -999.250000  -999.250000  -999.250000
 2705.0000000 2705.0000000 81.012100220 162.02420044 387.33801270 11.166199684 0.0000000000 634.80444336 2889.5300293 2887.9843750  -999.250000  -999.250000  -999.250000  -999.250000  -999.250000  -999.250000  -999.250000  -999.250000
 2705.5000000 2705.5000000 80.030197144 160.06039429 387.41854858 11.135999680 0.0000000000 634.90991211 2889.5300293 2887.9843750  -999.250000  -999.250000  -999.250000  -999.250000  -999.250000  -999.250000  -999.250000  -999.250000
 2706.0000000 2706.0000000 80.483398438 160.96679688 387.49880981 11.090600014 0.0000000000 635.01538086 2889.5300293 2887.9843750  -999.250000  -999.250000  -999.250000  -999.250000  -999.250000  -999.250000  -999.250000  -999.250000
 2706.5000000 2706.5000000 81.465301514 162.93060303 387.57977295 11.075499535 0.0000000000 635.12084961 2889.5300293 2887.9843750  -999.250000  -999.250000  -999.250000  -999.250000  -999.250000  -999.250000  -999.250000  -999.250000
 2707.0000000 2707.0000000 81.703796387 163.40759277 387.66134644 11.045299530 0.0000000000 635.22631836 2889.5300293 2887.9843750  -999.250000  -999.250000  -999.250000  -999.250000  -999.250000  -999.250000  -999.250000  -999.250000
 2707.5000000 2707.5000000 82.598197937 165.19639587 387.74349976 11.015099525 0.0000000000 635.33184814 2889.5300293 2887.9843750  -999.250000  -999.250000  -999.250000  -999.250000  -999.250000  -999.250000  -999.250000  -999.250000
 2708.0000000 2708.0000000 84.939598083 169.87919617 387.82727051 10.984900475 0.0000000000 635.43731689 2889.5300293 2887.9843750  -999.250000  -999.250000  -999.250000  -999.250000  -999.250000  -999.250000  -999.250000  -999.250000
 2708.5000000 2708.5000000 86.676696777 173.35339355 387.91308594 10.984900475 0.0000000000 635.54278564 2889.5300293 2887.9843750  -999.250000  -999.250000  -999.250000  -999.250000  -999.250000  -999.250000  -999.250000  -999.250000
 2709.0000000 2709.0000000 86.903297424 173.80659485 387.99987793 10.984900475 0.0000000000 635.64831543 2889.5300293 2887.9843750  -999.250000  -999.250000  -999.250000  -999.250000  -999.250000  -999.250000  -999.250000  -999.250000
 2709.5000000 2709.5000000 86.676696777 173.35339355 388.08666992 10.984900475 0.0000000000 635.75378418 2889.5300293 2887.9843750  -999.250000  -999.250000  -999.250000  -999.250000  -999.250000  -999.250000  -999.250000  -999.250000
 2710.0000000 2710.0000000 86.374603271 172.74920654 388.17318726 11.015099525 0.0000000000 635.85925293 2889.5300293 2887.9843750  -999.250000  -999.250000  -999.250000  -999.250000  -999.250000  -999.250000  -999.250000  -999.250000
 2710.5000000 2710.5000000 86.601196289 173.20239258 388.25967407 11.045299530 0.0000000000 635.96472168 2889.5300293 2887.9843750  -999.250000  -999.250000  -999.250000  -999.250000  -999.250000  -999.250000  -999.250000  -999.250000
 2711.0000000 2711.0000000 88.111801147 176.22360229 388.34704590 11.060400009 0.0000000000 636.07025146 2889.5300293 2887.9843750  -999.250000  -999.250000  -999.250000  -999.250000  -999.250000  -999.250000  -999.250000  -999.250000
 2711.5000000 2711.5000000 91.057403564 182.11480713 388.43661499 11.075499535 0.0000000000 636.17572021 2889.5300293 2887.9843750  -999.250000  -999.250000  -999.250000  -999.250000  -999.250000  -999.250000  -999.250000  -999.250000
 2712.0000000 2712.0000000 93.096702576 186.19340515 388.52868652 11.030200005 0.0000000000 636.28118896 2889.5300293 2887.9843750  -999.250000  -999.250000  -999.250000  -999.250000  -999.250000  -999.250000  -999.250000  -999.250000
 2712.5000000 2712.5000000 94.456199646 188.91239929 388.62246704 11.015099525 0.0000000000 636.38665771 2889.5300293 2887.9843750  -999.250000  -999.250000  -999.250000  -999.250000  -999.250000  -999.250000  -999.250000  -999.250000
 2713.0000000 2713.0000000 93.323303223 186.64660645 388.71636963 10.969799995 0.0000000000 636.49218750 2889.5300293 2887.9843750  -999.250000  -999.250000  -999.250000  -999.250000  -999.250000  -999.250000  -999.250000  -999.250000
 2713.5000000 2713.5000000 92.182197571 184.36439514 388.80911255 10.932100296 0.0000000000 636.59765625 2889.5300293 2887.9843750  -999.250000  -999.250000  -999.250000  -999.250000  -999.250000  -999.250000  -999.250000  -999.250000
 2714.0000000 2714.0000000 90.906303406 181.81260681 388.90066528 10.924500465 0.0000000000 636.70312500 2889.5300293 2887.9843750  -999.250000  -999.250000  -999.250000  -999.250000  -999.250000  -999.250000  -999.250000  -999.250000
 2714.5000000 2714.5000000 90.000000000 180.00000000 388.99111938 10.909399986 0.0000000000 636.80859375 2889.5300293 2887.9843750  -999.250000  -999.250000  -999.250000  -999.250000  -999.250000  -999.250000  -999.250000  -999.250000
 2715.0000000 2715.0000000 89.848899841 179.69779968 389.08105469 10.879199982 0.0000000000 636.91406250 2889.5300293 2887.9843750  -999.250000  -999.250000  -999.250000  -999.250000  -999.250000  -999.250000  -999.250000  -999.250000
 2715.5000000 2715.5000000 89.924499512 179.84899902 389.17092896 10.803600311 0.0000000000 637.01959229 2889.5300293 2887.9843750  -999.250000  -999.250000  -999.250000  -999.250000  -999.250000  -999.250000  -999.250000  -999.250000
 2716.0000000 2716.0000000 89.688697815 179.37739563 389.26074219 10.758299828 0.0000000000 637.12506104 2889.5300293 2887.9843750  -999.250000  -999.250000  -999.250000  -999.250000  -999.250000  -999.250000  -999.250000  -999.250000
 2716.5000000 2716.5000000 86.525703430 173.05140686 389.34884644 10.682800293 0.0000000000 637.23052979 2889.5300293 2887.9843750  -999.250000  -999.250000  -999.250000  -999.250000  -999.250000  -999.250000  -999.250000  -999.250000
