# LAS format log file from PETREL
# Project units are specified as depth units
#==================================================================
~Version information
VERS.   2.0:
WRAP.   NO:
#==================================================================
~Well
STRT .ft      57.000000000 :
STOP .ft      5817.0000000 :
STEP .ft     0.50000000 :
NULL .        -999.250000 :
COMP.           : COMPANY
WELL.  71-1-X-4   : WELL
FLD.            : FIELD
LOC.            : LOCATION
SRVC.           : SERVICE COMPANY
DATE.  Tuesday, June 19 2007 20:47:13   : DATE
PROV.           : PROVINCE
UWI.   490252304800   : UNIQUE WELL ID
API.            : API NUMBER
#==================================================================
~Curve
DEPT .ft                   : DEPTH
DEPT .ft                  : DEPT
DT .us/ft                 : DT
DTnew .us/ft              : DTnew
GeneralTime1 .ms          : General Time 1
HCAL .in                  : HCAL
Zoneloglinkedto'WellTopsMain' .  : Zone log linked to 'Well Tops Main'
TWT[Final](Surfaces) .ms  : TWT [Final] (Surfaces)
Velocity[Final](Surfaces) .ft/s : Velocity [Final] (Surfaces)
Velocity[Final](VelocityModel1) .ft/s : Velocity [Final] (Velocity Model 1)
Continuous .              : Continuous
Zoneloglinkedto'Welltops(from3Dgrid)' .  : Zone log linked to 'Well tops (from 3D grid)'
IntensitySGS(8000x3000x30) .  : Intensity SGS (8000x3000x30)
Intensity .               : Intensity
Cumulative .              : Cumulative
GR[Derived]1 .gAPI        : GR [Derived] 1
Intensity .               : Intensity
Cumulative .              : Cumulative
~Parameter
#==================================================================
~Ascii
# ...
 3574.5000000 3574.5000000 92.040603638 184.08120728 535.17962646 9.1485004425 1.0000000000 810.74475098 3053.3898926 3021.3903809  -999.250000  -999.250000  -999.250000  -999.250000  -999.250000  -999.250000  -999.250000  -999.250000
 3575.0000000 3575.0000000 92.190597534 184.38119507 535.27178955 9.1477003098 1.0000000000 810.84460449 3053.3898926 3021.3903809  -999.250000  -999.250000  -999.250000  -999.250000  -999.250000  -999.250000  -999.250000  -999.250000
 3575.5000000 3575.5000000 91.886703491 183.77340698 535.36383057 9.1014003754 1.0000000000 810.94445801 3053.3898926 3021.3903809  -999.250000  -999.250000  -999.250000  -999.250000  -999.250000  -999.250000  -999.250000  -999.250000
 3576.0000000 3576.0000000 90.676498413 181.35299683 535.45507813 9.0553998947 1.0000000000 811.04425049 3053.3898926 3021.3903809  -999.250000  -999.250000  -999.250000  -999.250000  -999.250000  -999.250000  -999.250000  -999.250000
 3576.5000000 3576.5000000 90.070800781 180.14160156 535.54547119 9.0394001007 1.0000000000 811.14404297 3053.3898926 3021.3903809  -999.250000  -999.250000  -999.250000  -999.250000  -999.250000  -999.250000  -999.250000  -999.250000
 3577.0000000 3577.0000000 90.975700378 181.95140076 535.63598633 9.0385999680 1.0000000000 811.24389648 3053.3898926 3021.3903809  -999.250000  -999.250000  -999.250000  -999.250000  -999.250000  -999.250000  -999.250000  -999.250000
 3577.5000000 3577.5000000 92.646003723 185.29200745 535.72778320 9.0376996994 1.0000000000 811.34375000 3053.3898926 3021.3903809  -999.250000  -999.250000  -999.250000  -999.250000  -999.250000  -999.250000  -999.250000  -999.250000
 3578.0000000 3578.0000000 93.993698120 187.98739624 535.82110596 9.0368003845 1.0000000000 811.44354248 3053.3898926 3021.3903809  -999.250000  -999.250000  -999.250000  -999.250000  -999.250000  -999.250000  -999.250000  -999.250000
 3578.5000000 3578.5000000 94.143699646 188.28739929 535.91516113 9.0357999802 1.0000000000 811.54333496 3053.3898926 3021.3903809  -999.250000  -999.250000  -999.250000  -999.250000  -999.250000  -999.250000  -999.250000  -999.250000
 3579.0000000 3579.0000000 92.782402039 185.56480408 536.00866699 9.0199003220 1.0000000000 811.64318848 3053.3898926 3021.3903809  -999.250000  -999.250000  -999.250000  -999.250000  -999.250000  -999.250000  -999.250000  -999.250000
 3579.5000000 3579.5000000 91.203201294 182.40640259 536.10064697 9.0190000534 1.0000000000 811.74304199 3053.3898926 3021.3903809  -999.250000  -999.250000  -999.250000  -999.250000  -999.250000  -999.250000  -999.250000  -999.250000
 3580.0000000 3580.0000000 87.341201782 174.68240356 536.18988037 9.0179996490 1.0000000000 811.84283447 3053.3898926 3021.3903809  -999.250000  -999.250000  -999.250000  -999.250000  -999.250000  -999.250000  -999.250000  -999.250000
 3580.5000000 3580.5000000 86.735496521 173.47099304 536.27697754 9.0172004700 1.0000000000 811.94262695 3053.3898926 3021.3903809  -999.250000  -999.250000  -999.250000  -999.250000  -999.250000  -999.250000  -999.250000  -999.250000
 3581.0000000 3581.0000000 86.885200500 173.77040100 536.36376953 9.0164003372 1.0000000000 812.04248047 3053.3898926 3021.3903809  -999.250000  -999.250000  -999.250000  -999.250000  -999.250000  -999.250000  -999.250000  -999.250000
 3581.5000000 3581.5000000 87.789703369 175.57940674 536.45111084 9.0304002762 1.0000000000 812.14227295 3053.3898926 3021.3903809  -999.250000  -999.250000  -999.250000  -999.250000  -999.250000  -999.250000  -999.250000  -999.250000
 3582.0000000 3582.0000000 88.996803284 177.99360657 536.53948975 9.0144996643 1.0000000000 812.24212646 3053.3898926 3021.3903809  -999.250000  -999.250000  -999.250000  -999.250000  -999.250000  -999.250000  -999.250000  -999.250000
 3582.5000000 3582.5000000 89.297500610 178.59500122 536.62866211 9.0136003494 1.0000000000 812.34191895 3053.3898926 3021.3903809  -999.250000  -999.250000  -999.250000  -999.250000  -999.250000  -999.250000  -999.250000  -999.250000
 3583.0000000 3583.0000000 89.220497131 178.44099426 536.71789551 9.0125999451 1.0000000000 812.44177246 3053.3898926 3021.3903809  -999.250000  -999.250000  -999.250000  -999.250000  -999.250000  -999.250000  -999.250000  -999.250000
 3583.5000000 3583.5000000 89.143302917 178.28660583 536.80706787 9.0117998123 1.0000000000 812.54162598 3053.3898926 3021.3903809  -999.250000  -999.250000  -999.250000  -999.250000  -999.250000  -999.250000  -999.250000  -999.250000
 3584.0000000 3584.0000000 89.066299438 178.13259888 536.89617920 9.0258998871 1.0000000000 812.64141846 3053.3898926 3021.3903809  -999.250000  -999.250000  -999.250000  -999.250000  -999.250000  -999.250000  -999.250000  -999.250000
 3584.5000000 3584.5000000 88.762802124 177.52560425 536.98510742 9.0399999619 1.0000000000 812.74121094 3053.3898926 3021.3903809  -999.250000  -999.250000  -999.250000  -999.250000  -999.250000  -999.250000  -999.250000  -999.250000
 3585.0000000 3585.0000000 88.212501526 176.42500305 537.07360840 9.0090999603 1.0000000000 812.84106445 3053.3898926 3021.3903809  -999.250000  -999.250000  -999.250000  -999.250000  -999.250000  -999.250000  -999.250000  -999.250000
 3585.5000000 3585.5000000 87.626701355 175.25340271 537.16149902 9.0005998611 1.0000000000 812.94091797 3053.3898926 3021.3903809  -999.250000  -999.250000  -999.250000  -999.250000  -999.250000  -999.250000  -999.250000  -999.250000
 3586.0000000 3586.0000000 87.247596741 174.49519348 537.24896240 8.9920997620 1.0000000000 813.04071045 3053.3898926 3021.3903809  -999.250000  -999.250000  -999.250000  -999.250000  -999.250000  -999.250000  -999.250000  -999.250000
 3586.5000000 3586.5000000 87.397300720 174.79460144 537.33624268 9.0064001083 1.0000000000 813.14050293 3053.3898926 3021.3903809  -999.250000  -999.250000  -999.250000  -999.250000  -999.250000  -999.250000  -999.250000  -999.250000
 3587.0000000 3587.0000000 87.773101807 175.54620361 537.42382813 9.0053997040 1.0000000000 813.24035645 3053.3898926 3021.3903809  -999.250000  -999.250000  -999.250000  -999.250000  -999.250000  -999.250000  -999.250000  -999.250000
 3587.5000000 3587.5000000 87.771697998 175.54339600 537.51159668 9.0045003891 1.0000000000 813.34020996 3053.3898926 3021.3903809  -999.250000  -999.250000  -999.250000  -999.250000  -999.250000  -999.250000  -999.250000  -999.250000
 3588.0000000 3588.0000000 87.770301819 175.54060364 537.59936523 9.0037002563 1.0000000000 813.44000244 3053.3898926 3021.3903809  -999.250000  -999.250000  -999.250000  -999.250000  -999.250000  -999.250000  -999.250000  -999.250000
 3588.5000000 3588.5000000 87.847900391 175.69580078 537.68719482 9.0026998520 1.0000000000 813.53979492 3053.3898926 3021.3903809  -999.250000  -999.250000  -999.250000  -999.250000  -999.250000  -999.250000  -999.250000  -999.250000
 3589.0000000 3589.0000000 88.295799255 176.59159851 537.77526855 9.0017995834 1.0000000000 813.63964844 3053.3898926 3021.3903809  -999.250000  -999.250000  -999.250000  -999.250000  -999.250000  -999.250000  -999.250000  -999.250000
 3589.5000000 3589.5000000 88.747596741 177.49519348 537.86376953 8.9858999252 1.0000000000 813.73950195 3053.3898926 3021.3903809  -999.250000  -999.250000  -999.250000  -999.250000  -999.250000  -999.250000  -999.250000  -999.250000
 3590.0000000 3590.0000000 89.425903320 178.85180664 537.95288086 8.9849996567 1.0000000000 813.83929443 3053.3898926 3021.3903809  -999.250000  -999.250000  -999.250000  -999.250000  -999.250000  -999.250000  -999.250000  -999.250000
 3590.5000000 3590.5000000 88.691902161 177.38380432 538.04193115 8.9840002060 1.0000000000 813.93908691 3053.3898926 3021.3903809  -999.250000  -999.250000  -999.250000  -999.250000  -999.250000  -999.250000  -999.250000  -999.250000
 3591.0000000 3591.0000000 87.534500122 175.06900024 538.13006592 8.9531002045 1.0000000000 814.03894043 3053.3898926 3021.3903809  -999.250000  -999.250000  -999.250000  -999.250000  -999.250000  -999.250000  -999.250000  -999.250000
 3591.5000000 3591.5000000 87.004402161 174.00880432 538.21734619 8.9371004105 1.0000000000 814.13873291 3053.3898926 3021.3903809  -999.250000  -999.250000  -999.250000  -999.250000  -999.250000  -999.250000  -999.250000  -999.250000
