# LAS format log file from PETREL
# Project units are specified as depth units
#==================================================================
~Version information
VERS.   2.0:
WRAP.   NO:
#==================================================================
~Well
STRT .ft      57.000000000 :
STOP .ft      5817.0000000 :
STEP .ft     0.50000000 :
NULL .        -999.250000 :
COMP.           : COMPANY
WELL.  71-1-X-4   : WELL
FLD.            : FIELD
LOC.            : LOCATION
SRVC.           : SERVICE COMPANY
DATE.  Tuesday, June 19 2007 20:47:13   : DATE
PROV.           : PROVINCE
UWI.   490252304800   : UNIQUE WELL ID
API.            : API NUMBER
#==================================================================
~Curve
DEPT .ft                   : DEPTH
DEPT .ft                  : DEPT
DT .us/ft                 : DT
DTnew .us/ft              : DTnew
GeneralTime1 .ms          : General Time 1
HCAL .in                  : HCAL
Zoneloglinkedto'WellTopsMain' .  : Zone log linked to 'Well Tops Main'
TWT[Final](Surfaces) .ms  : TWT [Final] (Surfaces)
Velocity[Final](Surfaces) .ft/s : Velocity [Final] (Surfaces)
Velocity[Final](VelocityModel1) .ft/s : Velocity [Final] (Velocity Model 1)
Continuous .              : Continuous
Zoneloglinkedto'Welltops(from3Dgrid)' .  : Zone log linked to 'Well tops (from 3D grid)'
IntensitySGS(8000x3000x30) .  : Intensity SGS (8000x3000x30)
Intensity .               : Intensity
Cumulative .              : Cumulative
GR[Derived]1 .gAPI        : GR [Derived] 1
Intensity .               : Intensity
Cumulative .              : Cumulative
~Parameter
#==================================================================
~Ascii
# ...
 4029.5000000 4029.5000000 117.68289948 235.36579895 620.23425293  -999.250000 3.0000000000 890.86669922 4240.8598633 4268.4667969  -999.250000  -999.250000  -999.250000  -999.250000  -999.250000  -999.250000  -999.250000  -999.250000
 4030.0000000 4030.0000000 112.24310303 224.48620605 620.34924316  -999.250000 3.0000000000 890.93859863 4240.8598633 4268.4667969  -999.250000  -999.250000  -999.250000  -999.250000  -999.250000  -999.250000  -999.250000  -999.250000
 4030.5000000 4030.5000000 100.98719788 201.97439575 620.45587158  -999.250000 3.0000000000 891.01049805 4240.8598633 4268.4667969  -999.250000  -999.250000  -999.250000  -999.250000  -999.250000  -999.250000  -999.250000  -999.250000
 4031.0000000 4031.0000000 103.02480316 206.04960632 620.55786133  -999.250000 3.0000000000 891.08233643 4240.8598633 4268.4667969  -999.250000  -999.250000  -999.250000  -999.250000  -999.250000  -999.250000  -999.250000  -999.250000
 4031.5000000 4031.5000000 111.59770203 223.19540405 620.66516113  -999.250000 3.0000000000 891.15423584 4240.8598633 4268.4667969  -999.250000  -999.250000  -999.250000  -999.250000  -999.250000  -999.250000  -999.250000  -999.250000
 4032.0000000 4032.0000000 117.97560120 235.95120239 620.77996826  -999.250000 3.0000000000 891.22607422 4240.8598633 4268.4667969  -999.250000  -999.250000  -999.250000  -999.250000  -999.250000  -999.250000  -999.250000  -999.250000
 4032.5000000 4032.5000000 121.67479706 243.34959412 620.89978027  -999.250000 3.0000000000 891.29797363 4240.8598633 4268.4667969  -999.250000  -999.250000  -999.250000  -999.250000  -999.250000  -999.250000  -999.250000  -999.250000
 4033.0000000 4033.0000000 124.01409912 248.02819824 621.02264404  -999.250000 3.0000000000 891.36981201 4240.8598633 4268.4667969  -999.250000  -999.250000  -999.250000  -999.250000  -999.250000  -999.250000  -999.250000  -999.250000
 4033.5000000 4033.5000000 123.03050232 246.06100464 621.14611816  -999.250000 3.0000000000 891.44171143 4240.8598633 4268.4667969  -999.250000  -999.250000  -999.250000  -999.250000  -999.250000  -999.250000  -999.250000  -999.250000
 4034.0000000 4034.0000000 117.74140167 235.48280334 621.26654053  -999.250000 3.0000000000 891.51354980 4240.8598633 4268.4667969  -999.250000  -999.250000  -999.250000  -999.250000  -999.250000  -999.250000  -999.250000  -999.250000
 4034.5000000 4034.5000000 107.69429779 215.38859558 621.37927246  -999.250000 3.0000000000 891.58544922 4240.8598633 4268.4667969  -999.250000  -999.250000  -999.250000  -999.250000  -999.250000  -999.250000  -999.250000  -999.250000
 4035.0000000 4035.0000000 91.655097961 183.31019592 621.47894287  -999.250000 3.0000000000 891.65734863 4240.8598633 4268.4667969  -999.250000  -999.250000  -999.250000  -999.250000  -999.250000  -999.250000  -999.250000  -999.250000
 4035.5000000 4035.5000000 91.980499268 183.96099854 621.57073975 15.864500046 3.0000000000 891.72918701 4240.8598633 4268.4667969  -999.250000  -999.250000  -999.250000  -999.250000  -999.250000  -999.250000  -999.250000  -999.250000
 4036.0000000 4036.0000000 94.395698547 188.79139709 621.66394043 15.902099609 3.0000000000 891.80108643 4240.8598633 4268.4667969  -999.250000  -999.250000  -999.250000  -999.250000  -999.250000  -999.250000  -999.250000  -999.250000
 4036.5000000 4036.5000000 101.94650269 203.89300537 621.76208496 15.939800262 3.0000000000 891.87292480 4240.8598633 4268.4667969  -999.250000  -999.250000  -999.250000  -999.250000  -999.250000  -999.250000  -999.250000  -999.250000
 4037.0000000 4037.0000000 113.42510223 226.85020447 621.86981201 15.939800262 3.0000000000 891.94482422 4240.8598633 4268.4667969  -999.250000  -999.250000  -999.250000  -999.250000  -999.250000  -999.250000  -999.250000  -999.250000
 4037.5000000 4037.5000000 117.87920380 235.75840759 621.98541260 15.939800262 3.0000000000 892.01666260 4240.8598633 4268.4667969  -999.250000  -999.250000  -999.250000  -999.250000  -999.250000  -999.250000  -999.250000  -999.250000
 4038.0000000 4038.0000000 115.23400116 230.46800232 622.10198975 15.939800262 3.0000000000 892.08856201 4240.8598633 4268.4667969  -999.250000  -999.250000  -999.250000  -999.250000  -999.250000  -999.250000  -999.250000  -999.250000
 4038.5000000 4038.5000000 108.01339722 216.02679443 622.21362305 15.227800369 3.0000000000 892.16040039 4240.8598633 4268.4667969  -999.250000  -999.250000  -999.250000  -999.250000  -999.250000  -999.250000  -999.250000  -999.250000
 4039.0000000 4039.0000000 98.991500854 197.98300171 622.31713867 14.433699608 3.0000000000 892.23229980 4240.8598633 4268.4667969  -999.250000  -999.250000  -999.250000  -999.250000  -999.250000  -999.250000  -999.250000  -999.250000
 4039.5000000 4039.5000000 85.167999268 170.33599854 622.40917969 14.719900131 3.0000000000 892.30413818 4240.8598633 4268.4667969  -999.250000  -999.250000  -999.250000  -999.250000  -999.250000  -999.250000  -999.250000  -999.250000
 4040.0000000 4040.0000000 84.335098267 168.67019653 622.49395752 12.415699959 3.0000000000 892.37603760 4240.8598633 4268.4667969  -999.250000  -999.250000  -999.250000  -999.250000  -999.250000  -999.250000  -999.250000  -999.250000
 4040.5000000 4040.5000000 82.218597412 164.43719482 622.57720947 11.632499695 3.0000000000 892.44793701 4240.8598633 4268.4667969  -999.250000  -999.250000  -999.250000  -999.250000  -999.250000  -999.250000  -999.250000  -999.250000
 4041.0000000 4041.0000000 77.382598877 154.76519775 622.65704346 11.361399651 3.0000000000 892.51977539 4240.8598633 4268.4667969  -999.250000  -999.250000  -999.250000  -999.250000  -999.250000  -999.250000  -999.250000  -999.250000
 4041.5000000 4041.5000000 76.253799438 152.50759888 622.73382568 11.451800346 3.0000000000 892.59167480 4240.8598633 4268.4667969  -999.250000  -999.250000  -999.250000  -999.250000  -999.250000  -999.250000  -999.250000  -999.250000
 4042.0000000 4042.0000000 76.253799438 152.50759888 622.81011963 11.180700302 3.0000000000 892.66351318 4240.8598633 4268.4667969  -999.250000  -999.250000  -999.250000  -999.250000  -999.250000  -999.250000  -999.250000  -999.250000
 4042.5000000 4042.5000000 76.102699280 152.20539856 622.88629150 11.060299873 3.0000000000 892.73541260 4240.8598633 4268.4667969  -999.250000  -999.250000  -999.250000  -999.250000  -999.250000  -999.250000  -999.250000  -999.250000
 4043.0000000 4043.0000000 75.547302246 151.09460449 622.96209717 11.000000000 3.0000000000 892.80725098 4240.8598633 4268.4667969  -999.250000  -999.250000  -999.250000  -999.250000  -999.250000  -999.250000  -999.250000  -999.250000
 4043.5000000 4043.5000000 71.548500061 143.09700012 623.03564453 11.361399651 3.0000000000 892.87915039 4240.8598633 4268.4667969  -999.250000  -999.250000  -999.250000  -999.250000  -999.250000  -999.250000  -999.250000  -999.250000
 4044.0000000 4044.0000000 73.459197998 146.91839600 623.10815430 12.265099525 3.0000000000 892.95098877 4240.8598633 4268.4667969  -999.250000  -999.250000  -999.250000  -999.250000  -999.250000  -999.250000  -999.250000  -999.250000
 4044.5000000 4044.5000000 77.462196350 154.92439270 623.18359375 14.237999916 3.0000000000 893.02288818 4240.8598633 4268.4667969  -999.250000  -999.250000  -999.250000  -999.250000  -999.250000  -999.250000  -999.250000  -999.250000
 4045.0000000 4045.0000000 87.583099365 175.16619873 623.26611328 14.584400177 3.0000000000 893.09472656 4240.8598633 4268.4667969  -999.250000  -999.250000  -999.250000  -999.250000  -999.250000  -999.250000  -999.250000  -999.250000
 4045.5000000 4045.5000000 98.459197998 196.91839600 623.35913086 15.081299782 3.0000000000 893.16662598 4240.8598633 4268.4667969  -999.250000  -999.250000  -999.250000  -999.250000  -999.250000  -999.250000  -999.250000  -999.250000
 4046.0000000 4046.0000000 102.08460236 204.16920471 623.45941162 13.409600258 3.0000000000 893.23852539 4240.8598633 4268.4667969  -999.250000  -999.250000  -999.250000  -999.250000  -999.250000  -999.250000  -999.250000  -999.250000
 4046.5000000 4046.5000000 105.10569763 210.21139526 623.56304932 13.469900131 3.0000000000 893.31036377 4240.8598633 4268.4667969  -999.250000  -999.250000  -999.250000  -999.250000  -999.250000  -999.250000  -999.250000  -999.250000
