# LAS format log file from PETREL
# Project units are specified as depth units
#==================================================================
~Version information
VERS.   2.0:
WRAP.   NO:
#==================================================================
~Well
STRT .ft      57.000000000 :
STOP .ft      5817.0000000 :
STEP .ft     0.50000000 :
NULL .        -999.250000 :
COMP.           : COMPANY
WELL.  71-1-X-4   : WELL
FLD.            : FIELD
LOC.            : LOCATION
SRVC.           : SERVICE COMPANY
DATE.  Tuesday, June 19 2007 20:47:13   : DATE
PROV.           : PROVINCE
UWI.   490252304800   : UNIQUE WELL ID
API.            : API NUMBER
#==================================================================
~Curve
DEPT .ft                   : DEPTH
DEPT .ft                  : DEPT
DT .us/ft                 : DT
DTnew .us/ft              : DTnew
GeneralTime1 .ms          : General Time 1
HCAL .in                  : HCAL
Zoneloglinkedto'WellTopsMain' .  : Zone log linked to 'Well Tops Main'
TWT[Final](Surfaces) .ms  : TWT [Final] (Surfaces)
Velocity[Final](Surfaces) .ft/s : Velocity [Final] (Surfaces)
Velocity[Final](VelocityModel1) .ft/s : Velocity [Final] (Velocity Model 1)
Continuous .              : Continuous
Zoneloglinkedto'Welltops(from3Dgrid)' .  : Zone log linked to 'Well tops (from 3D grid)'
IntensitySGS(8000x3000x30) .  : Intensity SGS (8000x3000x30)
Intensity .               : Intensity
Cumulative .              : Cumulative
GR[Derived]1 .gAPI        : GR [Derived] 1
Intensity .               : Intensity
Cumulative .              : Cumulative
~Parameter
#==================================================================
~Ascii
# ...
 5569.5000000 5569.5000000 56.737701416 113.47540283 833.60729980 9.2056999207  -999.250000 1111.6723633 4300.0000000 4268.4667969  -999.250000 1.0000000000 0.0082000000  -999.250000  -999.250000  -999.250000 0.1930194497 19.760686874
 5570.0000000 5570.0000000 57.490100861 114.98020172 833.66442871 9.1902999878  -999.250000 1111.7432861 4300.0000000 4268.4667969  -999.250000 1.0000000000 0.0082000000  -999.250000  -999.250000  -999.250000 0.2109259367 19.791971207
 5570.5000000 5570.5000000 58.999099731 117.99819946 833.72265625 9.2503995895  -999.250000 1111.8142090 4300.0000000 4268.4667969  -999.250000 1.0000000000 0.0082000000  -999.250000  -999.250000  -999.250000 0.2291881591 19.823253632
 5571.0000000 5571.0000000 61.490001678 122.98000336 833.78289795 9.2804002762  -999.250000 1111.8850098 4300.0000000 4268.4667969  -999.250000 1.0000000000 0.0082000000  -999.250000  -999.250000  -999.250000 0.2463213056 19.854536057
 5571.5000000 5571.5000000 63.225700378 126.45140076 833.84527588 9.2649002075  -999.250000 1111.9559326 4300.0000000 4268.4667969  -999.250000 1.0000000000 0.0082000000  -999.250000  -999.250000  -999.250000 0.2570562959 19.885818481
 5572.0000000 5572.0000000 64.813201904 129.62640381 833.90930176 9.1891002655  -999.250000 1112.0268555 4300.0000000 4268.4667969  -999.250000 1.0000000000 0.0082000000  -999.250000  -999.250000  -999.250000 0.2677913010 19.917100906
 5572.5000000 5572.5000000 64.126602173 128.25320435 833.97375488 9.0831003189  -999.250000 1112.0976563 4300.0000000 4268.4667969  -999.250000 1.0000000000 0.0082000000  -999.250000  -999.250000  -999.250000 0.2785263062 19.948383331
 5573.0000000 5573.0000000 63.216800690 126.43360138 834.03741455 9.0223999023  -999.250000 1112.1685791 4300.0000000 4268.4667969  -999.250000 1.0000000000 0.0082000000  -999.250000  -999.250000  -999.250000 0.2889468074 19.979665756
 5573.5000000 5573.5000000 61.852901459 123.70580292 834.09997559 9.0068998337  -999.250000 1112.2395020 4300.0000000 4268.4667969  -999.250000 1.0000000000 0.0082000000  -999.250000  -999.250000  -999.250000 0.2975850403 20.125000000
 5574.0000000 5574.0000000 61.018699646 122.03739929 834.16137695 8.9916000366  -999.250000 1112.3104248 4300.0000000 4268.4667969  -999.250000 1.0000000000 0.0082000000  -999.250000  -999.250000  -999.250000 0.3059480786 20.482143402
 5574.5000000 5574.5000000 60.555500031 121.11100006 834.22216797 8.9610004425  -999.250000 1112.3812256 4300.0000000 4268.4667969  -999.250000 1.0000000000 0.0082000000  -999.250000  -999.250000  -999.250000 0.3127514720 20.839284897
 5575.0000000 5575.0000000 60.181098938 120.36219788 834.28253174 8.9607000351  -999.250000 1112.4521484 4300.0000000 4268.4667969  -999.250000 1.0000000000 0.0082000000  -999.250000  -999.250000  -999.250000 0.3195548654 21.136362076
 5575.5000000 5575.5000000 59.498100281 118.99620056 834.34240723 8.9603996277  -999.250000 1112.5230713 4300.0000000 4268.4667969  -999.250000 1.0000000000 0.0082000000  -999.250000  -999.250000  -999.250000 0.3263582289 21.384290695
 5576.0000000 5576.0000000 58.360801697 116.72160339 834.40130615 8.9601001740  -999.250000 1112.5938721 4300.0000000 4268.4667969  -999.250000 1.0000000000 0.0082000000  -999.250000  -999.250000  -999.250000 0.3331616223 21.632221222
 5576.5000000 5576.5000000 57.526599884 115.05319977 834.45922852 8.9749002457  -999.250000 1112.6647949 4300.0000000 4268.4667969  -999.250000 1.0000000000 0.0082000000  -999.250000  -999.250000  -999.250000 0.3399650156 21.880149841
 5577.0000000 5577.0000000 56.767398834 113.53479767 834.51641846 8.9745998383  -999.250000 1112.7357178 4300.0000000 4268.4667969  -999.250000 1.0000000000 0.0082000000  -999.250000  -999.250000  -999.250000 0.3467753828 22.166645050
 5577.5000000 5577.5000000 56.537899017 113.07579803 834.57305908 8.9893999100  -999.250000 1112.8066406 4300.0000000 4268.4667969  -999.250000 1.0000000000 0.0082000000  -999.250000  -999.250000  -999.250000 0.3536254466 22.489225388
 5578.0000000 5578.0000000 56.837501526 113.67500305 834.62976074 9.0041999817  -999.250000 1112.8774414 4300.0000000 4268.4667969  -999.250000 1.0000000000 0.0082000000  -999.250000  -999.250000  -999.250000 0.3604774475 22.811805725
 5578.5000000 5578.5000000 58.648101807 117.29620361 834.68750000 8.9736995697  -999.250000 1112.9483643 4300.0000000 4268.4667969  -999.250000 1.0000000000 0.0082000000  -999.250000  -999.250000  -999.250000 0.3673405349 23.080116272
 5579.0000000 5579.0000000 60.081501007 120.16300201 834.74682617 8.9432001114  -999.250000 1113.0192871 4300.0000000 4268.4667969  -999.250000 1.0000000000 0.0082000000  -999.250000  -999.250000  -999.250000 0.3742036223 23.272422791
 5579.5000000 5579.5000000 60.381099701 120.76219940 834.80706787 8.7767000198  -999.250000 1113.0900879 4300.0000000 4268.4667969  -999.250000 1.0000000000 0.0082000000  -999.250000  -999.250000  -999.250000 0.3810666502 23.464731216
 5580.0000000 5580.0000000 59.243900299 118.48780060 834.86688232 8.7311000824  -999.250000 1113.1610107 4300.0000000 4268.4667969  -999.250000 1.0000000000 0.0082000000  -999.250000  -999.250000  -999.250000 0.3881286979 23.657037735
 5580.5000000 5580.5000000 58.635799408 117.27159882 834.92584229 8.7307996750  -999.250000 1113.2319336 4300.0000000 4268.4667969  -999.250000 1.0000000000 0.0082000000  -999.250000  -999.250000  -999.250000 0.3963185847 23.849346161
 5581.0000000 5581.0000000 58.557399750 117.11479950 834.98443604 8.7909002304  -999.250000 1113.3027344 4300.0000000 4268.4667969  -999.250000 1.0000000000 0.0082000000  -999.250000  -999.250000  -999.250000 0.4054222405 24.028879166
 5581.5000000 5581.5000000 58.554698944 117.10939789 835.04296875 8.9266004562  -999.250000 1113.3736572 4300.0000000 4268.4667969  -999.250000 1.0000000000 0.0082000000  -999.250000  -999.250000  -999.250000 0.4197038412 24.162214279
 5582.0000000 5582.0000000 58.551300049 117.10260010 835.10156250 9.0621995926  -999.250000 1113.4445801 4300.0000000 4268.4667969  -999.250000 1.0000000000 0.0082000000  -999.250000  -999.250000  -999.250000 0.4313263893 24.295547485
 5582.5000000 5582.5000000 58.548500061 117.09700012 835.16009521 9.1223001480  -999.250000 1113.5153809 4300.0000000 4268.4667969  -999.250000 1.0000000000 0.0082000000  -999.250000  -999.250000  -999.250000 0.4278809428 24.428880692
 5583.0000000 5583.0000000 57.998500824 115.99700165 835.21838379 9.0918998718  -999.250000 1113.5863037 4300.0000000 4268.4667969  -999.250000 1.0000000000 0.0082000000  -999.250000  -999.250000  -999.250000 0.4241650999 24.562213898
 5583.5000000 5583.5000000 56.803901672 113.60780334 835.27575684 9.4238004684  -999.250000 1113.6572266 4300.0000000 4268.4667969  -999.250000 1.0000000000 0.0082000000  -999.250000  -999.250000  -999.250000 0.4189169705 24.695547104
 5584.0000000 5584.0000000 56.045299530 112.09059906 835.33221436 9.4688997269  -999.250000 1113.7280273 4300.0000000 4268.4667969  -999.250000 1.0000000000 0.0082000000  -999.250000  -999.250000  -999.250000 0.4122300148 24.828880310
 5584.5000000 5584.5000000 54.530101776 109.06020355 835.38745117 9.2419996262  -999.250000 1113.7989502 4300.0000000 4268.4667969  -999.250000 1.0000000000 0.0082000000  -999.250000  -999.250000  -999.250000 0.3973898292 24.962213516
 5585.0000000 5585.0000000 54.376899719 108.75379944 835.44195557 9.3625001907  -999.250000 1113.8698730 4300.0000000 4268.4667969  -999.250000 1.0000000000 0.0082000000  -999.250000  -999.250000  -999.250000 0.3824868798 25.096187592
 5585.5000000 5585.5000000 55.331199646 110.66239929 835.49676514 9.3621997833  -999.250000 1113.9406738 4300.0000000 4268.4667969  -999.250000 1.0000000000 0.0082000000  -999.250000  -999.250000  -999.250000 0.3672282100 25.230415344
 5586.0000000 5586.0000000 58.451698303 116.90339661 835.55364990 9.2259998322  -999.250000 1114.0115967 4300.0000000 4268.4667969  -999.250000 1.0000000000 0.0082000000  -999.250000  -999.250000  -999.250000 0.3530986309 25.364645004
 5586.5000000 5586.5000000 61.018798828 122.03759766 835.61340332 9.1198997498  -999.250000 1114.0823975 4300.0000000 4268.4667969  -999.250000 1.0000000000 0.0082000000  -999.250000  -999.250000  -999.250000 0.3453671932 25.498872757
