# LAS format log file from PETREL
# Project units are specified as depth units
#==================================================================
~Version information
VERS.   2.0:
WRAP.   NO:
#==================================================================
~Well
STRT .ft      57.000000000 :
STOP .ft      5817.0000000 :
STEP .ft     0.50000000 :
NULL .        -999.250000 :
COMP.           : COMPANY
WELL.  71-1-X-4   : WELL
FLD.            : FIELD
LOC.            : LOCATION
SRVC.           : SERVICE COMPANY
DATE.  Tuesday, June 19 2007 20:47:13   : DATE
PROV.           : PROVINCE
UWI.   490252304800   : UNIQUE WELL ID
API.            : API NUMBER
#==================================================================
~Curve
DEPT .ft                   : DEPTH
DEPT .ft                  : DEPT
DT .us/ft                 : DT
DTnew .us/ft              : DTnew
GeneralTime1 .ms          : General Time 1
HCAL .in                  : HCAL
Zoneloglinkedto'WellTopsMain' .  : Zone log linked to 'Well Tops Main'
TWT[Final](Surfaces) .ms  : TWT [Final] (Surfaces)
Velocity[Final](Surfaces) .ft/s : Velocity [Final] (Surfaces)
Velocity[Final](VelocityModel1) .ft/s : Velocity [Final] (Velocity Model 1)
Continuous .              : Continuous
Zoneloglinkedto'Welltops(from3Dgrid)' .  : Zone log linked to 'Well tops (from 3D grid)'
IntensitySGS(8000x3000x30) .  : Intensity SGS (8000x3000x30)
Intensity .               : Intensity
Cumulative .              : Cumulative
GR[Derived]1 .gAPI        : GR [Derived] 1
Intensity .               : Intensity
Cumulative .              : Cumulative
~Parameter
#==================================================================
~Ascii
# ...
 4904.5000000 4904.5000000 61.814201355 123.62840271 749.56079102 9.5691995621 4.0000000000 1016.6765137 4240.8598633 4268.4667969  -999.250000  -999.250000  -999.250000  -999.250000  -999.250000  -999.250000  -999.250000  -999.250000
 4905.0000000 4905.0000000 62.039001465 124.07800293 749.62274170 9.5685997009 4.0000000000 1016.7484131 4240.8598633 4268.4667969  -999.250000  -999.250000  -999.250000  -999.250000  -999.250000  -999.250000  -999.250000  -999.250000
 4905.5000000 4905.5000000 62.189098358 124.37819672 749.68481445 9.5832004547 4.0000000000 1016.8202515 4240.8598633 4268.4667969  -999.250000  -999.250000  -999.250000  -999.250000  -999.250000  -999.250000  -999.250000  -999.250000
 4906.0000000 4906.0000000 62.489498138 124.97899628 749.74719238 9.5825004578 4.0000000000 1016.8921509 4240.8598633 4268.4667969  -999.250000  -999.250000  -999.250000  -999.250000  -999.250000  -999.250000  -999.250000  -999.250000
 4906.5000000 4906.5000000 63.016498566 126.03299713 749.80993652 9.5970001221 4.0000000000 1016.9639893 4240.8598633 4268.4667969  -999.250000  -999.250000  -999.250000  -999.250000  -999.250000  -999.250000  -999.250000  -999.250000
 4907.0000000 4907.0000000 63.620700836 127.24140167 749.87322998 9.5964002609 4.0000000000 1017.0358887 4240.8598633 4268.4667969  -999.250000  -999.250000  -999.250000  -999.250000  -999.250000  -999.250000  -999.250000  -999.250000
 4907.5000000 4907.5000000 63.693500519 127.38700104 749.93688965 9.6107997894 4.0000000000 1017.1077271 4240.8598633 4268.4667969  -999.250000  -999.250000  -999.250000  -999.250000  -999.250000  -999.250000  -999.250000  -999.250000
 4908.0000000 4908.0000000 63.540699005 127.08139801 750.00054932 9.6101999283 4.0000000000 1017.1796265 4240.8598633 4268.4667969  -999.250000  -999.250000  -999.250000  -999.250000  -999.250000  -999.250000  -999.250000  -999.250000
 4908.5000000 4908.5000000 63.085899353 126.17179871 750.06384277 9.6097002029 4.0000000000 1017.2514648 4240.8598633 4268.4667969  -999.250000  -999.250000  -999.250000  -999.250000  -999.250000  -999.250000  -999.250000  -999.250000
 4909.0000000 4909.0000000 63.008998871 126.01799774 750.12689209 9.6103000641 4.0000000000 1017.3233643 4240.8598633 4268.4667969  -999.250000  -999.250000  -999.250000  -999.250000  -999.250000  -999.250000  -999.250000  -999.250000
 4909.5000000 4909.5000000 62.931701660 125.86340332 750.18988037 9.6113004684 4.0000000000 1017.3952026 4240.8598633 4268.4667969  -999.250000  -999.250000  -999.250000  -999.250000  -999.250000  -999.250000  -999.250000  -999.250000
 4910.0000000 4910.0000000 62.779300690 125.55860138 750.25268555 9.6183996201 4.0000000000 1017.4671021 4240.8598633 4268.4667969  -999.250000  -999.250000  -999.250000  -999.250000  -999.250000  -999.250000  -999.250000  -999.250000
 4910.5000000 4910.5000000 62.549098969 125.09819794 750.31536865 9.6254997253 4.0000000000 1017.5390015 4240.8598633 4268.4667969  -999.250000  -999.250000  -999.250000  -999.250000  -999.250000  -999.250000  -999.250000  -999.250000
 4911.0000000 4911.0000000 62.247600555 124.49520111 750.37774658 9.6251001358 4.0000000000 1017.6108398 4240.8598633 4268.4667969  -999.250000  -999.250000  -999.250000  -999.250000  -999.250000  -999.250000  -999.250000  -999.250000
 4911.5000000 4911.5000000 61.868499756 123.73699951 750.43981934 9.6245002747 4.0000000000 1017.6827393 4240.8598633 4268.4667969  -999.250000  -999.250000  -999.250000  -999.250000  -999.250000  -999.250000  -999.250000  -999.250000
 4912.0000000 4912.0000000 61.338100433 122.67620087 750.50146484 9.6240997314 4.0000000000 1017.7545776 4240.8598633 4268.4667969  -999.250000  -999.250000  -999.250000  -999.250000  -999.250000  -999.250000  -999.250000  -999.250000
 4912.5000000 4912.5000000 60.354900360 120.70980072 750.56225586 9.6237001419 4.0000000000 1017.8264771 4240.8598633 4268.4667969  -999.250000  -999.250000  -999.250000  -999.250000  -999.250000  -999.250000  -999.250000  -999.250000
 4913.0000000 4913.0000000 59.900398254 119.80079651 750.62243652 9.6232004166 4.0000000000 1017.8983154 4240.8598633 4268.4667969  -999.250000  -999.250000  -999.250000  -999.250000  -999.250000  -999.250000  -999.250000  -999.250000
 4913.5000000 4913.5000000 60.276298523 120.55259705 750.68249512 9.6227998734 4.0000000000 1017.9702148 4240.8598633 4268.4667969  -999.250000  -999.250000  -999.250000  -999.250000  -999.250000  -999.250000  -999.250000  -999.250000
 4914.0000000 4914.0000000 61.114601135 122.22920227 750.74322510 9.6224002838 4.0000000000 1018.0420532 4240.8598633 4268.4667969  -999.250000  -999.250000  -999.250000  -999.250000  -999.250000  -999.250000  -999.250000  -999.250000
 4914.5000000 4914.5000000 62.161399841 124.32279968 750.80480957 9.6218004227 4.0000000000 1018.1139526 4240.8598633 4268.4667969  -999.250000  -999.250000  -999.250000  -999.250000  -999.250000  -999.250000  -999.250000  -999.250000
 4915.0000000 4915.0000000 63.292999268 126.58599854 750.86755371 9.6365003586 4.0000000000 1018.1857910 4240.8598633 4268.4667969  -999.250000  -999.250000  -999.250000  -999.250000  -999.250000  -999.250000  -999.250000  -999.250000
 4915.5000000 4915.5000000 64.650802612 129.30160522 750.93151855 9.6360998154 4.0000000000 1018.2576904 4240.8598633 4268.4667969  -999.250000  -999.250000  -999.250000  -999.250000  -999.250000  -999.250000  -999.250000  -999.250000
 4916.0000000 4916.0000000 66.009002686 132.01800537 750.99688721 9.6506996155 4.0000000000 1018.3295898 4240.8598633 4268.4667969  -999.250000  -999.250000  -999.250000  -999.250000  -999.250000  -999.250000  -999.250000  -999.250000
 4916.5000000 4916.5000000 67.895500183 135.79100037 751.06384277 9.6653003693 4.0000000000 1018.4014282 4240.8598633 4268.4667969  -999.250000  -999.250000  -999.250000  -999.250000  -999.250000  -999.250000  -999.250000  -999.250000
 4917.0000000 4917.0000000 68.875999451 137.75199890 751.13220215 9.6648998260 4.0000000000 1018.4733276 4240.8598633 4268.4667969  -999.250000  -999.250000  -999.250000  -999.250000  -999.250000  -999.250000  -999.250000  -999.250000
 4917.5000000 4917.5000000 69.252296448 138.50459290 751.20129395 9.6644001007 4.0000000000 1018.5451660 4240.8598633 4268.4667969  -999.250000  -999.250000  -999.250000  -999.250000  -999.250000  -999.250000  -999.250000  -999.250000
 4918.0000000 4918.0000000 68.797401428 137.59480286 751.27026367 9.6639995575 4.0000000000 1018.6170654 4240.8598633 4268.4667969  -999.250000  -999.250000  -999.250000  -999.250000  -999.250000  -999.250000  -999.250000  -999.250000
 4918.5000000 4918.5000000 67.663101196 135.32620239 751.33850098 9.6634998322 4.0000000000 1018.6889038 4240.8598633 4268.4667969  -999.250000  -999.250000  -999.250000  -999.250000  -999.250000  -999.250000  -999.250000  -999.250000
 4919.0000000 4919.0000000 65.924201965 131.84840393 751.40533447 9.6479997635 4.0000000000 1018.7608032 4240.8598633 4268.4667969  -999.250000  -999.250000  -999.250000  -999.250000  -999.250000  -999.250000  -999.250000  -999.250000
 4919.5000000 4919.5000000 65.318603516 130.63720703 751.47094727 9.6475000381 4.0000000000 1018.8326416 4240.8598633 4268.4667969  -999.250000  -999.250000  -999.250000  -999.250000  -999.250000  -999.250000  -999.250000  -999.250000
 4920.0000000 4920.0000000 65.241798401 130.48359680 751.53619385 9.6470003128 4.0000000000 1018.9045410 4240.8598633 4268.4667969  -999.250000  -999.250000  -999.250000  -999.250000  -999.250000  -999.250000  -999.250000  -999.250000
 4920.5000000 4920.5000000 66.221900940 132.44380188 751.60192871 9.6465997696 4.0000000000 1018.9764404 4240.8598633 4268.4667969  -999.250000  -999.250000  -999.250000  -999.250000  -999.250000  -999.250000  -999.250000  -999.250000
 4921.0000000 4921.0000000 67.064102173 134.12820435 751.66857910 9.6462001801 4.0000000000 1019.0482788 4240.8598633 4268.4667969  -999.250000  -999.250000  -999.250000  -999.250000  -999.250000  -999.250000  -999.250000  -999.250000
 4921.5000000 4921.5000000 67.880500793 135.76100159 751.73608398 9.6457004547 4.0000000000 1019.1201782 4240.8598633 4268.4667969  -999.250000  -999.250000  -999.250000  -999.250000  -999.250000  -999.250000  -999.250000  -999.250000
