# LAS format log file from PETREL
# Project units are specified as depth units
#==================================================================
~Version information
VERS.   2.0:
WRAP.   NO:
#==================================================================
~Well
STRT .ft      57.000000000 :
STOP .ft      5817.0000000 :
STEP .ft     0.50000000 :
NULL .        -999.250000 :
COMP.           : COMPANY
WELL.  71-1-X-4   : WELL
FLD.            : FIELD
LOC.            : LOCATION
SRVC.           : SERVICE COMPANY
DATE.  Tuesday, June 19 2007 20:47:13   : DATE
PROV.           : PROVINCE
UWI.   490252304800   : UNIQUE WELL ID
API.            : API NUMBER
#==================================================================
~Curve
DEPT .ft                   : DEPTH
DEPT .ft                  : DEPT
DT .us/ft                 : DT
DTnew .us/ft              : DTnew
GeneralTime1 .ms          : General Time 1
HCAL .in                  : HCAL
Zoneloglinkedto'WellTopsMain' .  : Zone log linked to 'Well Tops Main'
TWT[Final](Surfaces) .ms  : TWT [Final] (Surfaces)
Velocity[Final](Surfaces) .ft/s : Velocity [Final] (Surfaces)
Velocity[Final](VelocityModel1) .ft/s : Velocity [Final] (Velocity Model 1)
Continuous .              : Continuous
Zoneloglinkedto'Welltops(from3Dgrid)' .  : Zone log linked to 'Well tops (from 3D grid)'
IntensitySGS(8000x3000x30) .  : Intensity SGS (8000x3000x30)
Intensity .               : Intensity
Cumulative .              : Cumulative
GR[Derived]1 .gAPI        : GR [Derived] 1
Intensity .               : Intensity
Cumulative .              : Cumulative
~Parameter
#==================================================================
~Ascii
# ...
 5342.0000000 5342.0000000 54.400699615 108.80139923 804.82604980 9.1667003632  -999.250000 1079.4202881 4300.0000000 4268.4667969  -999.250000 0.0000000000  -999.250000  -999.250000  -999.250000  -999.250000 0.0096820993 3.4820880890
 5342.5000000 5342.5000000 54.547100067 109.09420013 804.88055420 9.1665000916  -999.250000 1079.4912109 4300.0000000 4268.4667969  -999.250000 0.0000000000  -999.250000  -999.250000  -999.250000  -999.250000 0.0096820993 3.4869291782
 5343.0000000 5343.0000000 54.241401672 108.48280334 804.93493652 9.1814002991  -999.250000 1079.5620117 4300.0000000 4268.4667969  -999.250000 0.0000000000  -999.250000  -999.250000  -999.250000  -999.250000 0.0096820993 3.4917702675
 5343.5000000 5343.5000000 53.483299255 106.96659851 804.98876953 9.1962995529  -999.250000 1079.6329346 4300.0000000 4268.4667969  -999.250000 0.0000000000  -999.250000  -999.250000  -999.250000  -999.250000 0.0096820993 3.4966113567
 5344.0000000 5344.0000000 52.875598907 105.75119781 805.04199219 9.2111997604  -999.250000 1079.7038574 4300.0000000 4268.4667969  -999.250000 0.0000000000  -999.250000  -999.250000  -999.250000  -999.250000 0.0096820993 3.5014522076
 5344.5000000 5344.5000000 52.721698761 105.44339752 805.09478760 9.2110004425  -999.250000 1079.7746582 4300.0000000 4268.4667969  -999.250000 0.0000000000  -999.250000  -999.250000  -999.250000  -999.250000 0.0096820993 3.5062932968
 5345.0000000 5345.0000000 53.096500397 106.19300079 805.14764404 9.2258996964  -999.250000 1079.8455811 4300.0000000 4268.4667969  -999.250000 0.0000000000  -999.250000  -999.250000  -999.250000  -999.250000 0.0096820993 3.5111343861
 5345.5000000 5345.5000000 53.710300446 107.42060089 805.20104980 9.2257003784  -999.250000 1079.9165039 4300.0000000 4268.4667969  -999.250000 0.0000000000  -999.250000  -999.250000  -999.250000  -999.250000 0.0096820993 3.5159754753
 5346.0000000 5346.0000000 55.280498505 110.56099701 805.25555420 9.2103996277  -999.250000 1079.9873047 4300.0000000 4268.4667969  -999.250000 0.0000000000  -999.250000  -999.250000  -999.250000  -999.250000 0.0096820993 3.5208165646
 5346.5000000 5346.5000000 56.183998108 112.36799622 805.31127930 9.2102003098  -999.250000 1080.0582275 4300.0000000 4268.4667969  -999.250000 0.0000000000  -999.250000  -999.250000  -999.250000  -999.250000 0.0096820993 3.5256576538
 5347.0000000 5347.0000000 57.918399811 115.83679962 805.36834717 9.2100000381  -999.250000 1080.1291504 4300.0000000 4268.4667969  -999.250000 0.0000000000  -999.250000  -999.250000  -999.250000  -999.250000 0.0096820993 3.5304985046
 5347.5000000 5347.5000000 60.029701233 120.05940247 805.42730713 9.2399997711  -999.250000 1080.1999512 4300.0000000 4268.4667969  -999.250000 0.0000000000  -999.250000  -999.250000  -999.250000  -999.250000 0.0096820993 3.5353395939
 5348.0000000 5348.0000000 60.857700348 121.71540070 805.48779297 9.2700004578  -999.250000 1080.2708740 4300.0000000 4268.4667969  -999.250000 0.0000000000  -999.250000  -999.250000  -999.250000  -999.250000 0.0096820993 3.5401806831
 5348.5000000 5348.5000000 60.703800201 121.40760040 805.54852295 9.3000001907  -999.250000 1080.3417969 4300.0000000 4268.4667969  -999.250000 0.0000000000  -999.250000  -999.250000  -999.250000  -999.250000 0.0096820993 3.5450217724
 5349.0000000 5349.0000000 60.083999634 120.16799927 805.60894775 9.3149003983  -999.250000 1080.4127197 4300.0000000 4268.4667969  -999.250000 0.0000000000  -999.250000  -999.250000  -999.250000  -999.250000 0.0096820993 3.5498628616
 5349.5000000 5349.5000000 58.809200287 117.61840057 805.66839600 9.3447999954  -999.250000 1080.4835205 4300.0000000 4268.4667969  -999.250000 0.0000000000  -999.250000  -999.250000  -999.250000  -999.250000 0.0096820993 3.5547039509
 5350.0000000 5350.0000000 56.616100311 113.23220062 805.72613525 9.3597002029  -999.250000 1080.5544434 4300.0000000 4268.4667969  -999.250000 0.0000000000  -999.250000  -999.250000  -999.250000  -999.250000 0.0096820993 3.5595448017
 5350.5000000 5350.5000000 54.045299530 108.09059906 805.78143311 9.3746004105  -999.250000 1080.6253662 4300.0000000 4268.4667969  -999.250000 0.0000000000  -999.250000  -999.250000  -999.250000  -999.250000 0.0096820993 3.5643858910
 5351.0000000 5351.0000000 54.570499420 109.14099884 805.83575439 9.3894996643  -999.250000 1080.6961670 4300.0000000 4268.4667969  -999.250000 0.0000000000  -999.250000  -999.250000  -999.250000  -999.250000 0.0096820984 3.5692269802
 5351.5000000 5351.5000000 59.859401703 119.71880341 805.89294434 9.4195003510  -999.250000 1080.7670898 4300.0000000 4268.4667969  -999.250000 0.0000000000  -999.250000  -999.250000  -999.250000  -999.250000 0.0096820900 3.5740680695
 5352.0000000 5352.0000000 63.558898926 127.11779785 805.95465088 9.4343996048  -999.250000 1080.8380127 4300.0000000 4268.4667969  -999.250000 0.0000000000  -999.250000  -999.250000  -999.250000  -999.250000 0.0096820844 3.5789091587
 5352.5000000 5352.5000000 65.370201111 130.74040222 806.01910400 9.4342002869  -999.250000 1080.9089355 4300.0000000 4268.4667969  -999.250000 0.0000000000  -999.250000  -999.250000  -999.250000  -999.250000 0.0096820928 3.5837502480
 5353.0000000 5353.0000000 64.537696838 129.07539368 806.08410645 9.4490995407  -999.250000 1080.9797363 4300.0000000 4268.4667969  -999.250000 0.0000000000  -999.250000  -999.250000  -999.250000  -999.250000 0.0096820993 3.5885910988
 5353.5000000 5353.5000000 61.817001343 123.63400269 806.14727783 9.4791002274  -999.250000 1081.0506592 4300.0000000 4268.4667969  -999.250000 0.0000000000  -999.250000  -999.250000  -999.250000  -999.250000 0.0096820993 3.5934321880
 5354.0000000 5354.0000000 59.700801849 119.40160370 806.20800781 9.4788999557  -999.250000 1081.1215820 4300.0000000 4268.4667969  -999.250000 0.0000000000  -999.250000  -999.250000  -999.250000  -999.250000 0.0096820984 3.5982732773
 5354.5000000 5354.5000000 59.095199585 118.19039917 806.26739502 9.4955997467  -999.250000 1081.1923828 4300.0000000 4268.4667969  -999.250000 0.0000000000  -999.250000  -999.250000  -999.250000  -999.250000 0.0096820900 3.6031143665
 5355.0000000 5355.0000000 59.320400238 118.64080048 806.32659912 9.5030002594  -999.250000 1081.2633057 4300.0000000 4268.4667969  -999.250000 0.0000000000  -999.250000  -999.250000  -999.250000  -999.250000 0.0096820844 3.6079554558
 5355.5000000 5355.5000000 59.771900177 119.54380035 806.38616943 9.5103998184  -999.250000 1081.3342285 4300.0000000 4268.4667969  -999.250000 0.0000000000  -999.250000  -999.250000  -999.250000  -999.250000 0.0096820928 3.6127965450
 5356.0000000 5356.0000000 59.921501160 119.84300232 806.44604492 9.5254001617  -999.250000 1081.4050293 4300.0000000 4268.4667969  -999.250000 0.0000000000  -999.250000  -999.250000  -999.250000  -999.250000 0.0096820993 3.6176373959
 5356.5000000 5356.5000000 59.315601349 118.63120270 806.50561523 9.5655002594  -999.250000 1081.4759521 4300.0000000 4268.4667969  -999.250000 0.0000000000  -999.250000  -999.250000  -999.250000  -999.250000 0.0096820993 3.6224784851
 5357.0000000 5357.0000000 59.087699890 118.17539978 806.56481934 9.6006002426  -999.250000 1081.5468750 4300.0000000 4268.4667969  -999.250000 0.0000000000  -999.250000  -999.250000  -999.250000  -999.250000 0.0096820984 3.6273195744
 5357.5000000 5357.5000000 60.596500397 121.19300079 806.62469482 9.6457004547  -999.250000 1081.6176758 4300.0000000 4268.4667969  -999.250000 0.0000000000  -999.250000  -999.250000  -999.250000  -999.250000 0.0096820900 3.6321606636
 5358.0000000 5358.0000000 62.030200958 124.06040192 806.68597412 9.6605997086  -999.250000 1081.6885986 4300.0000000 4268.4667969  -999.250000 0.0000000000  -999.250000  -999.250000  -999.250000  -999.250000 0.0096820844 3.6370017529
 5358.5000000 5358.5000000 63.539100647 127.07820129 806.74877930 9.6604995728  -999.250000 1081.7595215 4300.0000000 4268.4667969  -999.250000 0.0000000000  -999.250000  -999.250000  -999.250000  -999.250000 0.0096820928 3.6418428421
 5359.0000000 5359.0000000 63.840099335 127.68019867 806.81250000 9.6753997803  -999.250000 1081.8304443 4300.0000000 4268.4667969  -999.250000 0.0000000000  -999.250000  -999.250000  -999.250000  -999.250000 0.0096820993 3.6466836929
