# LAS format log file from PETREL
# Project units are specified as depth units
#==================================================================
~Version information
VERS.   2.0:
WRAP.   NO:
#==================================================================
~Well
STRT .ft      57.000000000 :
STOP .ft      5817.0000000 :
STEP .ft     0.50000000 :
NULL .        -999.250000 :
COMP.           : COMPANY
WELL.  71-1-X-4   : WELL
FLD.            : FIELD
LOC.            : LOCATION
SRVC.           : SERVICE COMPANY
DATE.  Tuesday, June 19 2007 20:47:13   : DATE
PROV.           : PROVINCE
UWI.   490252304800   : UNIQUE WELL ID
API.            : API NUMBER
#==================================================================
~Curve
DEPT .ft                   : DEPTH
DEPT .ft                  : DEPT
DT .us/ft                 : DT
DTnew .us/ft              : DTnew
GeneralTime1 .ms          : General Time 1
HCAL .in                  : HCAL
Zoneloglinkedto'WellTopsMain' .  : Zone log linked to 'Well Tops Main'
TWT[Final](Surfaces) .ms  : TWT [Final] (Surfaces)
Velocity[Final](Surfaces) .ft/s : Velocity [Final] (Surfaces)
Velocity[Final](VelocityModel1) .ft/s : Velocity [Final] (Velocity Model 1)
Continuous .              : Continuous
Zoneloglinkedto'Welltops(from3Dgrid)' .  : Zone log linked to 'Well tops (from 3D grid)'
IntensitySGS(8000x3000x30) .  : Intensity SGS (8000x3000x30)
Intensity .               : Intensity
Cumulative .              : Cumulative
GR[Derived]1 .gAPI        : GR [Derived] 1
Intensity .               : Intensity
Cumulative .              : Cumulative
~Parameter
#==================================================================
~Ascii
# ...
 2927.0000000 2927.0000000 89.732498169 179.46499634 423.45410156 14.909999847 0.0000000000 681.47338867 3053.3898926 3021.3903809  -999.250000  -999.250000  -999.250000  -999.250000  -999.250000  -999.250000  -999.250000  -999.250000
 2927.5000000 2927.5000000 89.807296753 179.61459351 423.54385376 13.806699753 0.0000000000 681.57324219 3053.3898926 3021.3903809  -999.250000  -999.250000  -999.250000  -999.250000  -999.250000  -999.250000  -999.250000  -999.250000
 2928.0000000 2928.0000000 90.335296631 180.67059326 423.63394165 13.624799728 0.0000000000 681.67303467 3053.3898926 3021.3903809  -999.250000  -999.250000  -999.250000  -999.250000  -999.250000  -999.250000  -999.250000  -999.250000
 2928.5000000 2928.5000000 90.938697815 181.87739563 423.72457886 13.246500015 0.0000000000 681.77282715 3053.3898926 3021.3903809  -999.250000  -999.250000  -999.250000  -999.250000  -999.250000  -999.250000  -999.250000  -999.250000
 2929.0000000 2929.0000000 90.938003540 181.87600708 423.81549072 13.517900467 0.0000000000 681.87268066 3053.3898926 3021.3903809  -999.250000  -999.250000  -999.250000  -999.250000  -999.250000  -999.250000  -999.250000  -999.250000
 2929.5000000 2929.5000000 90.559600830 181.11920166 423.90625000  -999.250000 0.0000000000 681.97253418 3053.3898926 3021.3903809  -999.250000  -999.250000  -999.250000  -999.250000  -999.250000  -999.250000  -999.250000  -999.250000
 2930.0000000 2930.0000000 90.100700378 180.20140076 423.99658203  -999.250000 0.0000000000 682.07232666 3053.3898926 3021.3903809  -999.250000  -999.250000  -999.250000  -999.250000  -999.250000  -999.250000  -999.250000  -999.250000
 2930.5000000 2930.5000000 89.878501892 179.75700378 424.08657837  -999.250000 0.0000000000 682.17211914 3053.3898926 3021.3903809  -999.250000  -999.250000  -999.250000  -999.250000  -999.250000  -999.250000  -999.250000  -999.250000
 2931.0000000 2931.0000000 91.085998535 182.17199707 424.17706299  -999.250000 0.0000000000 682.27197266 3053.3898926 3021.3903809  -999.250000  -999.250000  -999.250000  -999.250000  -999.250000  -999.250000  -999.250000  -999.250000
 2931.5000000 2931.5000000 91.538497925 183.07699585 424.26837158  -999.250000 0.0000000000 682.37176514 3053.3898926 3021.3903809  -999.250000  -999.250000  -999.250000  -999.250000  -999.250000  -999.250000  -999.250000  -999.250000
 2932.0000000 2932.0000000 91.235496521 182.47099304 424.35974121  -999.250000 0.0000000000 682.47161865 3053.3898926 3021.3903809  -999.250000  -999.250000  -999.250000  -999.250000  -999.250000  -999.250000  -999.250000  -999.250000
 2932.5000000 2932.5000000 90.932701111 181.86540222 424.45083618  -999.250000 0.0000000000 682.57141113 3053.3898926 3021.3903809  -999.250000  -999.250000  -999.250000  -999.250000  -999.250000  -999.250000  -999.250000  -999.250000
 2933.0000000 2933.0000000 91.234100342 182.46820068 424.54193115  -999.250000 0.0000000000 682.67126465 3053.3898926 3021.3903809  -999.250000  -999.250000  -999.250000  -999.250000  -999.250000  -999.250000  -999.250000  -999.250000
 2933.5000000 2933.5000000 93.730400085 187.46080017 424.63439941  -999.250000 0.0000000000 682.77111816 3053.3898926 3021.3903809  -999.250000  -999.250000  -999.250000  -999.250000  -999.250000  -999.250000  -999.250000  -999.250000
 2934.0000000 2934.0000000 97.954597473 195.90919495 424.73025513  -999.250000 0.0000000000 682.87091064 3053.3898926 3021.3903809  -999.250000  -999.250000  -999.250000  -999.250000  -999.250000  -999.250000  -999.250000  -999.250000
 2934.5000000 2934.5000000 96.972000122 193.94400024 424.82769775  -999.250000 0.0000000000 682.97070313 3053.3898926 3021.3903809  -999.250000  -999.250000  -999.250000  -999.250000  -999.250000  -999.250000  -999.250000  -999.250000
 2935.0000000 2935.0000000 92.439598083 184.87919617 424.92242432  -999.250000 0.0000000000 683.07055664 3053.3898926 3021.3903809  -999.250000  -999.250000  -999.250000  -999.250000  -999.250000  -999.250000  -999.250000  -999.250000
 2935.5000000 2935.5000000 90.323898315 180.64779663 425.01379395 13.622599602 0.0000000000 683.17041016 3053.3898926 3021.3903809  -999.250000  -999.250000  -999.250000  -999.250000  -999.250000  -999.250000  -999.250000  -999.250000
 2936.0000000 2936.0000000 90.247802734 180.49560547 425.10409546 15.911100388 0.0000000000 683.27020264 3053.3898926 3021.3903809  -999.250000  -999.250000  -999.250000  -999.250000  -999.250000  -999.250000  -999.250000  -999.250000
 2936.5000000 2936.5000000 91.833000183 183.66600037 425.19512939 15.986100197 0.0000000000 683.36999512 3053.3898926 3021.3903809  -999.250000  -999.250000  -999.250000  -999.250000  -999.250000  -999.250000  -999.250000  -999.250000
 2937.0000000 2937.0000000 92.068603516 184.13720703 425.28707886 15.985600471 0.0000000000 683.46984863 3053.3898926 3021.3903809  -999.250000  -999.250000  -999.250000  -999.250000  -999.250000  -999.250000  -999.250000  -999.250000
 2937.5000000 2937.5000000 92.133796692 184.26759338 425.37918091 15.969799995 0.0000000000 683.56970215 3053.3898926 3021.3903809  -999.250000  -999.250000  -999.250000  -999.250000  -999.250000  -999.250000  -999.250000  -999.250000
 2938.0000000 2938.0000000 92.434997559 184.86999512 425.47146606 15.969200134 0.0000000000 683.66949463 3053.3898926 3021.3903809  -999.250000  -999.250000  -999.250000  -999.250000  -999.250000  -999.250000  -999.250000  -999.250000
 2938.5000000 2938.5000000 93.038497925 186.07699585 425.56420898 15.651399612 0.0000000000 683.76928711 3053.3898926 3021.3903809  -999.250000  -999.250000  -999.250000  -999.250000  -999.250000  -999.250000  -999.250000  -999.250000
 2939.0000000 2939.0000000 93.792900085 187.58580017 425.65762329 15.197600365 0.0000000000 683.86914063 3053.3898926 3021.3903809  -999.250000  -999.250000  -999.250000  -999.250000  -999.250000  -999.250000  -999.250000  -999.250000
 2939.5000000 2939.5000000 94.396400452 188.79280090 425.75170898 14.139599800 0.0000000000 683.96899414 3053.3898926 3021.3903809  -999.250000  -999.250000  -999.250000  -999.250000  -999.250000  -999.250000  -999.250000  -999.250000
 2940.0000000 2940.0000000 94.848899841 189.69779968 425.84634399 15.037799835 0.0000000000 684.06878662 3053.3898926 3021.3903809  -999.250000  -999.250000  -999.250000  -999.250000  -999.250000  -999.250000  -999.250000  -999.250000
 2940.5000000 2940.5000000 94.999298096 189.99859619 425.94125366 14.229000092 0.0000000000 684.16857910 3053.3898926 3021.3903809  -999.250000  -999.250000  -999.250000  -999.250000  -999.250000  -999.250000  -999.250000  -999.250000
 2941.0000000 2941.0000000 94.922897339 189.84579468 426.03622437 12.551699638 0.0000000000 684.26843262 3053.3898926 3021.3903809  -999.250000  -999.250000  -999.250000  -999.250000  -999.250000  -999.250000  -999.250000  -999.250000
 2941.5000000 2941.5000000 94.846603394 189.69320679 426.13110352 12.135700226 0.0000000000 684.36822510 3053.3898926 3021.3903809  -999.250000  -999.250000  -999.250000  -999.250000  -999.250000  -999.250000  -999.250000  -999.250000
 2942.0000000 2942.0000000 94.849998474 189.69999695 426.22595215 12.308699608 0.0000000000 684.46807861 3053.3898926 3021.3903809  -999.250000  -999.250000  -999.250000  -999.250000  -999.250000  -999.250000  -999.250000  -999.250000
 2942.5000000 2942.5000000 96.204597473 192.40919495 426.32147217 10.857999802 0.0000000000 684.56787109 3053.3898926 3021.3903809  -999.250000  -999.250000  -999.250000  -999.250000  -999.250000  -999.250000  -999.250000  -999.250000
 2943.0000000 2943.0000000 97.412300110 194.82460022 426.41827393 10.449500084 0.0000000000 684.66772461 3053.3898926 3021.3903809  -999.250000  -999.250000  -999.250000  -999.250000  -999.250000  -999.250000  -999.250000  -999.250000
 2943.5000000 2943.5000000 97.419403076 194.83880615 426.51568604 10.388500214 0.0000000000 684.76757813 3053.3898926 3021.3903809  -999.250000  -999.250000  -999.250000  -999.250000  -999.250000  -999.250000  -999.250000  -999.250000
 2944.0000000 2944.0000000 96.579902649 193.15980530 426.61270142 10.372799873 0.0000000000 684.86737061 3053.3898926 3021.3903809  -999.250000  -999.250000  -999.250000  -999.250000  -999.250000  -999.250000  -999.250000  -999.250000
