# LAS format log file from PETREL
# Project units are specified as depth units
#==================================================================
~Version information
VERS.   2.0:
WRAP.   NO:
#==================================================================
~Well
STRT .ft      57.000000000 :
STOP .ft      5817.0000000 :
STEP .ft     0.50000000 :
NULL .        -999.250000 :
COMP.           : COMPANY
WELL.  71-1-X-4   : WELL
FLD.            : FIELD
LOC.            : LOCATION
SRVC.           : SERVICE COMPANY
DATE.  Tuesday, June 19 2007 20:47:13   : DATE
PROV.           : PROVINCE
UWI.   490252304800   : UNIQUE WELL ID
API.            : API NUMBER
#==================================================================
~Curve
DEPT .ft                   : DEPTH
DEPT .ft                  : DEPT
DT .us/ft                 : DT
DTnew .us/ft              : DTnew
GeneralTime1 .ms          : General Time 1
HCAL .in                  : HCAL
Zoneloglinkedto'WellTopsMain' .  : Zone log linked to 'Well Tops Main'
TWT[Final](Surfaces) .ms  : TWT [Final] (Surfaces)
Velocity[Final](Surfaces) .ft/s : Velocity [Final] (Surfaces)
Velocity[Final](VelocityModel1) .ft/s : Velocity [Final] (Velocity Model 1)
Continuous .              : Continuous
Zoneloglinkedto'Welltops(from3Dgrid)' .  : Zone log linked to 'Well tops (from 3D grid)'
IntensitySGS(8000x3000x30) .  : Intensity SGS (8000x3000x30)
Intensity .               : Intensity
Cumulative .              : Cumulative
GR[Derived]1 .gAPI        : GR [Derived] 1
Intensity .               : Intensity
Cumulative .              : Cumulative
~Parameter
#==================================================================
~Ascii
# ...
 3802.0000000 3802.0000000 95.879501343 191.75900269 578.07000732 9.7035999298 2.0000000000 856.16448975 3053.3898926 4268.4667969  -999.250000  -999.250000  -999.250000  -999.250000  -999.250000  -999.250000  -999.250000  -999.250000
 3802.5000000 3802.5000000 93.689201355 187.37840271 578.16479492 9.7033004761 2.0000000000 856.26428223 3053.3898926 4268.4667969  -999.250000  -999.250000  -999.250000  -999.250000  -999.250000  -999.250000  -999.250000  -999.250000
 3803.0000000 3803.0000000 88.777702332 177.55540466 578.25598145 9.7030000687 2.0000000000 856.36413574 3053.3898926 4268.4667969  -999.250000  -999.250000  -999.250000  -999.250000  -999.250000  -999.250000  -999.250000  -999.250000
 3803.5000000 3803.5000000 78.277099609 156.55419922 578.33953857 9.7026996613 2.0000000000 856.46398926 3053.3898926 4268.4667969  -999.250000  -999.250000  -999.250000  -999.250000  -999.250000  -999.250000  -999.250000  -999.250000
 3804.0000000 3804.0000000 72.836898804 145.67379761 578.41510010 9.7024002075 2.0000000000 856.56378174 3053.3898926 4268.4667969  -999.250000  -999.250000  -999.250000  -999.250000  -999.250000  -999.250000  -999.250000  -999.250000
 3804.5000000 3804.5000000 73.212402344 146.42480469 578.48809814 9.7623996735 2.0000000000 856.66357422 3053.3898926 4268.4667969  -999.250000  -999.250000  -999.250000  -999.250000  -999.250000  -999.250000  -999.250000  -999.250000
 3805.0000000 3805.0000000 73.587402344 147.17480469 578.56152344 9.8523998260 2.0000000000 856.76342773 3053.3898926 4268.4667969  -999.250000  -999.250000  -999.250000  -999.250000  -999.250000  -999.250000  -999.250000  -999.250000
 3805.5000000 3805.5000000 75.095901489 150.19180298 578.63586426 9.9123001099 2.0000000000 856.86328125 3053.3898926 4268.4667969  -999.250000  -999.250000  -999.250000  -999.250000  -999.250000  -999.250000  -999.250000  -999.250000
 3806.0000000 3806.0000000 78.567497253 157.13499451 578.71270752 9.9421997070 2.0000000000 856.96307373 3053.3898926 4268.4667969  -999.250000  -999.250000  -999.250000  -999.250000  -999.250000  -999.250000  -999.250000  -999.250000
 3806.5000000 3806.5000000 79.320701599 158.64140320 578.79162598 9.9569997787 2.0000000000 857.06286621 3053.3898926 4268.4667969  -999.250000  -999.250000  -999.250000  -999.250000  -999.250000  -999.250000  -999.250000  -999.250000
 3807.0000000 3807.0000000 78.789901733 157.57980347 578.87066650 9.9867000580 2.0000000000 857.16271973 3053.3898926 4268.4667969  -999.250000  -999.250000  -999.250000  -999.250000  -999.250000  -999.250000  -999.250000  -999.250000
 3807.5000000 3807.5000000 76.446403503 152.89280701 578.94830322 9.9864997864 2.0000000000 857.26257324 3053.3898926 4268.4667969  -999.250000  -999.250000  -999.250000  -999.250000  -999.250000  -999.250000  -999.250000  -999.250000
 3808.0000000 3808.0000000 74.933601379 149.86720276 579.02398682 10.016200066 2.0000000000 857.36236572 3053.3898926 4268.4667969  -999.250000  -999.250000  -999.250000  -999.250000  -999.250000  -999.250000  -999.250000  -999.250000
 3808.5000000 3808.5000000 76.139503479 152.27900696 579.09954834 10.362299919 2.0000000000 857.46215820 3053.3898926 4268.4667969  -999.250000  -999.250000  -999.250000  -999.250000  -999.250000  -999.250000  -999.250000  -999.250000
 3809.0000000 3809.0000000 79.611602783 159.22320557 579.17742920 10.874099731 2.0000000000 857.56201172 3053.3898926 4268.4667969  -999.250000  -999.250000  -999.250000  -999.250000  -999.250000  -999.250000  -999.250000  -999.250000
 3809.5000000 3809.5000000 86.788398743 173.57679749 579.26062012 11.887800217 2.0000000000 857.66186523 3053.3898926 4268.4667969  -999.250000  -999.250000  -999.250000  -999.250000  -999.250000  -999.250000  -999.250000  -999.250000
 3810.0000000 3810.0000000 97.054000854 194.10800171 579.35253906 13.147600174 2.0000000000 857.76165771 3053.3898926 4268.4667969  -999.250000  -999.250000  -999.250000  -999.250000  -999.250000  -999.250000  -999.250000  -999.250000
 3810.5000000 3810.5000000 99.620399475 199.24079895 579.45086670 14.382200241 2.0000000000 857.86145020 3053.3898926 4268.4667969  -999.250000  -999.250000  -999.250000  -999.250000  -999.250000  -999.250000  -999.250000  -999.250000
 3811.0000000 3811.0000000 95.161499023 190.32299805 579.54827881 12.122900009 2.0000000000 857.96130371 3053.3898926 4268.4667969  -999.250000  -999.250000  -999.250000  -999.250000  -999.250000  -999.250000  -999.250000  -999.250000
 3811.5000000 3811.5000000 79.699096680 159.39819336 579.63568115 13.191900253 2.0000000000 858.06115723 3053.3898926 4268.4667969  -999.250000  -999.250000  -999.250000  -999.250000  -999.250000  -999.250000  -999.250000  -999.250000
 3812.0000000 3812.0000000 61.546501160 123.09300232 579.70629883 14.682600021 2.0000000000 858.16094971 3053.3898926 4268.4667969  -999.250000  -999.250000  -999.250000  -999.250000  -999.250000  -999.250000  -999.250000  -999.250000
 3812.5000000 3812.5000000 56.710498810 113.42099762 579.76544189 14.712300301 2.0000000000 858.26074219 3053.3898926 4268.4667969  -999.250000  -999.250000  -999.250000  -999.250000  -999.250000  -999.250000  -999.250000  -999.250000
 3813.0000000 3813.0000000 55.953601837 111.90720367 579.82177734 15.826499939 2.0000000000 858.36059570 3053.3898926 4268.4667969  -999.250000  -999.250000  -999.250000  -999.250000  -999.250000  -999.250000  -999.250000  -999.250000
 3813.5000000 3813.5000000 60.642501831 121.28500366 579.88006592 14.433099747 2.0000000000 858.46044922 3053.3898926 4268.4667969  -999.250000  -999.250000  -999.250000  -999.250000  -999.250000  -999.250000  -999.250000  -999.250000
 3814.0000000 3814.0000000 73.017799377 146.03559875 579.94689941 15.554800034 2.0000000000 858.56024170 3053.3898926 4268.4667969  -999.250000  -999.250000  -999.250000  -999.250000  -999.250000  -999.250000  -999.250000  -999.250000
 3814.5000000 3814.5000000 74.828903198 149.65780640 580.02081299 15.976200104 2.0000000000 858.66003418 3053.3898926 4268.4667969  -999.250000  -999.250000  -999.250000  -999.250000  -999.250000  -999.250000  -999.250000  -999.250000
 3815.0000000 3815.0000000 72.254501343 144.50900269 580.09436035 15.975899696 2.0000000000 858.75988770 3053.3898926 4268.4667969  -999.250000  -999.250000  -999.250000  -999.250000  -999.250000  -999.250000  -999.250000  -999.250000
 3815.5000000 3815.5000000 77.316001892 154.63200378 580.16912842 15.960499763 2.0000000000 858.85974121 3053.3898926 4268.4667969  -999.250000  -999.250000  -999.250000  -999.250000  -999.250000  -999.250000  -999.250000  -999.250000
 3816.0000000 3816.0000000 94.307800293 188.61560059 580.25494385 15.779500008 2.0000000000 858.95953369 3053.3898926 4268.4667969  -999.250000  -999.250000  -999.250000  -999.250000  -999.250000  -999.250000  -999.250000  -999.250000
 3816.5000000 3816.5000000 98.988998413 197.97799683 580.35162354 13.363800049 2.0000000000 859.05932617 3053.3898926 4268.4667969  -999.250000  -999.250000  -999.250000  -999.250000  -999.250000  -999.250000  -999.250000  -999.250000
 3817.0000000 3817.0000000 98.152099609 196.30419922 580.45019531 11.516900063 2.0000000000 859.15917969 3053.3898926 4268.4667969  -999.250000  -999.250000  -999.250000  -999.250000  -999.250000  -999.250000  -999.250000  -999.250000
 3817.5000000 3817.5000000 98.757698059 197.51539612 580.54864502 11.501500130 2.0000000000 859.25903320 3053.3898926 4268.4667969  -999.250000  -999.250000  -999.250000  -999.250000  -999.250000  -999.250000  -999.250000  -999.250000
 3818.0000000 3818.0000000 98.226303101 196.45260620 580.64715576 12.103599548 2.0000000000 859.35882568 3053.3898926 4268.4667969  -999.250000  -999.250000  -999.250000  -999.250000  -999.250000  -999.250000  -999.250000  -999.250000
 3818.5000000 3818.5000000 95.807296753 191.61459351 580.74414063 14.183400154 2.0000000000 859.45861816 3053.3898926 4268.4667969  -999.250000  -999.250000  -999.250000  -999.250000  -999.250000  -999.250000  -999.250000  -999.250000
 3819.0000000 3819.0000000 87.861396790 175.72279358 580.83599854 12.404199600 2.0000000000 859.55847168 3053.3898926 4268.4667969  -999.250000  -999.250000  -999.250000  -999.250000  -999.250000  -999.250000  -999.250000  -999.250000
