# LAS format log file from PETREL
# Project units are specified as depth units
#==================================================================
~Version information
VERS.   2.0:
WRAP.   NO:
#==================================================================
~Well
STRT .ft      57.000000000 :
STOP .ft      5817.0000000 :
STEP .ft     0.50000000 :
NULL .        -999.250000 :
COMP.           : COMPANY
WELL.  71-1-X-4   : WELL
FLD.            : FIELD
LOC.            : LOCATION
SRVC.           : SERVICE COMPANY
DATE.  Tuesday, June 19 2007 20:47:13   : DATE
PROV.           : PROVINCE
UWI.   490252304800   : UNIQUE WELL ID
API.            : API NUMBER
#==================================================================
~Curve
DEPT .ft                   : DEPTH
DEPT .ft                  : DEPT
DT .us/ft                 : DT
DTnew .us/ft              : DTnew
GeneralTime1 .ms          : General Time 1
HCAL .in                  : HCAL
Zoneloglinkedto'WellTopsMain' .  : Zone log linked to 'Well Tops Main'
TWT[Final](Surfaces) .ms  : TWT [Final] (Surfaces)
Velocity[Final](Surfaces) .ft/s : Velocity [Final] (Surfaces)
Velocity[Final](VelocityModel1) .ft/s : Velocity [Final] (Velocity Model 1)
Continuous .              : Continuous
Zoneloglinkedto'Welltops(from3Dgrid)' .  : Zone log linked to 'Well tops (from 3D grid)'
IntensitySGS(8000x3000x30) .  : Intensity SGS (8000x3000x30)
Intensity .               : Intensity
Cumulative .              : Cumulative
GR[Derived]1 .gAPI        : GR [Derived] 1
Intensity .               : Intensity
Cumulative .              : Cumulative
~Parameter
#==================================================================
~Ascii
# ...
 4467.0000000 4467.0000000 72.662803650 145.32560730 689.23443604 9.1927995682 4.0000000000 953.78833008 4240.8598633 4268.4667969  -999.250000  -999.250000  -999.250000  -999.250000  -999.250000  -999.250000  -999.250000  -999.250000
 4467.5000000 4467.5000000 72.956298828 145.91259766 689.30725098 9.0722999573 4.0000000000 953.86016846 4240.8598633 4268.4667969  -999.250000  -999.250000  -999.250000  -999.250000  -999.250000  -999.250000  -999.250000  -999.250000
 4468.0000000 4468.0000000 73.333297729 146.66659546 689.38037109 9.0120000839 4.0000000000 953.93206787 4240.8598633 4268.4667969  -999.250000  -999.250000  -999.250000  -999.250000  -999.250000  -999.250000  -999.250000  -999.250000
 4468.5000000 4468.5000000 74.238296509 148.47659302 689.45416260 9.0120000839 4.0000000000 954.00390625 4240.8598633 4268.4667969  -999.250000  -999.250000  -999.250000  -999.250000  -999.250000  -999.250000  -999.250000  -999.250000
 4469.0000000 4469.0000000 76.500801086 153.00160217 689.52954102 8.9668998718 4.0000000000 954.07580566 4240.8598633 4268.4667969  -999.250000  -999.250000  -999.250000  -999.250000  -999.250000  -999.250000  -999.250000  -999.250000
 4469.5000000 4469.5000000 78.461502075 156.92300415 689.60705566 8.9518003464 4.0000000000 954.14764404 4240.8598633 4268.4667969  -999.250000  -999.250000  -999.250000  -999.250000  -999.250000  -999.250000  -999.250000  -999.250000
 4470.0000000 4470.0000000 81.628997803 163.25799561 689.68707275 8.9518003464 4.0000000000 954.21954346 4240.8598633 4268.4667969  -999.250000  -999.250000  -999.250000  -999.250000  -999.250000  -999.250000  -999.250000  -999.250000
 4470.5000000 4470.5000000 84.507003784 169.01400757 689.77014160 8.9518003464 4.0000000000 954.29144287 4240.8598633 4268.4667969  -999.250000  -999.250000  -999.250000  -999.250000  -999.250000  -999.250000  -999.250000  -999.250000
 4471.0000000 4471.0000000 84.871803284 169.74360657 689.85479736 8.9518003464 4.0000000000 954.36328125 4240.8598633 4268.4667969  -999.250000  -999.250000  -999.250000  -999.250000  -999.250000  -999.250000  -999.250000  -999.250000
 4471.5000000 4471.5000000 84.796401978 169.59280396 689.93963623 8.9518003464 4.0000000000 954.43518066 4240.8598633 4268.4667969  -999.250000  -999.250000  -999.250000  -999.250000  -999.250000  -999.250000  -999.250000  -999.250000
 4472.0000000 4472.0000000 84.947196960 169.89439392 690.02453613 8.9518003464 4.0000000000 954.50701904 4240.8598633 4268.4667969  -999.250000  -999.250000  -999.250000  -999.250000  -999.250000  -999.250000  -999.250000  -999.250000
 4472.5000000 4472.5000000 85.399696350 170.79939270 690.10968018 8.9518003464 4.0000000000 954.57891846 4240.8598633 4268.4667969  -999.250000  -999.250000  -999.250000  -999.250000  -999.250000  -999.250000  -999.250000  -999.250000
 4473.0000000 4473.0000000 87.134201050 174.26840210 690.19598389 8.9366998672 4.0000000000 954.65075684 4240.8598633 4268.4667969  -999.250000  -999.250000  -999.250000  -999.250000  -999.250000  -999.250000  -999.250000  -999.250000
 4473.5000000 4473.5000000 88.265502930 176.53100586 690.28369141 8.9065999985 4.0000000000 954.72265625 4240.8598633 4268.4667969  -999.250000  -999.250000  -999.250000  -999.250000  -999.250000  -999.250000  -999.250000  -999.250000
 4474.0000000 4474.0000000 89.170402527 178.34080505 690.37237549 8.9065999985 4.0000000000 954.79449463 4240.8598633 4268.4667969  -999.250000  -999.250000  -999.250000  -999.250000  -999.250000  -999.250000  -999.250000  -999.250000
 4474.5000000 4474.5000000 89.472099304 178.94419861 690.46173096 8.8915996552 4.0000000000 954.86639404 4240.8598633 4268.4667969  -999.250000  -999.250000  -999.250000  -999.250000  -999.250000  -999.250000  -999.250000  -999.250000
 4475.0000000 4475.0000000 89.170402527 178.34080505 690.55102539 8.9065999985 4.0000000000 954.93823242 4240.8598633 4268.4667969  -999.250000  -999.250000  -999.250000  -999.250000  -999.250000  -999.250000  -999.250000  -999.250000
 4475.5000000 4475.5000000 88.491699219 176.98339844 690.63989258 8.8915996552 4.0000000000 955.01013184 4240.8598633 4268.4667969  -999.250000  -999.250000  -999.250000  -999.250000  -999.250000  -999.250000  -999.250000  -999.250000
 4476.0000000 4476.0000000 87.108703613 174.21740723 690.72766113 8.8464002609 4.0000000000 955.08203125 4240.8598633 4268.4667969  -999.250000  -999.250000  -999.250000  -999.250000  -999.250000  -999.250000  -999.250000  -999.250000
 4476.5000000 4476.5000000 85.776802063 171.55360413 690.81408691 8.8312997818 4.0000000000 955.15386963 4240.8598633 4268.4667969  -999.250000  -999.250000  -999.250000  -999.250000  -999.250000  -999.250000  -999.250000  -999.250000
 4477.0000000 4477.0000000 84.419296265 168.83859253 690.89923096 8.8312997818 4.0000000000 955.22576904 4240.8598633 4268.4667969  -999.250000  -999.250000  -999.250000  -999.250000  -999.250000  -999.250000  -999.250000  -999.250000
 4477.5000000 4477.5000000 83.438903809 166.87780762 690.98315430 8.8312997818 4.0000000000 955.29760742 4240.8598633 4268.4667969  -999.250000  -999.250000  -999.250000  -999.250000  -999.250000  -999.250000  -999.250000  -999.250000
 4478.0000000 4478.0000000 82.684799194 165.36959839 691.06622314 8.8312997818 4.0000000000 955.36950684 4240.8598633 4268.4667969  -999.250000  -999.250000  -999.250000  -999.250000  -999.250000  -999.250000  -999.250000  -999.250000
 4478.5000000 4478.5000000 82.005996704 164.01199341 691.14855957 8.8312997818 4.0000000000 955.44134521 4240.8598633 4268.4667969  -999.250000  -999.250000  -999.250000  -999.250000  -999.250000  -999.250000  -999.250000  -999.250000
 4479.0000000 4479.0000000 79.592796326 159.18559265 691.22937012 8.8312997818 4.0000000000 955.51324463 4240.8598633 4268.4667969  -999.250000  -999.250000  -999.250000  -999.250000  -999.250000  -999.250000  -999.250000  -999.250000
 4479.5000000 4479.5000000 77.246696472 154.49339294 691.30773926 8.8312997818 4.0000000000 955.58508301 4240.8598633 4268.4667969  -999.250000  -999.250000  -999.250000  -999.250000  -999.250000  -999.250000  -999.250000  -999.250000
 4480.0000000 4480.0000000 76.500801086 153.00160217 691.38464355 8.8312997818 4.0000000000 955.65698242 4240.8598633 4268.4667969  -999.250000  -999.250000  -999.250000  -999.250000  -999.250000  -999.250000  -999.250000  -999.250000
 4480.5000000 4480.5000000 77.707397461 155.41479492 691.46173096 8.7861003876 4.0000000000 955.72888184 4240.8598633 4268.4667969  -999.250000  -999.250000  -999.250000  -999.250000  -999.250000  -999.250000  -999.250000  -999.250000
 4481.0000000 4481.0000000 79.819000244 159.63800049 691.54052734 8.7711000443 4.0000000000 955.80072021 4240.8598633 4268.4667969  -999.250000  -999.250000  -999.250000  -999.250000  -999.250000  -999.250000  -999.250000  -999.250000
 4481.5000000 4481.5000000 81.704399109 163.40879822 691.62127686 8.7711000443 4.0000000000 955.87261963 4240.8598633 4268.4667969  -999.250000  -999.250000  -999.250000  -999.250000  -999.250000  -999.250000  -999.250000  -999.250000
 4482.0000000 4482.0000000 83.288101196 166.57620239 691.70373535 8.8011999130 4.0000000000 955.94445801 4240.8598633 4268.4667969  -999.250000  -999.250000  -999.250000  -999.250000  -999.250000  -999.250000  -999.250000  -999.250000
 4482.5000000 4482.5000000 83.891403198 167.78280640 691.78735352 8.8312997818 4.0000000000 956.01635742 4240.8598633 4268.4667969  -999.250000  -999.250000  -999.250000  -999.250000  -999.250000  -999.250000  -999.250000  -999.250000
 4483.0000000 4483.0000000 84.419296265 168.83859253 691.87152100 8.7861003876 4.0000000000 956.08819580 4240.8598633 4268.4667969  -999.250000  -999.250000  -999.250000  -999.250000  -999.250000  -999.250000  -999.250000  -999.250000
 4483.5000000 4483.5000000 84.494697571 168.98939514 691.95593262 8.7711000443 4.0000000000 956.16009521 4240.8598633 4268.4667969  -999.250000  -999.250000  -999.250000  -999.250000  -999.250000  -999.250000  -999.250000  -999.250000
 4484.0000000 4484.0000000 83.816001892 167.63200378 692.04010010 8.7711000443 4.0000000000 956.23193359 4240.8598633 4268.4667969  -999.250000  -999.250000  -999.250000  -999.250000  -999.250000  -999.250000  -999.250000  -999.250000
