# LAS format log file from PETREL
# Project units are specified as depth units
#==================================================================
~Version information
VERS.   2.0:
WRAP.   NO:
#==================================================================
~Well
STRT .ft      57.000000000 :
STOP .ft      5817.0000000 :
STEP .ft     0.50000000 :
NULL .        -999.250000 :
COMP.           : COMPANY
WELL.  71-1-X-4   : WELL
FLD.            : FIELD
LOC.            : LOCATION
SRVC.           : SERVICE COMPANY
DATE.  Tuesday, June 19 2007 20:47:13   : DATE
PROV.           : PROVINCE
UWI.   490252304800   : UNIQUE WELL ID
API.            : API NUMBER
#==================================================================
~Curve
DEPT .ft                   : DEPTH
DEPT .ft                  : DEPT
DT .us/ft                 : DT
DTnew .us/ft              : DTnew
GeneralTime1 .ms          : General Time 1
HCAL .in                  : HCAL
Zoneloglinkedto'WellTopsMain' .  : Zone log linked to 'Well Tops Main'
TWT[Final](Surfaces) .ms  : TWT [Final] (Surfaces)
Velocity[Final](Surfaces) .ft/s : Velocity [Final] (Surfaces)
Velocity[Final](VelocityModel1) .ft/s : Velocity [Final] (Velocity Model 1)
Continuous .              : Continuous
Zoneloglinkedto'Welltops(from3Dgrid)' .  : Zone log linked to 'Well tops (from 3D grid)'
IntensitySGS(8000x3000x30) .  : Intensity SGS (8000x3000x30)
Intensity .               : Intensity
Cumulative .              : Cumulative
GR[Derived]1 .gAPI        : GR [Derived] 1
Intensity .               : Intensity
Cumulative .              : Cumulative
~Parameter
#==================================================================
~Ascii
# ...
 3137.0000000 3137.0000000 83.504501343 167.00900269 458.59472656 11.403300285 1.0000000000 723.39923096 3053.3898926 3021.3903809  -999.250000  -999.250000  -999.250000  -999.250000  -999.250000  -999.250000  -999.250000  -999.250000
 3137.5000000 3137.5000000 82.900299072 165.80059814 458.67791748 11.402899742 1.0000000000 723.49902344 3053.3898926 3021.3903809  -999.250000  -999.250000  -999.250000  -999.250000  -999.250000  -999.250000  -999.250000  -999.250000
 3138.0000000 3138.0000000 82.069503784 164.13900757 458.76040649 11.417400360 1.0000000000 723.59887695 3053.3898926 3021.3903809  -999.250000  -999.250000  -999.250000  -999.250000  -999.250000  -999.250000  -999.250000  -999.250000
 3138.5000000 3138.5000000 81.540802002 163.08160400 458.84222412 11.416999817 1.0000000000 723.69873047 3053.3898926 3021.3903809  -999.250000  -999.250000  -999.250000  -999.250000  -999.250000  -999.250000  -999.250000  -999.250000
 3139.0000000 3139.0000000 81.389701843 162.77940369 458.92367554 11.401499748 1.0000000000 723.79852295 3053.3898926 3021.3903809  -999.250000  -999.250000  -999.250000  -999.250000  -999.250000  -999.250000  -999.250000  -999.250000
 3139.5000000 3139.5000000 81.465301514 162.93060303 459.00512695 11.370900154 1.0000000000 723.89831543 3053.3898926 3021.3903809  -999.250000  -999.250000  -999.250000  -999.250000  -999.250000  -999.250000  -999.250000  -999.250000
 3140.0000000 3140.0000000 81.616302490 163.23260498 459.08666992 11.325300217 1.0000000000 723.99816895 3053.3898926 3021.3903809  -999.250000  -999.250000  -999.250000  -999.250000  -999.250000  -999.250000  -999.250000  -999.250000
 3140.5000000 3140.5000000 81.540802002 163.08160400 459.16824341 11.309800148 1.0000000000 724.09802246 3053.3898926 3021.3903809  -999.250000  -999.250000  -999.250000  -999.250000  -999.250000  -999.250000  -999.250000  -999.250000
 3141.0000000 3141.0000000 81.012100220 162.02420044 459.24951172 11.309300423 1.0000000000 724.19781494 3053.3898926 3021.3903809  -999.250000  -999.250000  -999.250000  -999.250000  -999.250000  -999.250000  -999.250000  -999.250000
 3141.5000000 3141.5000000 79.652603149 159.30520630 459.32983398 11.293800354 1.0000000000 724.29760742 3053.3898926 3021.3903809  -999.250000  -999.250000  -999.250000  -999.250000  -999.250000  -999.250000  -999.250000  -999.250000
 3142.0000000 3142.0000000 79.199401855 158.39880371 459.40927124 11.278300285 1.0000000000 724.39746094 3053.3898926 3021.3903809  -999.250000  -999.250000  -999.250000  -999.250000  -999.250000  -999.250000  -999.250000  -999.250000
 3142.5000000 3142.5000000 79.123901367 158.24780273 459.48843384 11.277799606 1.0000000000 724.49731445 3053.3898926 3021.3903809  -999.250000  -999.250000  -999.250000  -999.250000  -999.250000  -999.250000  -999.250000  -999.250000
 3143.0000000 3143.0000000 79.274902344 158.54980469 459.56762695 11.262299538 1.0000000000 724.59710693 3053.3898926 3021.3903809  -999.250000  -999.250000  -999.250000  -999.250000  -999.250000  -999.250000  -999.250000  -999.250000
 3143.5000000 3143.5000000 79.652603149 159.30520630 459.64709473 11.261899948 1.0000000000 724.69689941 3053.3898926 3021.3903809  -999.250000  -999.250000  -999.250000  -999.250000  -999.250000  -999.250000  -999.250000  -999.250000
 3144.0000000 3144.0000000 79.426002502 158.85200500 459.72662354 11.261400223 1.0000000000 724.79675293 3053.3898926 3021.3903809  -999.250000  -999.250000  -999.250000  -999.250000  -999.250000  -999.250000  -999.250000  -999.250000
 3144.5000000 3144.5000000 79.040000916 158.08000183 459.80587769 11.276100159 1.0000000000 724.89660645 3053.3898926 3021.3903809  -999.250000  -999.250000  -999.250000  -999.250000  -999.250000  -999.250000  -999.250000  -999.250000
 3145.0000000 3145.0000000 78.972801208 157.94560242 459.88485718 11.275600433 1.0000000000 724.99639893 3053.3898926 3021.3903809  -999.250000  -999.250000  -999.250000  -999.250000  -999.250000  -999.250000  -999.250000  -999.250000
 3145.5000000 3145.5000000 79.577003479 159.15400696 459.96414185 11.290200233 1.0000000000 725.09619141 3053.3898926 3021.3903809  -999.250000  -999.250000  -999.250000  -999.250000  -999.250000  -999.250000  -999.250000  -999.250000
 3146.0000000 3146.0000000 80.501502991 161.00300598 460.04418945 11.304800034 1.0000000000 725.19604492 3053.3898926 3021.3903809  -999.250000  -999.250000  -999.250000  -999.250000  -999.250000  -999.250000  -999.250000  -999.250000
 3146.5000000 3146.5000000 82.069503784 164.13900757 460.12545776 11.304400444 1.0000000000 725.29589844 3053.3898926 3021.3903809  -999.250000  -999.250000  -999.250000  -999.250000  -999.250000  -999.250000  -999.250000  -999.250000
 3147.0000000 3147.0000000 83.806602478 167.61320496 460.20840454 11.311499596 1.0000000000 725.39569092 3053.3898926 3021.3903809  -999.250000  -999.250000  -999.250000  -999.250000  -999.250000  -999.250000  -999.250000  -999.250000
 3147.5000000 3147.5000000 83.802803040 167.60560608 460.29220581 11.318499565 1.0000000000 725.49548340 3053.3898926 3021.3903809  -999.250000  -999.250000  -999.250000  -999.250000  -999.250000  -999.250000  -999.250000  -999.250000
 3148.0000000 3148.0000000 83.202400208 166.40480042 460.37570190 11.318099976 1.0000000000 725.59533691 3053.3898926 3021.3903809  -999.250000  -999.250000  -999.250000  -999.250000  -999.250000  -999.250000  -999.250000  -999.250000
 3148.5000000 3148.5000000 83.202400208 166.40480042 460.45892334 11.317600250 1.0000000000 725.69519043 3053.3898926 3021.3903809  -999.250000  -999.250000  -999.250000  -999.250000  -999.250000  -999.250000  -999.250000  -999.250000
 3149.0000000 3149.0000000 83.279403687 166.55880737 460.54217529 11.317199707 1.0000000000 725.79498291 3053.3898926 3021.3903809  -999.250000  -999.250000  -999.250000  -999.250000  -999.250000  -999.250000  -999.250000  -999.250000
 3149.5000000 3149.5000000 83.806602478 167.61320496 460.62570190 11.316800117 1.0000000000 725.89477539 3053.3898926 3021.3903809  -999.250000  -999.250000  -999.250000  -999.250000  -999.250000  -999.250000  -999.250000  -999.250000
 3150.0000000 3150.0000000 84.561897278 169.12379456 460.70989990 11.276499748 1.0000000000 725.99462891 3053.3898926 3021.3903809  -999.250000  -999.250000  -999.250000  -999.250000  -999.250000  -999.250000  -999.250000  -999.250000
 3150.5000000 3150.5000000 84.335403442 168.67080688 460.79434204 11.228300095 1.0000000000 726.09448242 3053.3898926 3021.3903809  -999.250000  -999.250000  -999.250000  -999.250000  -999.250000  -999.250000  -999.250000  -999.250000
 3151.0000000 3151.0000000 84.184303284 168.36860657 460.87860107 11.180100441 1.0000000000 726.19427490 3053.3898926 3021.3903809  -999.250000  -999.250000  -999.250000  -999.250000  -999.250000  -999.250000  -999.250000  -999.250000
 3151.5000000 3151.5000000 84.054199219 168.10839844 460.96270752 11.119600296 1.0000000000 726.29406738 3053.3898926 3021.3903809  -999.250000  -999.250000  -999.250000  -999.250000  -999.250000  -999.250000  -999.250000  -999.250000
 3152.0000000 3152.0000000 83.051399231 166.10279846 461.04626465 11.089200020 1.0000000000 726.39392090 3053.3898926 3021.3903809  -999.250000  -999.250000  -999.250000  -999.250000  -999.250000  -999.250000  -999.250000  -999.250000
 3152.5000000 3152.5000000 81.691802979 163.38360596 461.12863159 11.103899956 1.0000000000 726.49377441 3053.3898926 3021.3903809  -999.250000  -999.250000  -999.250000  -999.250000  -999.250000  -999.250000  -999.250000  -999.250000
 3153.0000000 3153.0000000 81.238700867 162.47740173 461.21011353 11.133700371 1.0000000000 726.59356689 3053.3898926 3021.3903809  -999.250000  -999.250000  -999.250000  -999.250000  -999.250000  -999.250000  -999.250000  -999.250000
 3153.5000000 3153.5000000 81.087600708 162.17520142 461.29125977 11.156000137 1.0000000000 726.69335938 3053.3898926 3021.3903809  -999.250000  -999.250000  -999.250000  -999.250000  -999.250000  -999.250000  -999.250000  -999.250000
 3154.0000000 3154.0000000 81.465301514 162.93060303 461.37255859 11.193400383 1.0000000000 726.79321289 3053.3898926 3021.3903809  -999.250000  -999.250000  -999.250000  -999.250000  -999.250000  -999.250000  -999.250000  -999.250000
