# LAS format log file from PETREL
# Project units are specified as depth units
#==================================================================
~Version information
VERS.   2.0:
WRAP.   NO:
#==================================================================
~Well
STRT .ft      57.000000000 :
STOP .ft      5817.0000000 :
STEP .ft     0.50000000 :
NULL .        -999.250000 :
COMP.           : COMPANY
WELL.  71-1-X-4   : WELL
FLD.            : FIELD
LOC.            : LOCATION
SRVC.           : SERVICE COMPANY
DATE.  Tuesday, June 19 2007 20:47:13   : DATE
PROV.           : PROVINCE
UWI.   490252304800   : UNIQUE WELL ID
API.            : API NUMBER
#==================================================================
~Curve
DEPT .ft                   : DEPTH
DEPT .ft                  : DEPT
DT .us/ft                 : DT
DTnew .us/ft              : DTnew
GeneralTime1 .ms          : General Time 1
HCAL .in                  : HCAL
Zoneloglinkedto'WellTopsMain' .  : Zone log linked to 'Well Tops Main'
TWT[Final](Surfaces) .ms  : TWT [Final] (Surfaces)
Velocity[Final](Surfaces) .ft/s : Velocity [Final] (Surfaces)
Velocity[Final](VelocityModel1) .ft/s : Velocity [Final] (Velocity Model 1)
Continuous .              : Continuous
Zoneloglinkedto'Welltops(from3Dgrid)' .  : Zone log linked to 'Well tops (from 3D grid)'
IntensitySGS(8000x3000x30) .  : Intensity SGS (8000x3000x30)
Intensity .               : Intensity
Cumulative .              : Cumulative
GR[Derived]1 .gAPI        : GR [Derived] 1
Intensity .               : Intensity
Cumulative .              : Cumulative
~Parameter
#==================================================================
~Ascii
# ...
 3364.5000000 3364.5000000 90.129096985 180.25819397 497.04238892 9.8423004150 1.0000000000 768.81896973 3053.3898926 3021.3903809  -999.250000  -999.250000  -999.250000  -999.250000  -999.250000  -999.250000  -999.250000  -999.250000
 3365.0000000 3365.0000000 89.977302551 179.95460510 497.13241577 9.8268003464 1.0000000000 768.91876221 3053.3898926 3021.3903809  -999.250000  -999.250000  -999.250000  -999.250000  -999.250000  -999.250000  -999.250000  -999.250000
 3365.5000000 3365.5000000 90.278602600 180.55720520 497.22256470 9.8263998032 1.0000000000 769.01855469 3053.3898926 3021.3903809  -999.250000  -999.250000  -999.250000  -999.250000  -999.250000  -999.250000  -999.250000  -999.250000
 3366.0000000 3366.0000000 90.429100037 180.85820007 497.31289673 9.8259000778 1.0000000000 769.11840820 3053.3898926 3021.3903809  -999.250000  -999.250000  -999.250000  -999.250000  -999.250000  -999.250000  -999.250000  -999.250000
 3366.5000000 3366.5000000 90.262100220 180.52420044 497.40325928 9.8254995346 1.0000000000 769.21826172 3053.3898926 3021.3903809  -999.250000  -999.250000  -999.250000  -999.250000  -999.250000  -999.250000  -999.250000  -999.250000
 3367.0000000 3367.0000000 89.521102905 179.04220581 497.49313354 9.8099002838 1.0000000000 769.31805420 3053.3898926 3021.3903809  -999.250000  -999.250000  -999.250000  -999.250000  -999.250000  -999.250000  -999.250000  -999.250000
 3367.5000000 3367.5000000 88.916099548 177.83219910 497.58236694 9.7643003464 1.0000000000 769.41784668 3053.3898926 3021.3903809  -999.250000  -999.250000  -999.250000  -999.250000  -999.250000  -999.250000  -999.250000  -999.250000
 3368.0000000 3368.0000000 88.764396667 177.52879333 497.67120361 9.7336997986 1.0000000000 769.51770020 3053.3898926 3021.3903809  -999.250000  -999.250000  -999.250000  -999.250000  -999.250000  -999.250000  -999.250000  -999.250000
 3368.5000000 3368.5000000 88.990303040 177.98060608 497.76007080 9.7784996033 1.0000000000 769.61755371 3053.3898926 3021.3903809  -999.250000  -999.250000  -999.250000  -999.250000  -999.250000  -999.250000  -999.250000  -999.250000
 3369.0000000 3369.0000000 88.913902283 177.82780457 497.84902954 9.7779998779 1.0000000000 769.71734619 3053.3898926 3021.3903809  -999.250000  -999.250000  -999.250000  -999.250000  -999.250000  -999.250000  -999.250000  -999.250000
 3369.5000000 3369.5000000 87.704597473 175.40919495 497.93734741 9.7776002884 1.0000000000 769.81713867 3053.3898926 3021.3903809  -999.250000  -999.250000  -999.250000  -999.250000  -999.250000  -999.250000  -999.250000  -999.250000
 3370.0000000 3370.0000000 84.531700134 169.06340027 498.02346802 9.7621002197 1.0000000000 769.91699219 3053.3898926 3021.3903809  -999.250000  -999.250000  -999.250000  -999.250000  -999.250000  -999.250000  -999.250000  -999.250000
 3370.5000000 3370.5000000 79.056800842 158.11360168 498.10525513 9.7615995407 1.0000000000 770.01684570 3053.3898926 3021.3903809  -999.250000  -999.250000  -999.250000  -999.250000  -999.250000  -999.250000  -999.250000  -999.250000
 3371.0000000 3371.0000000 75.768798828 151.53759766 498.18267822 9.7311000824 1.0000000000 770.11663818 3053.3898926 3021.3903809  -999.250000  -999.250000  -999.250000  -999.250000  -999.250000  -999.250000  -999.250000  -999.250000
 3371.5000000 3371.5000000 73.502197266 147.00439453 498.25729370 9.7154998779 1.0000000000 770.21643066 3053.3898926 3021.3903809  -999.250000  -999.250000  -999.250000  -999.250000  -999.250000  -999.250000  -999.250000  -999.250000
 3372.0000000 3372.0000000 73.199203491 146.39840698 498.33065796 9.6773996353 1.0000000000 770.31628418 3053.3898926 3021.3903809  -999.250000  -999.250000  -999.250000  -999.250000  -999.250000  -999.250000  -999.250000  -999.250000
 3372.5000000 3372.5000000 73.349800110 146.69960022 498.40393066 9.6694002151 1.0000000000 770.41613770 3053.3898926 3021.3903809  -999.250000  -999.250000  -999.250000  -999.250000  -999.250000  -999.250000  -999.250000  -999.250000
 3373.0000000 3373.0000000 73.500000000 147.00000000 498.47735596 9.6688995361 1.0000000000 770.51593018 3053.3898926 3021.3903809  -999.250000  -999.250000  -999.250000  -999.250000  -999.250000  -999.250000  -999.250000  -999.250000
 3373.5000000 3373.5000000 73.574798584 147.14959717 498.55090332 9.6684999466 1.0000000000 770.61572266 3053.3898926 3021.3903809  -999.250000  -999.250000  -999.250000  -999.250000  -999.250000  -999.250000  -999.250000  -999.250000
 3374.0000000 3374.0000000 73.271797180 146.54359436 498.62432861 9.6529998779 1.0000000000 770.71557617 3053.3898926 3021.3903809  -999.250000  -999.250000  -999.250000  -999.250000  -999.250000  -999.250000  -999.250000  -999.250000
 3374.5000000 3374.5000000 72.364799500 144.72959900 498.69714355 9.6526002884 1.0000000000 770.81542969 3053.3898926 3021.3903809  -999.250000  -999.250000  -999.250000  -999.250000  -999.250000  -999.250000  -999.250000  -999.250000
 3375.0000000 3375.0000000 71.457603455 142.91520691 498.76904297 9.6520996094 1.0000000000 770.91522217 3053.3898926 3021.3903809  -999.250000  -999.250000  -999.250000  -999.250000  -999.250000  -999.250000  -999.250000  -999.250000
 3375.5000000 3375.5000000 71.230300903 142.46060181 498.84039307 9.6517000198 1.0000000000 771.01501465 3053.3898926 3021.3903809  -999.250000  -999.250000  -999.250000  -999.250000  -999.250000  -999.250000  -999.250000  -999.250000
 3376.0000000 3376.0000000 71.622703552 143.24540710 498.91180420 9.6662998199 1.0000000000 771.11486816 3053.3898926 3021.3903809  -999.250000  -999.250000  -999.250000  -999.250000  -999.250000  -999.250000  -999.250000  -999.250000
 3376.5000000 3376.5000000 72.814903259 145.62980652 498.98403931 9.7110004425 1.0000000000 771.21472168 3053.3898926 3021.3903809  -999.250000  -999.250000  -999.250000  -999.250000  -999.250000  -999.250000  -999.250000  -999.250000
 3377.0000000 3377.0000000 74.098197937 148.19639587 499.05749512 9.7105998993 1.0000000000 771.31451416 3053.3898926 3021.3903809  -999.250000  -999.250000  -999.250000  -999.250000  -999.250000  -999.250000  -999.250000  -999.250000
 3377.5000000 3377.5000000 74.324096680 148.64819336 499.13171387 9.7402000427 1.0000000000 771.41430664 3053.3898926 3021.3903809  -999.250000  -999.250000  -999.250000  -999.250000  -999.250000  -999.250000  -999.250000  -999.250000
 3378.0000000 3378.0000000 74.021102905 148.04220581 499.20587158 9.7774000168 1.0000000000 771.51416016 3053.3898926 3021.3903809  -999.250000  -999.250000  -999.250000  -999.250000  -999.250000  -999.250000  -999.250000  -999.250000
 3378.5000000 3378.5000000 73.944801331 147.88960266 499.27984619 9.8297004700 1.0000000000 771.61401367 3053.3898926 3021.3903809  -999.250000  -999.250000  -999.250000  -999.250000  -999.250000  -999.250000  -999.250000  -999.250000
 3379.0000000 3379.0000000 75.303497314 150.60699463 499.35449219 9.8442001343 1.0000000000 771.71380615 3053.3898926 3021.3903809  -999.250000  -999.250000  -999.250000  -999.250000  -999.250000  -999.250000  -999.250000  -999.250000
 3379.5000000 3379.5000000 76.888900757 153.77780151 499.43057251 9.8739004135 1.0000000000 771.81359863 3053.3898926 3021.3903809  -999.250000  -999.250000  -999.250000  -999.250000  -999.250000  -999.250000  -999.250000  -999.250000
 3380.0000000 3380.0000000 78.096702576 156.19340515 499.50808716 9.8733997345 1.0000000000 771.91345215 3053.3898926 3021.3903809  -999.250000  -999.250000  -999.250000  -999.250000  -999.250000  -999.250000  -999.250000  -999.250000
 3380.5000000 3380.5000000 79.379798889 158.75959778 499.58682251 9.8429002762 1.0000000000 772.01330566 3053.3898926 3021.3903809  -999.250000  -999.250000  -999.250000  -999.250000  -999.250000  -999.250000  -999.250000  -999.250000
 3381.0000000 3381.0000000 80.285499573 160.57099915 499.66665649 9.8274002075 1.0000000000 772.11309814 3053.3898926 3021.3903809  -999.250000  -999.250000  -999.250000  -999.250000  -999.250000  -999.250000  -999.250000  -999.250000
 3381.5000000 3381.5000000 81.976097107 163.95219421 499.74777222 9.8119001389 1.0000000000 772.21289063 3053.3898926 3021.3903809  -999.250000  -999.250000  -999.250000  -999.250000  -999.250000  -999.250000  -999.250000  -999.250000
