# LAS format log file from PETREL
# Project units are specified as depth units
#==================================================================
~Version information
VERS.   2.0:
WRAP.   NO:
#==================================================================
~Well
STRT .ft      57.000000000 :
STOP .ft      5817.0000000 :
STEP .ft     0.50000000 :
NULL .        -999.250000 :
COMP.           : COMPANY
WELL.  71-1-X-4   : WELL
FLD.            : FIELD
LOC.            : LOCATION
SRVC.           : SERVICE COMPANY
DATE.  Tuesday, June 19 2007 20:47:13   : DATE
PROV.           : PROVINCE
UWI.   490252304800   : UNIQUE WELL ID
API.            : API NUMBER
#==================================================================
~Curve
DEPT .ft                   : DEPTH
DEPT .ft                  : DEPT
DT .us/ft                 : DT
DTnew .us/ft              : DTnew
GeneralTime1 .ms          : General Time 1
HCAL .in                  : HCAL
Zoneloglinkedto'WellTopsMain' .  : Zone log linked to 'Well Tops Main'
TWT[Final](Surfaces) .ms  : TWT [Final] (Surfaces)
Velocity[Final](Surfaces) .ft/s : Velocity [Final] (Surfaces)
Velocity[Final](VelocityModel1) .ft/s : Velocity [Final] (Velocity Model 1)
Continuous .              : Continuous
Zoneloglinkedto'Welltops(from3Dgrid)' .  : Zone log linked to 'Well tops (from 3D grid)'
IntensitySGS(8000x3000x30) .  : Intensity SGS (8000x3000x30)
Intensity .               : Intensity
Cumulative .              : Cumulative
GR[Derived]1 .gAPI        : GR [Derived] 1
Intensity .               : Intensity
Cumulative .              : Cumulative
~Parameter
#==================================================================
~Ascii
# ...
 4694.5000000 4694.5000000 67.810897827 135.62179565 721.57470703 10.831500053 4.0000000000 986.49017334 4240.8598633 4268.4667969  -999.250000  -999.250000  -999.250000  -999.250000  -999.250000  -999.250000  -999.250000  -999.250000
 4695.0000000 4695.0000000 70.226402283 140.45280457 721.64373779 10.846199989 4.0000000000 986.56201172 4240.8598633 4268.4667969  -999.250000  -999.250000  -999.250000  -999.250000  -999.250000  -999.250000  -999.250000  -999.250000
 4695.5000000 4695.5000000 71.509002686 143.01800537 721.71459961 10.845600128 4.0000000000 986.63391113 4240.8598633 4268.4667969  -999.250000  -999.250000  -999.250000  -999.250000  -999.250000  -999.250000  -999.250000  -999.250000
 4696.0000000 4696.0000000 72.195297241 144.39059448 721.78643799 10.830100060 4.0000000000 986.70581055 4240.8598633 4268.4667969  -999.250000  -999.250000  -999.250000  -999.250000  -999.250000  -999.250000  -999.250000  -999.250000
 4696.5000000 4696.5000000 72.789802551 145.57960510 721.85894775 10.822099686 4.0000000000 986.77764893 4240.8598633 4268.4667969  -999.250000  -999.250000  -999.250000  -999.250000  -999.250000  -999.250000  -999.250000  -999.250000
 4697.0000000 4697.0000000 75.129798889 150.25959778 721.93286133 10.791500092 4.0000000000 986.84954834 4240.8598633 4268.4667969  -999.250000  -999.250000  -999.250000  -999.250000  -999.250000  -999.250000  -999.250000  -999.250000
 4697.5000000 4697.5000000 78.245498657 156.49099731 722.00958252 10.768500328 4.0000000000 986.92138672 4240.8598633 4268.4667969  -999.250000  -999.250000  -999.250000  -999.250000  -999.250000  -999.250000  -999.250000  -999.250000
 4698.0000000 4698.0000000 78.676902771 157.35380554 722.08801270 10.745499611 4.0000000000 986.99328613 4240.8598633 4268.4667969  -999.250000  -999.250000  -999.250000  -999.250000  -999.250000  -999.250000  -999.250000  -999.250000
 4698.5000000 4698.5000000 76.938003540 153.87600708 722.16583252 10.707200050 4.0000000000 987.06512451 4240.8598633 4268.4667969  -999.250000  -999.250000  -999.250000  -999.250000  -999.250000  -999.250000  -999.250000  -999.250000
 4699.0000000 4699.0000000 74.789100647 149.57820129 722.24169922 10.691699982 4.0000000000 987.13702393 4240.8598633 4268.4667969  -999.250000  -999.250000  -999.250000  -999.250000  -999.250000  -999.250000  -999.250000  -999.250000
 4699.5000000 4699.5000000 69.759597778 139.51919556 722.31396484 10.676199913 4.0000000000 987.20886230 4240.8598633 4268.4667969  -999.250000  -999.250000  -999.250000  -999.250000  -999.250000  -999.250000  -999.250000  -999.250000
 4700.0000000 4700.0000000 66.359397888 132.71879578 722.38201904 10.660599709 4.0000000000 987.28076172 4240.8598633 4268.4667969  -999.250000  -999.250000  -999.250000  -999.250000  -999.250000  -999.250000  -999.250000  -999.250000
 4700.5000000 4700.5000000 65.073997498 130.14799500 722.44775391 10.645099640 4.0000000000 987.35266113 4240.8598633 4268.4667969  -999.250000  -999.250000  -999.250000  -999.250000  -999.250000  -999.250000  -999.250000  -999.250000
 4701.0000000 4701.0000000 64.770103455 129.54020691 722.51269531 10.629599571 4.0000000000 987.42449951 4240.8598633 4268.4667969  -999.250000  -999.250000  -999.250000  -999.250000  -999.250000  -999.250000  -999.250000  -999.250000
 4701.5000000 4701.5000000 64.844299316 129.68859863 722.57745361 10.598899841 4.0000000000 987.49639893 4240.8598633 4268.4667969  -999.250000  -999.250000  -999.250000  -999.250000  -999.250000  -999.250000  -999.250000  -999.250000
 4702.0000000 4702.0000000 64.842903137 129.68580627 722.64233398 10.568300247 4.0000000000 987.56823730 4240.8598633 4268.4667969  -999.250000  -999.250000  -999.250000  -999.250000  -999.250000  -999.250000  -999.250000  -999.250000
 4702.5000000 4702.5000000 64.916702271 129.83340454 722.70721436 10.545200348 4.0000000000 987.64013672 4240.8598633 4268.4667969  -999.250000  -999.250000  -999.250000  -999.250000  -999.250000  -999.250000  -999.250000  -999.250000
 4703.0000000 4703.0000000 65.066703796 130.13340759 722.77221680 10.522199631 4.0000000000 987.71197510 4240.8598633 4268.4667969  -999.250000  -999.250000  -999.250000  -999.250000  -999.250000  -999.250000  -999.250000  -999.250000
 4703.5000000 4703.5000000 65.836097717 131.67219543 722.83764648 10.491600037 4.0000000000 987.78387451 4240.8598633 4268.4667969  -999.250000  -999.250000  -999.250000  -999.250000  -999.250000  -999.250000  -999.250000  -999.250000
 4704.0000000 4704.0000000 67.574203491 135.14840698 722.90435791 10.445799828 4.0000000000 987.85571289 4240.8598633 4268.4667969  -999.250000  -999.250000  -999.250000  -999.250000  -999.250000  -999.250000  -999.250000  -999.250000
 4704.5000000 4704.5000000 70.747100830 141.49420166 722.97351074 10.415200233 4.0000000000 987.92761230 4240.8598633 4268.4667969  -999.250000  -999.250000  -999.250000  -999.250000  -999.250000  -999.250000  -999.250000  -999.250000
 4705.0000000 4705.0000000 74.222099304 148.44419861 723.04602051 10.399700165 4.0000000000 987.99951172 4240.8598633 4268.4667969  -999.250000  -999.250000  -999.250000  -999.250000  -999.250000  -999.250000  -999.250000  -999.250000
 4705.5000000 4705.5000000 75.657897949 151.31579590 723.12091064 10.384099960 4.0000000000 988.07135010 4240.8598633 4268.4667969  -999.250000  -999.250000  -999.250000  -999.250000  -999.250000  -999.250000  -999.250000  -999.250000
 4706.0000000 4706.0000000 75.960800171 151.92160034 723.19677734 10.383700371 4.0000000000 988.14324951 4240.8598633 4268.4667969  -999.250000  -999.250000  -999.250000  -999.250000  -999.250000  -999.250000  -999.250000  -999.250000
 4706.5000000 4706.5000000 76.414703369 152.82940674 723.27294922 10.353099823 4.0000000000 988.21508789 4240.8598633 4268.4667969  -999.250000  -999.250000  -999.250000  -999.250000  -999.250000  -999.250000  -999.250000  -999.250000
 4707.0000000 4707.0000000 76.717498779 153.43499756 723.34948730 10.307399750 4.0000000000 988.28698730 4240.8598633 4268.4667969  -999.250000  -999.250000  -999.250000  -999.250000  -999.250000  -999.250000  -999.250000  -999.250000
 4707.5000000 4707.5000000 76.642898560 153.28579712 723.42620850 10.276800156 4.0000000000 988.35882568 4240.8598633 4268.4667969  -999.250000  -999.250000  -999.250000  -999.250000  -999.250000  -999.250000  -999.250000  -999.250000
 4708.0000000 4708.0000000 75.284103394 150.56820679 723.50213623 10.238599777 4.0000000000 988.43072510 4240.8598633 4268.4667969  -999.250000  -999.250000  -999.250000  -999.250000  -999.250000  -999.250000  -999.250000  -999.250000
 4708.5000000 4708.5000000 70.601997375 141.20399475 723.57507324 10.215499878 4.0000000000 988.50256348 4240.8598633 4268.4667969  -999.250000  -999.250000  -999.250000  -999.250000  -999.250000  -999.250000  -999.250000  -999.250000
 4709.0000000 4709.0000000 66.599700928 133.19940186 723.64367676 10.199999809 4.0000000000 988.57446289 4240.8598633 4268.4667969  -999.250000  -999.250000  -999.250000  -999.250000  -999.250000  -999.250000  -999.250000  -999.250000
 4709.5000000 4709.5000000 63.428398132 126.85679626 723.70867920 10.169300079 4.0000000000 988.64630127 4240.8598633 4268.4667969  -999.250000  -999.250000  -999.250000  -999.250000  -999.250000  -999.250000  -999.250000  -999.250000
 4710.0000000 4710.0000000 63.353401184 126.70680237 723.77209473 10.128199577 4.0000000000 988.71820068 4240.8598633 4268.4667969  -999.250000  -999.250000  -999.250000  -999.250000  -999.250000  -999.250000  -999.250000  -999.250000
 4710.5000000 4710.5000000 63.656398773 127.31279755 723.83557129 10.104999542 4.0000000000 988.79010010 4240.8598633 4268.4667969  -999.250000  -999.250000  -999.250000  -999.250000  -999.250000  -999.250000  -999.250000  -999.250000
 4711.0000000 4711.0000000 63.959201813 127.91840363 723.89941406 10.104399681 4.0000000000 988.86193848 4240.8598633 4268.4667969  -999.250000  -999.250000  -999.250000  -999.250000  -999.250000  -999.250000  -999.250000  -999.250000
 4711.5000000 4711.5000000 64.262199402 128.52439880 723.96350098 10.103699684 4.0000000000 988.93383789 4240.8598633 4268.4667969  -999.250000  -999.250000  -999.250000  -999.250000  -999.250000  -999.250000  -999.250000  -999.250000
