# LAS format log file from PETREL
# Project units are specified as depth units
#==================================================================
~Version information
VERS.   2.0:
WRAP.   NO:
#==================================================================
~Well
STRT .ft      57.000000000 :
STOP .ft      5817.0000000 :
STEP .ft     0.50000000 :
NULL .        -999.250000 :
COMP.           : COMPANY
WELL.  71-1-X-4   : WELL
FLD.            : FIELD
LOC.            : LOCATION
SRVC.           : SERVICE COMPANY
DATE.  Tuesday, June 19 2007 20:47:13   : DATE
PROV.           : PROVINCE
UWI.   490252304800   : UNIQUE WELL ID
API.            : API NUMBER
#==================================================================
~Curve
DEPT .ft                   : DEPTH
DEPT .ft                  : DEPT
DT .us/ft                 : DT
DTnew .us/ft              : DTnew
GeneralTime1 .ms          : General Time 1
HCAL .in                  : HCAL
Zoneloglinkedto'WellTopsMain' .  : Zone log linked to 'Well Tops Main'
TWT[Final](Surfaces) .ms  : TWT [Final] (Surfaces)
Velocity[Final](Surfaces) .ft/s : Velocity [Final] (Surfaces)
Velocity[Final](VelocityModel1) .ft/s : Velocity [Final] (Velocity Model 1)
Continuous .              : Continuous
Zoneloglinkedto'Welltops(from3Dgrid)' .  : Zone log linked to 'Well tops (from 3D grid)'
IntensitySGS(8000x3000x30) .  : Intensity SGS (8000x3000x30)
Intensity .               : Intensity
Cumulative .              : Cumulative
GR[Derived]1 .gAPI        : GR [Derived] 1
Intensity .               : Intensity
Cumulative .              : Cumulative
~Parameter
#==================================================================
~Ascii
# ...
 5779.5000000 5779.5000000 56.634700775 113.26940155 858.41290283 8.7484998703  -999.250000 1141.4434814 4300.0000000 4268.4667969  -999.250000  -999.250000 0.2996999919  -999.250000  -999.250000  -999.250000  -999.250000  -999.250000
 5780.0000000 5780.0000000 56.030101776 112.06020355 858.46923828 8.7481002808  -999.250000 1141.5144043 4300.0000000 4268.4667969  -999.250000  -999.250000 0.2996999919  -999.250000  -999.250000  -999.250000  -999.250000  -999.250000
 5780.5000000 5780.5000000 55.350200653 110.70040131 858.52490234 8.7325000763  -999.250000 1141.5853271 4300.0000000 4268.4667969  -999.250000  -999.250000 0.2996999919  -999.250000  -999.250000  -999.250000  -999.250000  -999.250000
 5781.0000000 5781.0000000 55.575801849 111.15160370 858.58038330 8.7170000076  -999.250000 1141.6561279 4300.0000000 4268.4667969  -999.250000  -999.250000 0.2996999919  -999.250000  -999.250000  -999.250000  -999.250000  -999.250000
 5781.5000000 5781.5000000 58.518398285 117.03679657 858.63745117 8.7166004181  -999.250000 1141.7270508 4300.0000000 4268.4667969  -999.250000  -999.250000 0.2996999919  -999.250000  -999.250000  -999.250000  -999.250000  -999.250000
 5782.0000000 5782.0000000 60.253501892 120.50700378 858.69683838 8.7010002136  -999.250000 1141.7979736 4300.0000000 4268.4667969  -999.250000  -999.250000 0.2996999919  -999.250000  -999.250000  -999.250000  -999.250000  -999.250000
 5782.5000000 5782.5000000 63.787998199 127.57599640 858.75885010 8.6855001450  -999.250000 1141.8688965 4300.0000000 4268.4667969  -999.250000  -999.250000 0.2996999919  -999.250000  -999.250000  -999.250000  -999.250000  -999.250000
 5783.0000000 5783.0000000 65.912399292 131.82479858 858.82366943 8.7152996063  -999.250000 1141.9396973 4300.0000000 4268.4667969  -999.250000  -999.250000 0.2996999919  -999.250000  -999.250000  -999.250000  -999.250000  -999.250000
 5783.5000000 5783.5000000 66.590896606 133.18179321 858.88995361 8.7448997498  -999.250000 1142.0106201 4300.0000000 4268.4667969  -999.250000  -999.250000 0.2996999919  -999.250000  -999.250000  -999.250000  -999.250000  -999.250000
 5784.0000000 5784.0000000 66.514602661 133.02920532 858.95648193 8.7595996857  -999.250000 1142.0815430 4300.0000000 4268.4667969  -999.250000  -999.250000 0.2996999919  -999.250000  -999.250000  -999.250000  -999.250000  -999.250000
 5784.5000000 5784.5000000 65.910102844 131.82020569 859.02270508 8.7892999649  -999.250000 1142.1523438 4300.0000000 4268.4667969  -999.250000  -999.250000 0.2996999919  -999.250000  -999.250000  -999.250000  -999.250000  -999.250000
 5785.0000000 5785.0000000 64.973800659 129.94760132 859.08813477 8.8038997650  -999.250000 1142.2232666 4300.0000000 4268.4667969  -999.250000  -999.250000 0.2996999919  -999.250000  -999.250000  -999.250000  -999.250000  -999.250000
 5785.5000000 5785.5000000 62.889701843 125.77940369 859.15209961 8.7280998230  -999.250000 1142.2941895 4300.0000000 4268.4667969  -999.250000  -999.250000 0.2996999919  -999.250000  -999.250000  -999.250000  -999.250000  -999.250000
 5786.0000000 5786.0000000 61.983398438 123.96679688 859.21453857 8.6371002197  -999.250000 1142.3649902 4300.0000000 4268.4667969  -999.250000  -999.250000 0.2996999919  -999.250000  -999.250000  -999.250000  -999.250000  -999.250000
 5786.5000000 5786.5000000 61.907001495 123.81400299 859.27642822 8.6969995499  -999.250000 1142.4359131 4300.0000000 4268.4667969  -999.250000  -999.250000 0.2996999919  -999.250000  -999.250000  -999.250000  -999.250000  -999.250000
 5787.0000000 5787.0000000 61.830898285 123.66179657 859.33831787 8.7870998383  -999.250000 1142.5068359 4300.0000000 4268.4667969  -999.250000  -999.250000 0.2996999919  -999.250000  -999.250000  -999.250000  -999.250000  -999.250000
 5787.5000000 5787.5000000 61.754699707 123.50939941 859.40014648 8.8468999863  -999.250000 1142.5776367 4300.0000000 4268.4667969  -999.250000  -999.250000 0.2996999919  -999.250000  -999.250000  -999.250000  -999.250000  -999.250000
 5788.0000000 5788.0000000 60.923698425 121.84739685 859.46148682 8.8614997864  -999.250000 1142.6485596 4300.0000000 4268.4667969  -999.250000  -999.250000 0.2996999919  -999.250000  -999.250000  -999.250000  -999.250000  -999.250000
 5788.5000000 5788.5000000 59.639999390 119.27999878 859.52172852 8.8459997177  -999.250000 1142.7194824 4300.0000000 4268.4667969  -999.250000  -999.250000 0.2996999919  -999.250000  -999.250000  -999.250000  -999.250000  -999.250000
 5789.0000000 5789.0000000 57.601398468 115.20279694 859.58038330 8.7852001190  -999.250000 1142.7904053 4300.0000000 4268.4667969  -999.250000  -999.250000 0.2996999919  -999.250000  -999.250000  -999.250000  -999.250000  -999.250000
 5789.5000000 5789.5000000 54.732799530 109.46559906 859.63653564 8.7545995712  -999.250000 1142.8612061 4300.0000000 4268.4667969  -999.250000  -999.250000 0.2996999919  -999.250000  -999.250000  -999.250000  -999.250000  -999.250000
 5790.0000000 5790.0000000 52.575099945 105.15019989 859.69018555 8.7541999817  -999.250000 1142.9321289 4300.0000000 4268.4667969  -999.250000  -999.250000 0.2996999919  -999.250000  -999.250000  -999.250000  -999.250000  -999.250000
 5790.5000000 5790.5000000 50.353900909 100.70780182 859.74163818 8.7537002563  -999.250000 1143.0030518 4300.0000000 4268.4667969  -999.250000  -999.250000 0.2996999919  -999.250000  -999.250000  -999.250000  -999.250000  -999.250000
 5791.0000000 5791.0000000 49.900398254 99.800796509 859.79174805 8.7684001923  -999.250000 1143.0738525 4300.0000000 4268.4667969  -999.250000  -999.250000 0.2996999919  -999.250000  -999.250000  -999.250000  -999.250000  -999.250000
 5791.5000000 5791.5000000 50.654201508 101.30840302 859.84204102 8.7527999878  -999.250000 1143.1447754 4300.0000000 4268.4667969  -999.250000  -999.250000 0.2996999919  -999.250000  -999.250000  -999.250000  -999.250000  -999.250000
 5792.0000000 5792.0000000 51.257301331 102.51460266 859.89300537 8.7523002625  -999.250000 1143.2156982 4300.0000000 4268.4667969  -999.250000  -999.250000 0.2996999919  -999.250000  -999.250000  -999.250000  -999.250000  -999.250000
 5792.5000000 5792.5000000 51.332099915 102.66419983 859.94427490 8.7518997192  -999.250000 1143.2866211 4300.0000000 4268.4667969  -999.250000  -999.250000 0.2996999919  -999.250000  -999.250000  -999.250000  -999.250000  -999.250000
 5793.0000000 5793.0000000 51.331199646 102.66239929 859.99560547 8.7513999939  -999.250000 1143.3574219 4300.0000000 4268.4667969  -999.250000  -999.250000 0.2996999919  -999.250000  -999.250000  -999.250000  -999.250000  -999.250000
 5793.5000000 5793.5000000 51.330501556 102.66100311 860.04693604 8.7510004044  -999.250000 1143.4283447 4300.0000000 4268.4667969  -999.250000  -999.250000 0.2996999919  -999.250000  -999.250000  -999.250000  -999.250000  -999.250000
 5794.0000000 5794.0000000 51.631599426 103.26319885 860.09844971 8.7355003357  -999.250000 1143.4992676 4300.0000000 4268.4667969  -999.250000  -999.250000 0.2996999919  -999.250000  -999.250000  -999.250000  -999.250000  -999.250000
 5794.5000000 5794.5000000 51.932800293 103.86560059 860.15020752 8.7349996567  -999.250000 1143.5700684 4300.0000000 4268.4667969  -999.250000  -999.250000 0.2996999919  -999.250000  -999.250000  -999.250000  -999.250000  -999.250000
 5795.0000000 5795.0000000 52.007598877 104.01519775 860.20220947 8.7346000671  -999.250000 1143.6409912 4300.0000000 4268.4667969  -999.250000  -999.250000 0.2996999919  -999.250000  -999.250000  -999.250000  -999.250000  -999.250000
 5795.5000000 5795.5000000 52.082298279 104.16459656 860.25421143 8.7340002060  -999.250000 1143.7119141 4300.0000000 4268.4667969  -999.250000  -999.250000 0.2996999919  -999.250000  -999.250000  -999.250000  -999.250000  -999.250000
 5796.0000000 5796.0000000 52.081501007 104.16300201 860.30633545 8.7335996628  -999.250000 1143.7827148 4300.0000000 4268.4667969  -999.250000  -999.250000 0.2996999919  -999.250000  -999.250000  -999.250000  -999.250000  -999.250000
 5796.5000000 5796.5000000 52.005100250 104.01020050 860.35833740 8.7332000732  -999.250000 1143.8536377 4300.0000000 4268.4667969  -999.250000  -999.250000 0.2996999919  -999.250000  -999.250000  -999.250000  -999.250000  -999.250000
